tasks:
- task_id: task_0001
  name: background_0112
  latitude_deg: 43.804176
  longitude_deg: 23.42619
  altitude_m: 0.0
  release_time: '2026-04-14T22:46:00Z'
  due_time: '2026-04-14T23:06:30Z'
  required_duration_s: 30
  required_sensor_type: visible
  weight: 1.5
- task_id: task_0002
  name: background_0987
  latitude_deg: 24.781545
  longitude_deg: 49.287157
  altitude_m: 0.0
  release_time: '2026-04-15T07:17:30Z'
  due_time: '2026-04-15T07:34:00Z'
  required_duration_s: 50
  required_sensor_type: visible
  weight: 2.0
- task_id: task_0003
  name: background_0236
  latitude_deg: -20.662141
  longitude_deg: -41.629503
  altitude_m: 0.0
  release_time: '2026-04-15T01:16:00Z'
  due_time: '2026-04-15T01:52:30Z'
  required_duration_s: 60
  required_sensor_type: visible
  weight: 1.5
- task_id: task_0004
  name: Hegang, CN
  latitude_deg: 47.34727
  longitude_deg: 130.29033
  altitude_m: 0.0
  release_time: '2026-04-14T21:24:30Z'
  due_time: '2026-04-14T22:00:30Z'
  required_duration_s: 40
  required_sensor_type: visible
  weight: 4.0
- task_id: task_0005
  name: Rio Branco, BR
  latitude_deg: -9.97472
  longitude_deg: -67.81
  altitude_m: 0.0
  release_time: '2026-04-14T22:14:30Z'
  due_time: '2026-04-14T23:06:00Z'
  required_duration_s: 90
  required_sensor_type: visible
  weight: 4.0
- task_id: task_0006
  name: Dushanbe, TJ
  latitude_deg: 38.53575
  longitude_deg: 68.77905
  altitude_m: 0.0
  release_time: '2026-04-15T05:16:00Z'
  due_time: '2026-04-15T06:17:00Z'
  required_duration_s: 60
  required_sensor_type: visible
  weight: 5.0
- task_id: task_0007
  name: "Gh\u0101zi\u0101b\u0101d, IN"
  latitude_deg: 28.66535
  longitude_deg: 77.43915
  altitude_m: 0.0
  release_time: '2026-04-15T05:27:30Z'
  due_time: '2026-04-15T05:53:30Z'
  required_duration_s: 20
  required_sensor_type: infrared
  weight: 3.0
- task_id: task_0008
  name: background_0998
  latitude_deg: 57.644761
  longitude_deg: 132.905347
  altitude_m: 0.0
  release_time: '2026-04-15T02:45:30Z'
  due_time: '2026-04-15T03:07:00Z'
  required_duration_s: 80
  required_sensor_type: visible
  weight: 1.0
- task_id: task_0009
  name: Maoming, CN
  latitude_deg: 21.66625
  longitude_deg: 110.91364
  altitude_m: 0.0
  release_time: '2026-04-15T07:17:00Z'
  due_time: '2026-04-15T07:42:30Z'
  required_duration_s: 30
  required_sensor_type: visible
  weight: 5.0
- task_id: task_0010
  name: background_0096
  latitude_deg: 69.453626
  longitude_deg: -149.305085
  altitude_m: 0.0
  release_time: '2026-04-15T06:24:30Z'
  due_time: '2026-04-15T07:35:30Z'
  required_duration_s: 60
  required_sensor_type: infrared
  weight: 1.0
- task_id: task_0011
  name: Kirov, RU
  latitude_deg: 58.59809
  longitude_deg: 49.65783
  altitude_m: 0.0
  release_time: '2026-04-15T07:33:00Z'
  due_time: '2026-04-15T08:00:00Z'
  required_duration_s: 90
  required_sensor_type: visible
  weight: 3.0
- task_id: task_0012
  name: background_0204
  latitude_deg: 70.858255
  longitude_deg: -33.74936
  altitude_m: 0.0
  release_time: '2026-04-14T23:05:30Z'
  due_time: '2026-04-14T23:27:30Z'
  required_duration_s: 50
  required_sensor_type: visible
  weight: 1.5
- task_id: task_0013
  name: background_0655
  latitude_deg: 31.902861
  longitude_deg: 20.405361
  altitude_m: 0.0
  release_time: '2026-04-14T20:34:00Z'
  due_time: '2026-04-14T20:50:30Z'
  required_duration_s: 75
  required_sensor_type: visible
  weight: 2.0
- task_id: task_0014
  name: Kigali, RW
  latitude_deg: -1.94995
  longitude_deg: 30.05885
  altitude_m: 0.0
  release_time: '2026-04-15T00:19:30Z'
  due_time: '2026-04-15T00:45:30Z'
  required_duration_s: 50
  required_sensor_type: visible
  weight: 3.0
- task_id: task_0015
  name: background_0681
  latitude_deg: 27.87257
  longitude_deg: 63.740326
  altitude_m: 0.0
  release_time: '2026-04-15T05:44:00Z'
  due_time: '2026-04-15T06:20:30Z'
  required_duration_s: 30
  required_sensor_type: visible
  weight: 1.5
- task_id: task_0016
  name: background_0720
  latitude_deg: -27.020118
  longitude_deg: -65.787188
  altitude_m: 0.0
  release_time: '2026-04-15T02:30:00Z'
  due_time: '2026-04-15T03:51:30Z'
  required_duration_s: 90
  required_sensor_type: visible
  weight: 1.5
- task_id: task_0017
  name: Cheboksary, RU
  latitude_deg: 56.13218
  longitude_deg: 47.246
  altitude_m: 0.0
  release_time: '2026-04-15T07:43:30Z'
  due_time: '2026-04-15T08:00:00Z'
  required_duration_s: 80
  required_sensor_type: visible
  weight: 4.0
- task_id: task_0018
  name: background_0978
  latitude_deg: 59.560776
  longitude_deg: -63.987057
  altitude_m: 0.0
  release_time: '2026-04-14T21:08:30Z'
  due_time: '2026-04-14T22:29:30Z'
  required_duration_s: 20
  required_sensor_type: visible
  weight: 1.0
- task_id: task_0019
  name: Baku, AZ
  latitude_deg: 40.37767
  longitude_deg: 49.89201
  altitude_m: 0.0
  release_time: '2026-04-15T07:03:30Z'
  due_time: '2026-04-15T08:00:00Z'
  required_duration_s: 80
  required_sensor_type: visible
  weight: 5.0
- task_id: task_0020
  name: background_0734
  latitude_deg: 34.847075
  longitude_deg: 136.890696
  altitude_m: 0.0
  release_time: '2026-04-15T00:57:30Z'
  due_time: '2026-04-15T02:19:00Z'
  required_duration_s: 70
  required_sensor_type: visible
  weight: 1.0
- task_id: task_0021
  name: Guigang, CN
  latitude_deg: 23.11603
  longitude_deg: 109.59472
  altitude_m: 0.0
  release_time: '2026-04-15T02:47:00Z'
  due_time: '2026-04-15T03:13:30Z'
  required_duration_s: 70
  required_sensor_type: visible
  weight: 3.0
- task_id: task_0022
  name: Xiangtan, CN
  latitude_deg: 27.85
  longitude_deg: 112.9
  altitude_m: 0.0
  release_time: '2026-04-15T07:05:30Z'
  due_time: '2026-04-15T07:41:00Z'
  required_duration_s: 30
  required_sensor_type: visible
  weight: 3.0
- task_id: task_0023
  name: Mohammadpur, BD
  latitude_deg: 24.89843
  longitude_deg: 88.52844
  altitude_m: 0.0
  release_time: '2026-04-15T03:24:00Z'
  due_time: '2026-04-15T03:50:00Z'
  required_duration_s: 45
  required_sensor_type: visible
  weight: 3.0
- task_id: task_0024
  name: Shiraz, IR
  latitude_deg: 29.61031
  longitude_deg: 52.53113
  altitude_m: 0.0
  release_time: '2026-04-15T02:30:00Z'
  due_time: '2026-04-15T02:56:00Z'
  required_duration_s: 20
  required_sensor_type: visible
  weight: 5.0
- task_id: task_0025
  name: background_0559
  latitude_deg: 51.495445
  longitude_deg: 41.117365
  altitude_m: 0.0
  release_time: '2026-04-15T07:48:00Z'
  due_time: '2026-04-15T08:00:00Z'
  required_duration_s: 30
  required_sensor_type: visible
  weight: 2.0
- task_id: task_0026
  name: Brahmapur, IN
  latitude_deg: 19.31151
  longitude_deg: 84.7929
  altitude_m: 0.0
  release_time: '2026-04-15T04:29:30Z'
  due_time: '2026-04-15T04:51:00Z'
  required_duration_s: 20
  required_sensor_type: visible
  weight: 4.0
- task_id: task_0027
  name: Paris, FR
  latitude_deg: 48.85341
  longitude_deg: 2.3488
  altitude_m: 0.0
  release_time: '2026-04-15T00:26:30Z'
  due_time: '2026-04-15T00:52:30Z'
  required_duration_s: 20
  required_sensor_type: visible
  weight: 5.0
- task_id: task_0028
  name: Arusha, TZ
  latitude_deg: -3.36667
  longitude_deg: 36.68333
  altitude_m: 0.0
  release_time: '2026-04-15T06:56:00Z'
  due_time: '2026-04-15T08:00:00Z'
  required_duration_s: 75
  required_sensor_type: visible
  weight: 3.0
- task_id: task_0029
  name: Kalemyo, MM
  latitude_deg: 23.19014
  longitude_deg: 94.06405
  altitude_m: 0.0
  release_time: '2026-04-15T04:14:30Z'
  due_time: '2026-04-15T05:01:30Z'
  required_duration_s: 120
  required_sensor_type: visible
  weight: 3.0
- task_id: task_0030
  name: Aba, NG
  latitude_deg: 5.10658
  longitude_deg: 7.36667
  altitude_m: 0.0
  release_time: '2026-04-14T21:00:30Z'
  due_time: '2026-04-14T21:27:30Z'
  required_duration_s: 70
  required_sensor_type: visible
  weight: 5.0
- task_id: task_0031
  name: background_0584
  latitude_deg: -26.670377
  longitude_deg: 17.600858
  altitude_m: 0.0
  release_time: '2026-04-14T20:56:30Z'
  due_time: '2026-04-14T21:13:30Z'
  required_duration_s: 60
  required_sensor_type: visible
  weight: 1.0
- task_id: task_0032
  name: Chichicastenango, GT
  latitude_deg: 14.94333
  longitude_deg: -91.11116
  altitude_m: 0.0
  release_time: '2026-04-15T03:53:30Z'
  due_time: '2026-04-15T04:15:00Z'
  required_duration_s: 50
  required_sensor_type: visible
  weight: 3.0
- task_id: task_0033
  name: background_0416
  latitude_deg: 16.138779
  longitude_deg: -91.530824
  altitude_m: 0.0
  release_time: '2026-04-15T03:54:00Z'
  due_time: '2026-04-15T04:10:30Z'
  required_duration_s: 40
  required_sensor_type: visible
  weight: 1.0
- task_id: task_0034
  name: Taizhou, CN
  latitude_deg: 28.66266
  longitude_deg: 121.43312
  altitude_m: 0.0
  release_time: '2026-04-15T02:39:00Z'
  due_time: '2026-04-15T03:10:30Z'
  required_duration_s: 50
  required_sensor_type: visible
  weight: 4.0
- task_id: task_0035
  name: background_0213
  latitude_deg: -69.507689
  longitude_deg: 130.579162
  altitude_m: 0.0
  release_time: '2026-04-14T23:05:30Z'
  due_time: '2026-04-15T00:27:30Z'
  required_duration_s: 120
  required_sensor_type: visible
  weight: 1.0
- task_id: task_0036
  name: Muzaffarnagar, IN
  latitude_deg: 29.47091
  longitude_deg: 77.70332
  altitude_m: 0.0
  release_time: '2026-04-15T04:37:30Z'
  due_time: '2026-04-15T05:49:00Z'
  required_duration_s: 30
  required_sensor_type: visible
  weight: 5.0
- task_id: task_0037
  name: background_0614
  latitude_deg: 22.146074
  longitude_deg: 24.149851
  altitude_m: 0.0
  release_time: '2026-04-15T04:11:00Z'
  due_time: '2026-04-15T04:47:00Z'
  required_duration_s: 50
  required_sensor_type: visible
  weight: 2.0
- task_id: task_0038
  name: Jingzhou, CN
  latitude_deg: 30.35028
  longitude_deg: 112.19028
  altitude_m: 0.0
  release_time: '2026-04-15T02:45:00Z'
  due_time: '2026-04-15T03:31:30Z'
  required_duration_s: 90
  required_sensor_type: visible
  weight: 4.0
- task_id: task_0039
  name: background_0078
  latitude_deg: 21.282086
  longitude_deg: 29.901351
  altitude_m: 0.0
  release_time: '2026-04-15T01:15:00Z'
  due_time: '2026-04-15T01:45:30Z'
  required_duration_s: 20
  required_sensor_type: infrared
  weight: 2.0
- task_id: task_0040
  name: Sioux Falls, US
  latitude_deg: 43.54369
  longitude_deg: -96.72796
  altitude_m: 0.0
  release_time: '2026-04-15T06:57:30Z'
  due_time: '2026-04-15T07:23:30Z'
  required_duration_s: 40
  required_sensor_type: visible
  weight: 5.0
- task_id: task_0041
  name: background_0713
  latitude_deg: -18.536216
  longitude_deg: 16.133578
  altitude_m: 0.0
  release_time: '2026-04-14T20:48:30Z'
  due_time: '2026-04-14T21:30:30Z'
  required_duration_s: 70
  required_sensor_type: visible
  weight: 1.5
- task_id: task_0042
  name: Liaocheng, CN
  latitude_deg: 36.45064
  longitude_deg: 116.00247
  altitude_m: 0.0
  release_time: '2026-04-15T02:19:00Z'
  due_time: '2026-04-15T02:55:30Z'
  required_duration_s: 70
  required_sensor_type: visible
  weight: 3.0
- task_id: task_0043
  name: background_0027
  latitude_deg: -20.777267
  longitude_deg: 125.873394
  altitude_m: 0.0
  release_time: '2026-04-15T05:44:30Z'
  due_time: '2026-04-15T06:25:00Z'
  required_duration_s: 30
  required_sensor_type: visible
  weight: 1.0
- task_id: task_0044
  name: Seeb, OM
  latitude_deg: 23.67027
  longitude_deg: 58.18911
  altitude_m: 0.0
  release_time: '2026-04-15T05:54:30Z'
  due_time: '2026-04-15T07:06:30Z'
  required_duration_s: 75
  required_sensor_type: visible
  weight: 4.0
- task_id: task_0045
  name: background_0011
  latitude_deg: 47.643068
  longitude_deg: 55.927263
  altitude_m: 0.0
  release_time: '2026-04-15T06:46:00Z'
  due_time: '2026-04-15T07:47:30Z'
  required_duration_s: 75
  required_sensor_type: visible
  weight: 1.5
- task_id: task_0046
  name: background_0239
  latitude_deg: 21.941379
  longitude_deg: 86.98615
  altitude_m: 0.0
  release_time: '2026-04-15T03:30:00Z'
  due_time: '2026-04-15T04:00:30Z'
  required_duration_s: 30
  required_sensor_type: visible
  weight: 2.0
- task_id: task_0047
  name: Ningbo, CN
  latitude_deg: 29.87819
  longitude_deg: 121.54945
  altitude_m: 0.0
  release_time: '2026-04-15T02:28:30Z'
  due_time: '2026-04-15T02:55:00Z'
  required_duration_s: 75
  required_sensor_type: visible
  weight: 5.0
- task_id: task_0048
  name: Kota Kuala Muda, MY
  latitude_deg: 5.58822
  longitude_deg: 100.37085
  altitude_m: 0.0
  release_time: '2026-04-15T02:37:30Z'
  due_time: '2026-04-15T03:23:30Z'
  required_duration_s: 40
  required_sensor_type: visible
  weight: 3.0
- task_id: task_0049
  name: Aguascalientes, MX
  latitude_deg: 21.88262
  longitude_deg: -102.2843
  altitude_m: 0.0
  release_time: '2026-04-15T06:58:30Z'
  due_time: '2026-04-15T07:14:30Z'
  required_duration_s: 20
  required_sensor_type: visible
  weight: 3.0
- task_id: task_0050
  name: background_0029
  latitude_deg: 34.332066
  longitude_deg: 58.464725
  altitude_m: 0.0
  release_time: '2026-04-14T23:32:30Z'
  due_time: '2026-04-15T00:13:30Z'
  required_duration_s: 30
  required_sensor_type: infrared
  weight: 2.0
- task_id: task_0051
  name: background_0375
  latitude_deg: 11.384307
  longitude_deg: 79.510386
  altitude_m: 0.0
  release_time: '2026-04-15T04:31:30Z'
  due_time: '2026-04-15T05:03:30Z'
  required_duration_s: 60
  required_sensor_type: visible
  weight: 2.0
- task_id: task_0052
  name: Pekalongan, ID
  latitude_deg: -6.8886
  longitude_deg: 109.6753
  altitude_m: 0.0
  release_time: '2026-04-15T02:59:00Z'
  due_time: '2026-04-15T03:15:30Z'
  required_duration_s: 70
  required_sensor_type: visible
  weight: 4.0
- task_id: task_0053
  name: Palermo, IT
  latitude_deg: 38.1166
  longitude_deg: 13.3636
  altitude_m: 0.0
  release_time: '2026-04-15T07:02:00Z'
  due_time: '2026-04-15T07:22:30Z'
  required_duration_s: 20
  required_sensor_type: visible
  weight: 3.0
- task_id: task_0054
  name: Xingtai, CN
  latitude_deg: 37.06217
  longitude_deg: 114.49272
  altitude_m: 0.0
  release_time: '2026-04-15T02:53:00Z'
  due_time: '2026-04-15T03:14:30Z'
  required_duration_s: 90
  required_sensor_type: visible
  weight: 4.0
- task_id: task_0055
  name: Ballari, IN
  latitude_deg: 15.14205
  longitude_deg: 76.92398
  altitude_m: 0.0
  release_time: '2026-04-15T04:41:00Z'
  due_time: '2026-04-15T05:02:30Z'
  required_duration_s: 50
  required_sensor_type: visible
  weight: 4.0
- task_id: task_0056
  name: Seattle, US
  latitude_deg: 47.60621
  longitude_deg: -122.33207
  altitude_m: 0.0
  release_time: '2026-04-15T05:25:30Z'
  due_time: '2026-04-15T05:52:00Z'
  required_duration_s: 60
  required_sensor_type: visible
  weight: 5.0
- task_id: task_0057
  name: Las Tunas, CU
  latitude_deg: 20.96135
  longitude_deg: -76.95192
  altitude_m: 0.0
  release_time: '2026-04-15T03:18:30Z'
  due_time: '2026-04-15T03:35:00Z'
  required_duration_s: 80
  required_sensor_type: visible
  weight: 4.0
- task_id: task_0058
  name: Meknes, MA
  latitude_deg: 33.89352
  longitude_deg: -5.54727
  altitude_m: 0.0
  release_time: '2026-04-14T21:55:30Z'
  due_time: '2026-04-14T22:46:30Z'
  required_duration_s: 30
  required_sensor_type: visible
  weight: 4.0
- task_id: task_0059
  name: Hamamatsu, JP
  latitude_deg: 34.7
  longitude_deg: 137.73333
  altitude_m: 0.0
  release_time: '2026-04-15T00:47:30Z'
  due_time: '2026-04-15T01:34:00Z'
  required_duration_s: 75
  required_sensor_type: visible
  weight: 3.0
- task_id: task_0060
  name: Little Rock, US
  latitude_deg: 34.74648
  longitude_deg: -92.28959
  altitude_m: 0.0
  release_time: '2026-04-15T03:52:30Z'
  due_time: '2026-04-15T04:49:00Z'
  required_duration_s: 90
  required_sensor_type: visible
  weight: 5.0
- task_id: task_0061
  name: background_0860
  latitude_deg: 41.078825
  longitude_deg: 98.204072
  altitude_m: 0.0
  release_time: '2026-04-15T04:21:00Z'
  due_time: '2026-04-15T04:57:30Z'
  required_duration_s: 80
  required_sensor_type: visible
  weight: 1.0
- task_id: task_0062
  name: background_0817
  latitude_deg: 40.592355
  longitude_deg: 8.952447
  altitude_m: 0.0
  release_time: '2026-04-14T21:06:00Z'
  due_time: '2026-04-14T21:38:00Z'
  required_duration_s: 60
  required_sensor_type: visible
  weight: 2.0
- task_id: task_0063
  name: background_0051
  latitude_deg: 26.744071
  longitude_deg: 75.513709
  altitude_m: 0.0
  release_time: '2026-04-15T01:05:00Z'
  due_time: '2026-04-15T01:21:00Z'
  required_duration_s: 50
  required_sensor_type: visible
  weight: 2.0
- task_id: task_0064
  name: Namangan, UZ
  latitude_deg: 40.9983
  longitude_deg: 71.67257
  altitude_m: 0.0
  release_time: '2026-04-15T05:34:30Z'
  due_time: '2026-04-15T06:45:30Z'
  required_duration_s: 40
  required_sensor_type: visible
  weight: 3.0
- task_id: task_0065
  name: Shaoguan, CN
  latitude_deg: 24.8
  longitude_deg: 113.58333
  altitude_m: 0.0
  release_time: '2026-04-15T02:45:30Z'
  due_time: '2026-04-15T03:22:00Z'
  required_duration_s: 30
  required_sensor_type: visible
  weight: 5.0
- task_id: task_0066
  name: Kumasi, GH
  latitude_deg: 6.68848
  longitude_deg: -1.62443
  altitude_m: 0.0
  release_time: '2026-04-15T01:53:00Z'
  due_time: '2026-04-15T02:43:30Z'
  required_duration_s: 30
  required_sensor_type: infrared
  weight: 4.0
- task_id: task_0067
  name: background_0852
  latitude_deg: -24.416357
  longitude_deg: 14.813922
  altitude_m: 0.0
  release_time: '2026-04-14T20:47:00Z'
  due_time: '2026-04-14T21:14:00Z'
  required_duration_s: 80
  required_sensor_type: visible
  weight: 2.0
- task_id: task_0068
  name: background_0240
  latitude_deg: 21.700909
  longitude_deg: 86.720515
  altitude_m: 0.0
  release_time: '2026-04-15T04:02:00Z'
  due_time: '2026-04-15T04:33:00Z'
  required_duration_s: 45
  required_sensor_type: visible
  weight: 1.0
- task_id: task_0069
  name: background_0849
  latitude_deg: 24.576557
  longitude_deg: -14.899808
  altitude_m: 0.0
  release_time: '2026-04-14T22:52:30Z'
  due_time: '2026-04-14T23:14:00Z'
  required_duration_s: 80
  required_sensor_type: visible
  weight: 1.5
- task_id: task_0070
  name: background_0354
  latitude_deg: 70.339739
  longitude_deg: 136.957117
  altitude_m: 0.0
  release_time: '2026-04-15T02:33:00Z'
  due_time: '2026-04-15T03:00:00Z'
  required_duration_s: 90
  required_sensor_type: visible
  weight: 2.0
- task_id: task_0071
  name: background_0980
  latitude_deg: -37.01957
  longitude_deg: 149.910402
  altitude_m: 0.0
  release_time: '2026-04-14T23:02:00Z'
  due_time: '2026-04-15T00:13:00Z'
  required_duration_s: 60
  required_sensor_type: visible
  weight: 1.0
- task_id: task_0072
  name: background_0770
  latitude_deg: 66.258523
  longitude_deg: 122.172517
  altitude_m: 0.0
  release_time: '2026-04-15T03:29:00Z'
  due_time: '2026-04-15T04:10:30Z'
  required_duration_s: 80
  required_sensor_type: visible
  weight: 2.0
- task_id: task_0073
  name: "C\u1EA7n Th\u01A1, VN"
  latitude_deg: 10.03711
  longitude_deg: 105.78825
  altitude_m: 0.0
  release_time: '2026-04-15T02:55:30Z'
  due_time: '2026-04-15T03:12:30Z'
  required_duration_s: 100
  required_sensor_type: visible
  weight: 3.0
- task_id: task_0074
  name: background_0006
  latitude_deg: 27.856724
  longitude_deg: -103.400728
  altitude_m: 0.0
  release_time: '2026-04-15T04:24:00Z'
  due_time: '2026-04-15T05:34:30Z'
  required_duration_s: 30
  required_sensor_type: infrared
  weight: 1.0
- task_id: task_0075
  name: background_0761
  latitude_deg: -23.263644
  longitude_deg: 23.654614
  altitude_m: 0.0
  release_time: '2026-04-14T20:28:00Z'
  due_time: '2026-04-14T22:10:00Z'
  required_duration_s: 100
  required_sensor_type: visible
  weight: 1.0
- task_id: task_0076
  name: Ottawa, CA
  latitude_deg: 45.41117
  longitude_deg: -75.69812
  altitude_m: 0.0
  release_time: '2026-04-15T05:20:00Z'
  due_time: '2026-04-15T05:35:30Z'
  required_duration_s: 20
  required_sensor_type: visible
  weight: 3.0
- task_id: task_0077
  name: background_0037
  latitude_deg: 66.97899
  longitude_deg: -72.376836
  altitude_m: 0.0
  release_time: '2026-04-15T01:47:30Z'
  due_time: '2026-04-15T02:18:00Z'
  required_duration_s: 20
  required_sensor_type: infrared
  weight: 1.5
- task_id: task_0078
  name: Campos dos Goytacazes, BR
  latitude_deg: -21.75227
  longitude_deg: -41.33044
  altitude_m: 0.0
  release_time: '2026-04-15T01:17:30Z'
  due_time: '2026-04-15T02:03:30Z'
  required_duration_s: 45
  required_sensor_type: infrared
  weight: 5.0
- task_id: task_0079
  name: background_0647
  latitude_deg: -25.009181
  longitude_deg: -62.788533
  altitude_m: 0.0
  release_time: '2026-04-15T03:51:30Z'
  due_time: '2026-04-15T04:22:00Z'
  required_duration_s: 30
  required_sensor_type: visible
  weight: 2.0
- task_id: task_0080
  name: "Al\u012Bgarh, IN"
  latitude_deg: 27.88145
  longitude_deg: 78.07464
  altitude_m: 0.0
  release_time: '2026-04-15T03:25:00Z'
  due_time: '2026-04-15T04:11:30Z'
  required_duration_s: 75
  required_sensor_type: visible
  weight: 5.0
- task_id: task_0081
  name: Malacca, MY
  latitude_deg: 2.196
  longitude_deg: 102.2405
  altitude_m: 0.0
  release_time: '2026-04-15T02:58:00Z'
  due_time: '2026-04-15T03:20:00Z'
  required_duration_s: 80
  required_sensor_type: visible
  weight: 5.0
- task_id: task_0082
  name: background_0468
  latitude_deg: -0.568826
  longitude_deg: 102.938636
  altitude_m: 0.0
  release_time: '2026-04-15T03:03:30Z'
  due_time: '2026-04-15T03:15:30Z'
  required_duration_s: 70
  required_sensor_type: visible
  weight: 1.5
- task_id: task_0083
  name: Riyadh, SA
  latitude_deg: 24.68773
  longitude_deg: 46.72185
  altitude_m: 0.0
  release_time: '2026-04-15T07:33:00Z'
  due_time: '2026-04-15T08:00:00Z'
  required_duration_s: 50
  required_sensor_type: visible
  weight: 3.0
- task_id: task_0084
  name: Saltillo, MX
  latitude_deg: 25.42595
  longitude_deg: -100.97963
  altitude_m: 0.0
  release_time: '2026-04-15T04:43:00Z'
  due_time: '2026-04-15T05:14:00Z'
  required_duration_s: 30
  required_sensor_type: infrared
  weight: 3.0
- task_id: task_0085
  name: Ipoh, MY
  latitude_deg: 4.5841
  longitude_deg: 101.0829
  altitude_m: 0.0
  release_time: '2026-04-15T00:45:00Z'
  due_time: '2026-04-15T01:25:30Z'
  required_duration_s: 20
  required_sensor_type: visible
  weight: 5.0
- task_id: task_0086
  name: Sete Lagoas, BR
  latitude_deg: -19.46583
  longitude_deg: -44.24667
  altitude_m: 0.0
  release_time: '2026-04-15T01:27:00Z'
  due_time: '2026-04-15T01:48:00Z'
  required_duration_s: 60
  required_sensor_type: visible
  weight: 3.0
- task_id: task_0087
  name: background_0936
  latitude_deg: 40.322711
  longitude_deg: 34.326123
  altitude_m: 0.0
  release_time: '2026-04-15T06:56:30Z'
  due_time: '2026-04-15T07:18:00Z'
  required_duration_s: 20
  required_sensor_type: visible
  weight: 1.0
- task_id: task_0088
  name: Izhevsk, RU
  latitude_deg: 56.85225
  longitude_deg: 53.19862
  altitude_m: 0.0
  release_time: '2026-04-15T07:13:00Z'
  due_time: '2026-04-15T08:00:00Z'
  required_duration_s: 70
  required_sensor_type: visible
  weight: 3.0
- task_id: task_0089
  name: Yangzhou, CN
  latitude_deg: 32.39722
  longitude_deg: 119.43583
  altitude_m: 0.0
  release_time: '2026-04-15T02:28:00Z'
  due_time: '2026-04-15T03:04:30Z'
  required_duration_s: 50
  required_sensor_type: visible
  weight: 4.0
- task_id: task_0090
  name: background_0580
  latitude_deg: -9.06373
  longitude_deg: -56.793061
  altitude_m: 0.0
  release_time: '2026-04-15T02:09:30Z'
  due_time: '2026-04-15T02:21:00Z'
  required_duration_s: 75
  required_sensor_type: visible
  weight: 2.0
- task_id: task_0091
  name: Sanya, CN
  latitude_deg: 18.25435
  longitude_deg: 109.50947
  altitude_m: 0.0
  release_time: '2026-04-15T02:53:30Z'
  due_time: '2026-04-15T03:10:00Z'
  required_duration_s: 80
  required_sensor_type: visible
  weight: 3.0
- task_id: task_0092
  name: background_0889
  latitude_deg: -21.763334
  longitude_deg: -51.143291
  altitude_m: 0.0
  release_time: '2026-04-15T01:50:30Z'
  due_time: '2026-04-15T02:27:30Z'
  required_duration_s: 80
  required_sensor_type: visible
  weight: 1.0
- task_id: task_0093
  name: background_0686
  latitude_deg: -25.906493
  longitude_deg: -69.129254
  altitude_m: 0.0
  release_time: '2026-04-14T22:13:00Z'
  due_time: '2026-04-14T23:43:30Z'
  required_duration_s: 20
  required_sensor_type: visible
  weight: 2.0
- task_id: task_0094
  name: background_0441
  latitude_deg: 5.690997
  longitude_deg: 116.997152
  altitude_m: 0.0
  release_time: '2026-04-15T02:50:00Z'
  due_time: '2026-04-15T03:11:30Z'
  required_duration_s: 30
  required_sensor_type: visible
  weight: 1.0
- task_id: task_0095
  name: Baotou, CN
  latitude_deg: 40.6516
  longitude_deg: 109.84389
  altitude_m: 0.0
  release_time: '2026-04-14T20:23:30Z'
  due_time: '2026-04-14T20:49:30Z'
  required_duration_s: 60
  required_sensor_type: infrared
  weight: 5.0
- task_id: task_0096
  name: "Vit\xF3ria da Conquista, BR"
  latitude_deg: -14.86611
  longitude_deg: -40.83944
  altitude_m: 0.0
  release_time: '2026-04-14T22:45:30Z'
  due_time: '2026-04-14T23:12:00Z'
  required_duration_s: 75
  required_sensor_type: visible
  weight: 3.0
- task_id: task_0097
  name: background_0082
  latitude_deg: 65.459572
  longitude_deg: -91.764758
  altitude_m: 0.0
  release_time: '2026-04-15T03:30:30Z'
  due_time: '2026-04-15T03:56:30Z'
  required_duration_s: 20
  required_sensor_type: infrared
  weight: 1.5
- task_id: task_0098
  name: Laibin, CN
  latitude_deg: 23.74743
  longitude_deg: 109.22222
  altitude_m: 0.0
  release_time: '2026-04-15T07:21:30Z'
  due_time: '2026-04-15T07:37:30Z'
  required_duration_s: 60
  required_sensor_type: visible
  weight: 4.0
- task_id: task_0099
  name: Khartoum, SD
  latitude_deg: 15.55177
  longitude_deg: 32.53241
  altitude_m: 0.0
  release_time: '2026-04-15T05:24:00Z'
  due_time: '2026-04-15T05:59:30Z'
  required_duration_s: 30
  required_sensor_type: visible
  weight: 5.0
- task_id: task_0100
  name: Rio das Ostras, BR
  latitude_deg: -22.52694
  longitude_deg: -41.945
  altitude_m: 0.0
  release_time: '2026-04-15T01:25:30Z'
  due_time: '2026-04-15T01:37:00Z'
  required_duration_s: 75
  required_sensor_type: visible
  weight: 5.0
- task_id: task_0101
  name: background_0806
  latitude_deg: -17.202352
  longitude_deg: 15.213637
  altitude_m: 0.0
  release_time: '2026-04-15T04:02:00Z'
  due_time: '2026-04-15T05:23:00Z'
  required_duration_s: 40
  required_sensor_type: visible
  weight: 2.0
- task_id: task_0102
  name: Castanhal, BR
  latitude_deg: -1.29389
  longitude_deg: -47.92639
  altitude_m: 0.0
  release_time: '2026-04-14T20:52:30Z'
  due_time: '2026-04-14T21:18:30Z'
  required_duration_s: 40
  required_sensor_type: visible
  weight: 3.0
- task_id: task_0103
  name: "Ituzaing\xF3, AR"
  latitude_deg: -27.58504
  longitude_deg: -56.68707
  altitude_m: 0.0
  release_time: '2026-04-15T01:10:00Z'
  due_time: '2026-04-15T03:12:00Z'
  required_duration_s: 50
  required_sensor_type: visible
  weight: 5.0
- task_id: task_0104
  name: Guli, CN
  latitude_deg: 28.88162
  longitude_deg: 120.03308
  altitude_m: 0.0
  release_time: '2026-04-15T02:44:00Z'
  due_time: '2026-04-15T03:10:30Z'
  required_duration_s: 40
  required_sensor_type: visible
  weight: 5.0
- task_id: task_0105
  name: Anshan, CN
  latitude_deg: 41.12361
  longitude_deg: 122.99
  altitude_m: 0.0
  release_time: '2026-04-15T02:25:30Z'
  due_time: '2026-04-15T03:27:00Z'
  required_duration_s: 40
  required_sensor_type: visible
  weight: 4.0
- task_id: task_0106
  name: Tasikmalaya, ID
  latitude_deg: -7.3274
  longitude_deg: 108.2207
  altitude_m: 0.0
  release_time: '2026-04-15T02:29:00Z'
  due_time: '2026-04-15T03:41:00Z'
  required_duration_s: 90
  required_sensor_type: visible
  weight: 3.0
- task_id: task_0107
  name: background_0868
  latitude_deg: -3.807131
  longitude_deg: -73.599105
  altitude_m: 0.0
  release_time: '2026-04-15T03:02:00Z'
  due_time: '2026-04-15T03:33:00Z'
  required_duration_s: 30
  required_sensor_type: visible
  weight: 2.0
- task_id: task_0108
  name: Maiduguri, NG
  latitude_deg: 11.84692
  longitude_deg: 13.15712
  altitude_m: 0.0
  release_time: '2026-04-14T21:13:30Z'
  due_time: '2026-04-14T21:24:30Z'
  required_duration_s: 60
  required_sensor_type: visible
  weight: 5.0
- task_id: task_0109
  name: Osaka, JP
  latitude_deg: 34.69379
  longitude_deg: 135.50107
  altitude_m: 0.0
  release_time: '2026-04-15T00:37:30Z'
  due_time: '2026-04-15T01:59:30Z'
  required_duration_s: 90
  required_sensor_type: visible
  weight: 5.0
- task_id: task_0110
  name: background_0180
  latitude_deg: -32.447368
  longitude_deg: 134.430671
  altitude_m: 0.0
  release_time: '2026-04-15T00:26:30Z'
  due_time: '2026-04-15T01:27:00Z'
  required_duration_s: 20
  required_sensor_type: visible
  weight: 1.5
- task_id: task_0111
  name: background_0063
  latitude_deg: 17.562967
  longitude_deg: 102.954183
  altitude_m: 0.0
  release_time: '2026-04-15T02:44:00Z'
  due_time: '2026-04-15T03:20:30Z'
  required_duration_s: 70
  required_sensor_type: visible
  weight: 1.5
- task_id: task_0112
  name: Zahedan, IR
  latitude_deg: 29.4963
  longitude_deg: 60.8629
  altitude_m: 0.0
  release_time: '2026-04-15T06:03:00Z'
  due_time: '2026-04-15T06:39:30Z'
  required_duration_s: 60
  required_sensor_type: visible
  weight: 5.0
- task_id: task_0113
  name: "Culiac\xE1n, MX"
  latitude_deg: 24.80209
  longitude_deg: -107.39421
  altitude_m: 0.0
  release_time: '2026-04-15T05:02:30Z'
  due_time: '2026-04-15T06:14:00Z'
  required_duration_s: 45
  required_sensor_type: visible
  weight: 4.0
- task_id: task_0114
  name: background_0677
  latitude_deg: -7.293597
  longitude_deg: -78.831883
  altitude_m: 0.0
  release_time: '2026-04-15T03:35:30Z'
  due_time: '2026-04-15T04:12:00Z'
  required_duration_s: 20
  required_sensor_type: visible
  weight: 1.0
- task_id: task_0115
  name: background_0318
  latitude_deg: 59.348409
  longitude_deg: 63.785126
  altitude_m: 0.0
  release_time: '2026-04-14T21:27:30Z'
  due_time: '2026-04-14T21:43:30Z'
  required_duration_s: 20
  required_sensor_type: visible
  weight: 2.0
- task_id: task_0116
  name: background_0300
  latitude_deg: -76.215715
  longitude_deg: -20.342073
  altitude_m: 0.0
  release_time: '2026-04-15T06:33:00Z'
  due_time: '2026-04-15T07:09:30Z'
  required_duration_s: 90
  required_sensor_type: visible
  weight: 1.0
- task_id: task_0117
  name: background_0010
  latitude_deg: 6.50939
  longitude_deg: -67.843129
  altitude_m: 0.0
  release_time: '2026-04-15T00:21:30Z'
  due_time: '2026-04-15T00:43:00Z'
  required_duration_s: 75
  required_sensor_type: visible
  weight: 1.5
- task_id: task_0118
  name: background_1008
  latitude_deg: -23.140086
  longitude_deg: 120.964113
  altitude_m: 0.0
  release_time: '2026-04-14T23:31:00Z'
  due_time: '2026-04-15T00:32:00Z'
  required_duration_s: 40
  required_sensor_type: visible
  weight: 2.0
- task_id: task_0119
  name: Yunfu, CN
  latitude_deg: 22.92787
  longitude_deg: 112.03809
  altitude_m: 0.0
  release_time: '2026-04-15T06:19:00Z'
  due_time: '2026-04-15T06:49:30Z'
  required_duration_s: 30
  required_sensor_type: infrared
  weight: 4.0
- task_id: task_0120
  name: background_0453
  latitude_deg: -80.663956
  longitude_deg: 67.124843
  altitude_m: 0.0
  release_time: '2026-04-14T20:31:30Z'
  due_time: '2026-04-14T20:53:00Z'
  required_duration_s: 75
  required_sensor_type: visible
  weight: 1.5
- task_id: task_0121
  name: "Concepci\xF3n, CL"
  latitude_deg: -36.82699
  longitude_deg: -73.04977
  altitude_m: 0.0
  release_time: '2026-04-15T03:37:00Z'
  due_time: '2026-04-15T04:09:00Z'
  required_duration_s: 120
  required_sensor_type: visible
  weight: 3.0
- task_id: task_0122
  name: Tunja, CO
  latitude_deg: 5.54481
  longitude_deg: -73.35756
  altitude_m: 0.0
  release_time: '2026-04-15T03:14:30Z'
  due_time: '2026-04-15T03:25:30Z'
  required_duration_s: 60
  required_sensor_type: visible
  weight: 3.0
- task_id: task_0123
  name: Brampton, CA
  latitude_deg: 43.68341
  longitude_deg: -79.76633
  altitude_m: 0.0
  release_time: '2026-04-14T20:03:30Z'
  due_time: '2026-04-14T20:34:30Z'
  required_duration_s: 20
  required_sensor_type: visible
  weight: 5.0
- task_id: task_0124
  name: background_0702
  latitude_deg: -4.252384
  longitude_deg: -76.334516
  altitude_m: 0.0
  release_time: '2026-04-15T03:30:30Z'
  due_time: '2026-04-15T03:57:00Z'
  required_duration_s: 70
  required_sensor_type: visible
  weight: 2.0
- task_id: task_0125
  name: background_0578
  latitude_deg: -6.067236
  longitude_deg: -40.074578
  altitude_m: 0.0
  release_time: '2026-04-15T04:50:30Z'
  due_time: '2026-04-15T05:16:00Z'
  required_duration_s: 20
  required_sensor_type: visible
  weight: 2.0
- task_id: task_0126
  name: background_0754
  latitude_deg: -22.427408
  longitude_deg: -66.399677
  altitude_m: 0.0
  release_time: '2026-04-15T02:56:30Z'
  due_time: '2026-04-15T03:18:00Z'
  required_duration_s: 80
  required_sensor_type: visible
  weight: 1.5
- task_id: task_0127
  name: background_0255
  latitude_deg: -23.372655
  longitude_deg: 134.414127
  altitude_m: 0.0
  release_time: '2026-04-15T01:13:30Z'
  due_time: '2026-04-15T01:44:00Z'
  required_duration_s: 30
  required_sensor_type: visible
  weight: 1.5
- task_id: task_0128
  name: "An\xE1polis, BR"
  latitude_deg: -16.32667
  longitude_deg: -48.95278
  altitude_m: 0.0
  release_time: '2026-04-15T01:52:30Z'
  due_time: '2026-04-15T02:19:00Z'
  required_duration_s: 70
  required_sensor_type: visible
  weight: 3.0
- task_id: task_0129
  name: Buenaventura, CO
  latitude_deg: 3.58333
  longitude_deg: -77.0
  altitude_m: 0.0
  release_time: '2026-04-15T03:27:30Z'
  due_time: '2026-04-15T04:49:00Z'
  required_duration_s: 30
  required_sensor_type: visible
  weight: 3.0
- task_id: task_0130
  name: Wuzhou, CN
  latitude_deg: 23.48054
  longitude_deg: 111.28848
  altitude_m: 0.0
  release_time: '2026-04-15T02:03:00Z'
  due_time: '2026-04-15T03:24:00Z'
  required_duration_s: 45
  required_sensor_type: visible
  weight: 3.0
- task_id: task_0131
  name: Changzhou, CN
  latitude_deg: 31.77359
  longitude_deg: 119.95401
  altitude_m: 0.0
  release_time: '2026-04-15T02:48:00Z'
  due_time: '2026-04-15T03:14:30Z'
  required_duration_s: 60
  required_sensor_type: visible
  weight: 5.0
- task_id: task_0132
  name: background_0157
  latitude_deg: 1.167753
  longitude_deg: -56.931494
  altitude_m: 0.0
  release_time: '2026-04-15T02:02:00Z'
  due_time: '2026-04-15T02:29:00Z'
  required_duration_s: 120
  required_sensor_type: visible
  weight: 1.5
- task_id: task_0133
  name: background_0075
  latitude_deg: 6.262972
  longitude_deg: 17.38199
  altitude_m: 0.0
  release_time: '2026-04-14T21:06:30Z'
  due_time: '2026-04-14T21:33:00Z'
  required_duration_s: 90
  required_sensor_type: visible
  weight: 2.0
- task_id: task_0134
  name: Nashville, US
  latitude_deg: 36.16589
  longitude_deg: -86.78444
  altitude_m: 0.0
  release_time: '2026-04-15T03:36:30Z'
  due_time: '2026-04-15T04:38:00Z'
  required_duration_s: 70
  required_sensor_type: visible
  weight: 5.0
- task_id: task_0135
  name: background_0783
  latitude_deg: -0.824036
  longitude_deg: 14.781838
  altitude_m: 0.0
  release_time: '2026-04-14T21:04:00Z'
  due_time: '2026-04-14T21:25:00Z'
  required_duration_s: 50
  required_sensor_type: visible
  weight: 2.0
- task_id: task_0136
  name: background_0103
  latitude_deg: 46.194889
  longitude_deg: 83.153235
  altitude_m: 0.0
  release_time: '2026-04-15T03:10:00Z'
  due_time: '2026-04-15T04:21:30Z'
  required_duration_s: 90
  required_sensor_type: visible
  weight: 1.0
- task_id: task_0137
  name: Hebi, CN
  latitude_deg: 35.73231
  longitude_deg: 114.28616
  altitude_m: 0.0
  release_time: '2026-04-15T02:38:30Z'
  due_time: '2026-04-15T03:20:00Z'
  required_duration_s: 70
  required_sensor_type: visible
  weight: 4.0
- task_id: task_0138
  name: Kanpur, IN
  latitude_deg: 26.46523
  longitude_deg: 80.34975
  altitude_m: 0.0
  release_time: '2026-04-15T02:55:30Z'
  due_time: '2026-04-15T04:56:30Z'
  required_duration_s: 20
  required_sensor_type: visible
  weight: 4.0
- task_id: task_0139
  name: Jizhou, CN
  latitude_deg: 37.55054
  longitude_deg: 115.56871
  altitude_m: 0.0
  release_time: '2026-04-15T02:19:00Z'
  due_time: '2026-04-15T02:55:00Z'
  required_duration_s: 60
  required_sensor_type: visible
  weight: 4.0
- task_id: task_0140
  name: background_0171
  latitude_deg: 11.165431
  longitude_deg: 7.872471
  altitude_m: 0.0
  release_time: '2026-04-14T21:02:00Z'
  due_time: '2026-04-14T21:29:00Z'
  required_duration_s: 80
  required_sensor_type: visible
  weight: 2.0
- task_id: task_0141
  name: background_0146
  latitude_deg: -37.861748
  longitude_deg: -67.000281
  altitude_m: 0.0
  release_time: '2026-04-15T03:50:00Z'
  due_time: '2026-04-15T04:26:00Z'
  required_duration_s: 30
  required_sensor_type: visible
  weight: 1.5
- task_id: task_0142
  name: The Hague, NL
  latitude_deg: 52.07667
  longitude_deg: 4.29861
  altitude_m: 0.0
  release_time: '2026-04-14T21:19:30Z'
  due_time: '2026-04-14T21:41:00Z'
  required_duration_s: 75
  required_sensor_type: visible
  weight: 4.0
- task_id: task_0143
  name: background_0212
  latitude_deg: 40.158649
  longitude_deg: -113.236976
  altitude_m: 0.0
  release_time: '2026-04-15T05:34:30Z'
  due_time: '2026-04-15T06:51:00Z'
  required_duration_s: 40
  required_sensor_type: visible
  weight: 1.5
- task_id: task_0144
  name: "Bah\xE7elievler, TR"
  latitude_deg: 41.00231
  longitude_deg: 28.8598
  altitude_m: 0.0
  release_time: '2026-04-15T04:16:00Z'
  due_time: '2026-04-15T04:47:00Z'
  required_duration_s: 50
  required_sensor_type: visible
  weight: 4.0
- task_id: task_0145
  name: background_0072
  latitude_deg: 66.903611
  longitude_deg: 134.38521
  altitude_m: 0.0
  release_time: '2026-04-15T02:29:00Z'
  due_time: '2026-04-15T03:11:00Z'
  required_duration_s: 100
  required_sensor_type: visible
  weight: 2.0
- task_id: task_0146
  name: background_0443
  latitude_deg: 18.853017
  longitude_deg: 79.102782
  altitude_m: 0.0
  release_time: '2026-04-15T03:38:00Z'
  due_time: '2026-04-15T04:58:30Z'
  required_duration_s: 20
  required_sensor_type: visible
  weight: 1.5
- task_id: task_0147
  name: "Pe\xF1alol\xE9n, CL"
  latitude_deg: -33.46836
  longitude_deg: -70.53411
  altitude_m: 0.0
  release_time: '2026-04-15T03:08:00Z'
  due_time: '2026-04-15T04:04:30Z'
  required_duration_s: 45
  required_sensor_type: visible
  weight: 4.0
- task_id: task_0148
  name: background_0399
  latitude_deg: 22.376167
  longitude_deg: 55.550788
  altitude_m: 0.0
  release_time: '2026-04-15T05:45:00Z'
  due_time: '2026-04-15T06:42:00Z'
  required_duration_s: 70
  required_sensor_type: visible
  weight: 2.0
- task_id: task_0149
  name: Panshan, CN
  latitude_deg: 41.18806
  longitude_deg: 122.04944
  altitude_m: 0.0
  release_time: '2026-04-15T02:40:30Z'
  due_time: '2026-04-15T03:02:00Z'
  required_duration_s: 90
  required_sensor_type: visible
  weight: 4.0
- task_id: task_0150
  name: background_0815
  latitude_deg: -20.585195
  longitude_deg: 142.587697
  altitude_m: 0.0
  release_time: '2026-04-15T00:32:30Z'
  due_time: '2026-04-15T01:03:30Z'
  required_duration_s: 40
  required_sensor_type: visible
  weight: 2.0
- task_id: task_0151
  name: Araraquara, BR
  latitude_deg: -21.79444
  longitude_deg: -48.17556
  altitude_m: 0.0
  release_time: '2026-04-15T01:46:00Z'
  due_time: '2026-04-15T02:22:30Z'
  required_duration_s: 50
  required_sensor_type: visible
  weight: 5.0
- task_id: task_0152
  name: background_0340
  latitude_deg: -1.080835
  longitude_deg: 18.592053
  altitude_m: 0.0
  release_time: '2026-04-14T21:04:30Z'
  due_time: '2026-04-14T21:36:00Z'
  required_duration_s: 45
  required_sensor_type: visible
  weight: 2.0
- task_id: task_0153
  name: Florencia, CO
  latitude_deg: 1.61549
  longitude_deg: -75.60412
  altitude_m: 0.0
  release_time: '2026-04-15T03:27:00Z'
  due_time: '2026-04-15T04:03:00Z'
  required_duration_s: 30
  required_sensor_type: visible
  weight: 3.0
- task_id: task_0154
  name: background_0937
  latitude_deg: 66.934499
  longitude_deg: 14.597103
  altitude_m: 0.0
  release_time: '2026-04-15T00:11:30Z'
  due_time: '2026-04-15T00:37:30Z'
  required_duration_s: 40
  required_sensor_type: visible
  weight: 2.0
- task_id: task_0155
  name: background_0524
  latitude_deg: -24.102951
  longitude_deg: 17.83283
  altitude_m: 0.0
  release_time: '2026-04-14T20:52:00Z'
  due_time: '2026-04-14T21:39:00Z'
  required_duration_s: 100
  required_sensor_type: visible
  weight: 2.0
- task_id: task_0156
  name: background_0767
  latitude_deg: -17.763632
  longitude_deg: 48.802852
  altitude_m: 0.0
  release_time: '2026-04-15T06:26:00Z'
  due_time: '2026-04-15T06:58:00Z'
  required_duration_s: 75
  required_sensor_type: visible
  weight: 2.0
- task_id: task_0157
  name: background_0356
  latitude_deg: 61.138682
  longitude_deg: -106.782607
  altitude_m: 0.0
  release_time: '2026-04-15T04:12:00Z'
  due_time: '2026-04-15T04:28:30Z'
  required_duration_s: 45
  required_sensor_type: visible
  weight: 2.0
- task_id: task_0158
  name: background_0366
  latitude_deg: -31.534529
  longitude_deg: 149.122187
  altitude_m: 0.0
  release_time: '2026-04-14T23:50:00Z'
  due_time: '2026-04-15T00:11:00Z'
  required_duration_s: 45
  required_sensor_type: visible
  weight: 1.0
- task_id: task_0159
  name: background_0489
  latitude_deg: 44.094973
  longitude_deg: -94.965692
  altitude_m: 0.0
  release_time: '2026-04-15T04:00:00Z'
  due_time: '2026-04-15T04:27:00Z'
  required_duration_s: 45
  required_sensor_type: visible
  weight: 2.0
- task_id: task_0160
  name: background_0715
  latitude_deg: 64.647639
  longitude_deg: 121.36472
  altitude_m: 0.0
  release_time: '2026-04-15T02:35:30Z'
  due_time: '2026-04-15T03:12:00Z'
  required_duration_s: 90
  required_sensor_type: visible
  weight: 2.0
- task_id: task_0161
  name: background_0344
  latitude_deg: -22.327731
  longitude_deg: 46.289005
  altitude_m: 0.0
  release_time: '2026-04-15T06:27:30Z'
  due_time: '2026-04-15T06:54:30Z'
  required_duration_s: 80
  required_sensor_type: visible
  weight: 2.0
- task_id: task_0162
  name: background_0885
  latitude_deg: 64.729427
  longitude_deg: 59.934933
  altitude_m: 0.0
  release_time: '2026-04-15T07:16:30Z'
  due_time: '2026-04-15T07:53:30Z'
  required_duration_s: 75
  required_sensor_type: visible
  weight: 1.0
- task_id: task_0163
  name: background_0256
  latitude_deg: -30.259453
  longitude_deg: 19.723188
  altitude_m: 0.0
  release_time: '2026-04-15T06:14:30Z'
  due_time: '2026-04-15T06:45:30Z'
  required_duration_s: 20
  required_sensor_type: visible
  weight: 1.0
- task_id: task_0164
  name: Xining, CN
  latitude_deg: 36.62554
  longitude_deg: 101.75739
  altitude_m: 0.0
  release_time: '2026-04-15T04:38:30Z'
  due_time: '2026-04-15T05:19:00Z'
  required_duration_s: 20
  required_sensor_type: visible
  weight: 5.0
- task_id: task_0165
  name: background_0680
  latitude_deg: -74.407536
  longitude_deg: 149.873533
  altitude_m: 0.0
  release_time: '2026-04-14T20:00:00Z'
  due_time: '2026-04-14T21:47:30Z'
  required_duration_s: 40
  required_sensor_type: visible
  weight: 1.0
- task_id: task_0166
  name: Pucallpa, PE
  latitude_deg: -8.37915
  longitude_deg: -74.55387
  altitude_m: 0.0
  release_time: '2026-04-15T07:08:30Z'
  due_time: '2026-04-15T07:34:00Z'
  required_duration_s: 30
  required_sensor_type: infrared
  weight: 5.0
- task_id: task_0167
  name: background_0009
  latitude_deg: -68.064378
  longitude_deg: 95.925494
  altitude_m: 0.0
  release_time: '2026-04-15T02:37:00Z'
  due_time: '2026-04-15T03:03:00Z'
  required_duration_s: 20
  required_sensor_type: infrared
  weight: 1.5
- task_id: task_0168
  name: background_0303
  latitude_deg: 21.444391
  longitude_deg: 12.350067
  altitude_m: 0.0
  release_time: '2026-04-14T21:01:00Z'
  due_time: '2026-04-14T21:37:30Z'
  required_duration_s: 45
  required_sensor_type: visible
  weight: 1.5
- task_id: task_0169
  name: Dhanbad, IN
  latitude_deg: 23.79759
  longitude_deg: 86.42992
  altitude_m: 0.0
  release_time: '2026-04-15T04:11:30Z'
  due_time: '2026-04-15T04:27:30Z'
  required_duration_s: 60
  required_sensor_type: visible
  weight: 3.0
- task_id: task_0170
  name: background_0227
  latitude_deg: 60.328831
  longitude_deg: 114.139606
  altitude_m: 0.0
  release_time: '2026-04-15T03:25:00Z'
  due_time: '2026-04-15T03:46:30Z'
  required_duration_s: 75
  required_sensor_type: visible
  weight: 2.0
- task_id: task_0171
  name: Chizhou, CN
  latitude_deg: 30.66134
  longitude_deg: 117.47783
  altitude_m: 0.0
  release_time: '2026-04-15T02:48:30Z'
  due_time: '2026-04-15T03:20:30Z'
  required_duration_s: 75
  required_sensor_type: visible
  weight: 4.0
- task_id: task_0172
  name: Udaipur, IN
  latitude_deg: 24.58584
  longitude_deg: 73.71346
  altitude_m: 0.0
  release_time: '2026-04-15T05:12:00Z'
  due_time: '2026-04-15T06:03:00Z'
  required_duration_s: 30
  required_sensor_type: visible
  weight: 5.0
- task_id: task_0173
  name: Haiphong, VN
  latitude_deg: 20.86481
  longitude_deg: 106.68345
  altitude_m: 0.0
  release_time: '2026-04-15T02:52:30Z'
  due_time: '2026-04-15T03:09:30Z'
  required_duration_s: 80
  required_sensor_type: visible
  weight: 4.0
- task_id: task_0174
  name: Brusque, BR
  latitude_deg: -27.09795
  longitude_deg: -48.91281
  altitude_m: 0.0
  release_time: '2026-04-15T01:59:00Z'
  due_time: '2026-04-15T02:26:00Z'
  required_duration_s: 50
  required_sensor_type: visible
  weight: 5.0
- task_id: task_0175
  name: "Maring\xE1, BR"
  latitude_deg: -23.42528
  longitude_deg: -51.93861
  altitude_m: 0.0
  release_time: '2026-04-15T06:23:00Z'
  due_time: '2026-04-15T06:49:00Z'
  required_duration_s: 45
  required_sensor_type: infrared
  weight: 5.0
- task_id: task_0176
  name: background_0703
  latitude_deg: 64.306047
  longitude_deg: -138.64391
  altitude_m: 0.0
  release_time: '2026-04-15T05:39:00Z'
  due_time: '2026-04-15T06:21:00Z'
  required_duration_s: 75
  required_sensor_type: visible
  weight: 1.0
- task_id: task_0177
  name: "Canc\xFAn, MX"
  latitude_deg: 21.17429
  longitude_deg: -86.84656
  altitude_m: 0.0
  release_time: '2026-04-14T20:00:00Z'
  due_time: '2026-04-14T20:49:00Z'
  required_duration_s: 20
  required_sensor_type: infrared
  weight: 5.0
- task_id: task_0178
  name: Weinan, CN
  latitude_deg: 34.50355
  longitude_deg: 109.50891
  altitude_m: 0.0
  release_time: '2026-04-15T02:39:00Z'
  due_time: '2026-04-15T03:15:30Z'
  required_duration_s: 30
  required_sensor_type: visible
  weight: 5.0
- task_id: task_0179
  name: background_0699
  latitude_deg: -1.998349
  longitude_deg: -79.686369
  altitude_m: 0.0
  release_time: '2026-04-15T03:27:00Z'
  due_time: '2026-04-15T04:38:30Z'
  required_duration_s: 20
  required_sensor_type: visible
  weight: 2.0
- task_id: task_0180
  name: Santo Domingo Este, DO
  latitude_deg: 18.48511
  longitude_deg: -69.84757
  altitude_m: 0.0
  release_time: '2026-04-15T07:06:00Z'
  due_time: '2026-04-15T07:27:00Z'
  required_duration_s: 60
  required_sensor_type: infrared
  weight: 5.0
- task_id: task_0181
  name: Lagos, NG
  latitude_deg: 6.45407
  longitude_deg: 3.39467
  altitude_m: 0.0
  release_time: '2026-04-15T03:07:30Z'
  due_time: '2026-04-15T03:28:30Z'
  required_duration_s: 60
  required_sensor_type: infrared
  weight: 5.0
- task_id: task_0182
  name: "S\xE3o Jos\xE9, BR"
  latitude_deg: -28.21344
  longitude_deg: -49.16383
  altitude_m: 0.0
  release_time: '2026-04-15T01:49:30Z'
  due_time: '2026-04-15T02:11:00Z'
  required_duration_s: 75
  required_sensor_type: visible
  weight: 4.0
- task_id: task_0183
  name: Irapuato, MX
  latitude_deg: 20.67675
  longitude_deg: -101.35628
  altitude_m: 0.0
  release_time: '2026-04-15T04:27:00Z'
  due_time: '2026-04-15T05:13:30Z'
  required_duration_s: 50
  required_sensor_type: visible
  weight: 4.0
- task_id: task_0184
  name: Nawabshah, PK
  latitude_deg: 26.23939
  longitude_deg: 68.40369
  altitude_m: 0.0
  release_time: '2026-04-15T05:08:30Z'
  due_time: '2026-04-15T05:34:00Z'
  required_duration_s: 20
  required_sensor_type: visible
  weight: 4.0
- task_id: task_0185
  name: Zhangjiakou, CN
  latitude_deg: 40.78341
  longitude_deg: 114.87139
  altitude_m: 0.0
  release_time: '2026-04-15T02:42:00Z'
  due_time: '2026-04-15T03:13:30Z'
  required_duration_s: 90
  required_sensor_type: visible
  weight: 3.0
- task_id: task_0186
  name: background_0306
  latitude_deg: 19.738811
  longitude_deg: -0.912753
  altitude_m: 0.0
  release_time: '2026-04-15T06:06:30Z'
  due_time: '2026-04-15T06:22:30Z'
  required_duration_s: 50
  required_sensor_type: visible
  weight: 1.5
- task_id: task_0187
  name: Ulan Bator, MN
  latitude_deg: 47.90771
  longitude_deg: 106.88324
  altitude_m: 0.0
  release_time: '2026-04-15T03:34:30Z'
  due_time: '2026-04-15T04:06:00Z'
  required_duration_s: 70
  required_sensor_type: visible
  weight: 3.0
- task_id: task_0188
  name: background_0819
  latitude_deg: -19.980051
  longitude_deg: 120.752534
  altitude_m: 0.0
  release_time: '2026-04-14T23:40:00Z'
  due_time: '2026-04-15T00:11:30Z'
  required_duration_s: 90
  required_sensor_type: visible
  weight: 1.0
- task_id: task_0189
  name: "Pinar del R\xEDo, CU"
  latitude_deg: 22.41649
  longitude_deg: -83.69657
  altitude_m: 0.0
  release_time: '2026-04-15T03:37:30Z'
  due_time: '2026-04-15T04:09:30Z'
  required_duration_s: 80
  required_sensor_type: visible
  weight: 5.0
- task_id: task_0190
  name: background_0033
  latitude_deg: 48.38589
  longitude_deg: 83.217194
  altitude_m: 0.0
  release_time: '2026-04-15T05:22:00Z'
  due_time: '2026-04-15T05:43:00Z'
  required_duration_s: 20
  required_sensor_type: infrared
  weight: 1.5
- task_id: task_0191
  name: Rohtak, IN
  latitude_deg: 28.89447
  longitude_deg: 76.58917
  altitude_m: 0.0
  release_time: '2026-04-15T03:40:00Z'
  due_time: '2026-04-15T04:11:30Z'
  required_duration_s: 30
  required_sensor_type: visible
  weight: 3.0
- task_id: task_0192
  name: background_0910
  latitude_deg: -27.72744
  longitude_deg: 152.030318
  altitude_m: 0.0
  release_time: '2026-04-14T23:19:30Z'
  due_time: '2026-04-14T23:45:30Z'
  required_duration_s: 60
  required_sensor_type: visible
  weight: 2.0
- task_id: task_0193
  name: Zaragoza, ES
  latitude_deg: 41.65606
  longitude_deg: -0.87734
  altitude_m: 0.0
  release_time: '2026-04-14T23:53:30Z'
  due_time: '2026-04-15T01:04:30Z'
  required_duration_s: 45
  required_sensor_type: visible
  weight: 5.0
- task_id: task_0194
  name: background_0820
  latitude_deg: 76.784797
  longitude_deg: -21.893668
  altitude_m: 0.0
  release_time: '2026-04-14T21:01:00Z'
  due_time: '2026-04-14T22:03:00Z'
  required_duration_s: 75
  required_sensor_type: visible
  weight: 1.0
- task_id: task_0195
  name: background_0088
  latitude_deg: 25.402568
  longitude_deg: 108.594114
  altitude_m: 0.0
  release_time: '2026-04-15T02:41:30Z'
  due_time: '2026-04-15T03:23:00Z'
  required_duration_s: 80
  required_sensor_type: visible
  weight: 2.0
- task_id: task_0196
  name: background_0221
  latitude_deg: -10.521396
  longitude_deg: -46.22134
  altitude_m: 0.0
  release_time: '2026-04-14T20:50:00Z'
  due_time: '2026-04-14T21:11:00Z'
  required_duration_s: 45
  required_sensor_type: visible
  weight: 2.0
- task_id: task_0197
  name: Huainan, CN
  latitude_deg: 32.62639
  longitude_deg: 116.99694
  altitude_m: 0.0
  release_time: '2026-04-15T02:38:00Z'
  due_time: '2026-04-15T03:14:30Z'
  required_duration_s: 75
  required_sensor_type: visible
  weight: 4.0
- task_id: task_0198
  name: background_0750
  latitude_deg: 5.541808
  longitude_deg: 102.015307
  altitude_m: 0.0
  release_time: '2026-04-15T00:23:30Z'
  due_time: '2026-04-15T02:04:30Z'
  required_duration_s: 20
  required_sensor_type: visible
  weight: 1.5
- task_id: task_0199
  name: "Sal\xE9, MA"
  latitude_deg: 34.0531
  longitude_deg: -6.79846
  altitude_m: 0.0
  release_time: '2026-04-14T20:38:30Z'
  due_time: '2026-04-14T21:00:00Z'
  required_duration_s: 80
  required_sensor_type: visible
  weight: 3.0
- task_id: task_0200
  name: background_0689
  latitude_deg: 41.971072
  longitude_deg: 110.286915
  altitude_m: 0.0
  release_time: '2026-04-15T02:42:00Z'
  due_time: '2026-04-15T03:08:30Z'
  required_duration_s: 80
  required_sensor_type: visible
  weight: 2.0
- task_id: task_0201
  name: Las Vegas, US
  latitude_deg: 36.17497
  longitude_deg: -115.13722
  altitude_m: 0.0
  release_time: '2026-04-15T05:38:30Z'
  due_time: '2026-04-15T05:55:00Z'
  required_duration_s: 60
  required_sensor_type: visible
  weight: 4.0
- task_id: task_0202
  name: background_0025
  latitude_deg: 68.872192
  longitude_deg: -49.602232
  altitude_m: 0.0
  release_time: '2026-04-14T23:59:00Z'
  due_time: '2026-04-15T00:40:00Z'
  required_duration_s: 20
  required_sensor_type: infrared
  weight: 2.0
- task_id: task_0203
  name: background_0975
  latitude_deg: -70.397562
  longitude_deg: 121.478471
  altitude_m: 0.0
  release_time: '2026-04-14T23:46:00Z'
  due_time: '2026-04-15T00:23:00Z'
  required_duration_s: 100
  required_sensor_type: visible
  weight: 2.0
- task_id: task_0204
  name: background_0865
  latitude_deg: 59.725334
  longitude_deg: -128.281999
  altitude_m: 0.0
  release_time: '2026-04-14T20:00:00Z'
  due_time: '2026-04-14T20:19:00Z'
  required_duration_s: 60
  required_sensor_type: visible
  weight: 2.0
- task_id: task_0205
  name: Mar del Plata, AR
  latitude_deg: -38.00042
  longitude_deg: -57.5562
  altitude_m: 0.0
  release_time: '2026-04-15T06:37:30Z'
  due_time: '2026-04-15T07:08:00Z'
  required_duration_s: 20
  required_sensor_type: infrared
  weight: 5.0
- task_id: task_0206
  name: background_0675
  latitude_deg: 49.973117
  longitude_deg: -68.458664
  altitude_m: 0.0
  release_time: '2026-04-15T00:30:30Z'
  due_time: '2026-04-15T00:51:30Z'
  required_duration_s: 60
  required_sensor_type: visible
  weight: 2.0
- task_id: task_0207
  name: background_0532
  latitude_deg: 69.119238
  longitude_deg: -141.603855
  altitude_m: 0.0
  release_time: '2026-04-15T05:45:30Z'
  due_time: '2026-04-15T06:17:30Z'
  required_duration_s: 100
  required_sensor_type: visible
  weight: 2.0
- task_id: task_0208
  name: Vancouver, CA
  latitude_deg: 49.24966
  longitude_deg: -123.11934
  altitude_m: 0.0
  release_time: '2026-04-15T05:32:30Z'
  due_time: '2026-04-15T06:24:00Z'
  required_duration_s: 80
  required_sensor_type: visible
  weight: 4.0
- task_id: task_0209
  name: background_0076
  latitude_deg: -75.436932
  longitude_deg: 77.363086
  altitude_m: 0.0
  release_time: '2026-04-15T01:09:30Z'
  due_time: '2026-04-15T02:51:30Z'
  required_duration_s: 100
  required_sensor_type: visible
  weight: 1.0
- task_id: task_0210
  name: background_0822
  latitude_deg: -23.910816
  longitude_deg: -65.457423
  altitude_m: 0.0
  release_time: '2026-04-14T22:21:00Z'
  due_time: '2026-04-14T22:47:00Z'
  required_duration_s: 45
  required_sensor_type: visible
  weight: 1.0
- task_id: task_0211
  name: background_0796
  latitude_deg: 42.951805
  longitude_deg: 97.90926
  altitude_m: 0.0
  release_time: '2026-04-15T04:50:00Z'
  due_time: '2026-04-15T05:16:00Z'
  required_duration_s: 50
  required_sensor_type: visible
  weight: 1.5
- task_id: task_0212
  name: background_0969
  latitude_deg: 62.623424
  longitude_deg: 114.996211
  altitude_m: 0.0
  release_time: '2026-04-14T23:05:00Z'
  due_time: '2026-04-14T23:31:00Z'
  required_duration_s: 40
  required_sensor_type: visible
  weight: 1.0
- task_id: task_0213
  name: Lilongwe, MW
  latitude_deg: -13.96692
  longitude_deg: 33.78725
  altitude_m: 0.0
  release_time: '2026-04-14T20:54:00Z'
  due_time: '2026-04-14T21:50:00Z'
  required_duration_s: 50
  required_sensor_type: visible
  weight: 3.0
- task_id: task_0214
  name: background_0365
  latitude_deg: 57.156541
  longitude_deg: 40.529191
  altitude_m: 0.0
  release_time: '2026-04-15T04:01:00Z'
  due_time: '2026-04-15T04:42:00Z'
  required_duration_s: 60
  required_sensor_type: visible
  weight: 1.0
- task_id: task_0215
  name: Milan, IT
  latitude_deg: 45.46427
  longitude_deg: 9.18951
  altitude_m: 0.0
  release_time: '2026-04-15T05:54:00Z'
  due_time: '2026-04-15T06:10:30Z'
  required_duration_s: 75
  required_sensor_type: visible
  weight: 3.0
- task_id: task_0216
  name: background_0510
  latitude_deg: 1.513009
  longitude_deg: -54.928607
  altitude_m: 0.0
  release_time: '2026-04-15T01:47:30Z'
  due_time: '2026-04-15T02:24:00Z'
  required_duration_s: 70
  required_sensor_type: visible
  weight: 1.5
- task_id: task_0217
  name: background_0696
  latitude_deg: 50.873973
  longitude_deg: -88.728114
  altitude_m: 0.0
  release_time: '2026-04-15T03:55:30Z'
  due_time: '2026-04-15T04:22:00Z'
  required_duration_s: 90
  required_sensor_type: visible
  weight: 1.0
- task_id: task_0218
  name: Xilinhot, CN
  latitude_deg: 43.93889
  longitude_deg: 116.07021
  altitude_m: 0.0
  release_time: '2026-04-15T02:41:00Z'
  due_time: '2026-04-15T03:28:00Z'
  required_duration_s: 75
  required_sensor_type: visible
  weight: 3.0
- task_id: task_0219
  name: Xichang, CN
  latitude_deg: 27.89642
  longitude_deg: 102.26341
  altitude_m: 0.0
  release_time: '2026-04-15T04:46:00Z'
  due_time: '2026-04-15T05:07:00Z'
  required_duration_s: 40
  required_sensor_type: visible
  weight: 3.0
- task_id: task_0220
  name: Memphis, US
  latitude_deg: 35.14953
  longitude_deg: -90.04898
  altitude_m: 0.0
  release_time: '2026-04-15T04:02:30Z'
  due_time: '2026-04-15T04:29:00Z'
  required_duration_s: 20
  required_sensor_type: visible
  weight: 4.0
- task_id: task_0221
  name: background_0989
  latitude_deg: -29.18815
  longitude_deg: 137.030623
  altitude_m: 0.0
  release_time: '2026-04-14T20:16:00Z'
  due_time: '2026-04-14T20:47:00Z'
  required_duration_s: 50
  required_sensor_type: visible
  weight: 1.5
- task_id: task_0222
  name: Chennai, IN
  latitude_deg: 13.08784
  longitude_deg: 80.27847
  altitude_m: 0.0
  release_time: '2026-04-15T04:26:00Z'
  due_time: '2026-04-15T04:58:00Z'
  required_duration_s: 90
  required_sensor_type: visible
  weight: 3.0
- task_id: task_0223
  name: "Xalapa de Enr\xEDquez, MX"
  latitude_deg: 19.53124
  longitude_deg: -96.91589
  altitude_m: 0.0
  release_time: '2026-04-14T21:24:30Z'
  due_time: '2026-04-14T21:45:30Z'
  required_duration_s: 20
  required_sensor_type: infrared
  weight: 4.0
- task_id: task_0224
  name: Malir Cantonment, PK
  latitude_deg: 24.94343
  longitude_deg: 67.20591
  altitude_m: 0.0
  release_time: '2026-04-15T05:13:30Z'
  due_time: '2026-04-15T05:39:30Z'
  required_duration_s: 60
  required_sensor_type: visible
  weight: 3.0
- task_id: task_0225
  name: background_0259
  latitude_deg: 54.375347
  longitude_deg: 93.85357
  altitude_m: 0.0
  release_time: '2026-04-15T04:29:30Z'
  due_time: '2026-04-15T04:41:30Z'
  required_duration_s: 120
  required_sensor_type: visible
  weight: 1.0
- task_id: task_0226
  name: background_0875
  latitude_deg: 18.51998
  longitude_deg: -7.828506
  altitude_m: 0.0
  release_time: '2026-04-14T22:43:30Z'
  due_time: '2026-04-14T23:15:30Z'
  required_duration_s: 40
  required_sensor_type: visible
  weight: 1.0
- task_id: task_0227
  name: Handan, CN
  latitude_deg: 36.60999
  longitude_deg: 114.48764
  altitude_m: 0.0
  release_time: '2026-04-15T06:43:00Z'
  due_time: '2026-04-15T07:53:30Z'
  required_duration_s: 20
  required_sensor_type: visible
  weight: 5.0
- task_id: task_0228
  name: Surabaya, ID
  latitude_deg: -7.24917
  longitude_deg: 112.75083
  altitude_m: 0.0
  release_time: '2026-04-15T02:49:00Z'
  due_time: '2026-04-15T03:10:30Z'
  required_duration_s: 40
  required_sensor_type: visible
  weight: 5.0
- task_id: task_0229
  name: Madrid, ES
  latitude_deg: 40.4165
  longitude_deg: -3.70256
  altitude_m: 0.0
  release_time: '2026-04-15T01:54:30Z'
  due_time: '2026-04-15T03:15:30Z'
  required_duration_s: 60
  required_sensor_type: visible
  weight: 5.0
- task_id: task_0230
  name: Lekki, NG
  latitude_deg: 6.41222
  longitude_deg: 4.0947
  altitude_m: 0.0
  release_time: '2026-04-14T21:17:30Z'
  due_time: '2026-04-14T22:33:30Z'
  required_duration_s: 50
  required_sensor_type: visible
  weight: 4.0
- task_id: task_0231
  name: background_0589
  latitude_deg: 81.505428
  longitude_deg: -71.518674
  altitude_m: 0.0
  release_time: '2026-04-14T22:19:30Z'
  due_time: '2026-04-14T22:31:00Z'
  required_duration_s: 75
  required_sensor_type: visible
  weight: 1.0
- task_id: task_0232
  name: background_0058
  latitude_deg: 43.915109
  longitude_deg: 55.590789
  altitude_m: 0.0
  release_time: '2026-04-15T07:07:30Z'
  due_time: '2026-04-15T07:18:00Z'
  required_duration_s: 30
  required_sensor_type: infrared
  weight: 1.0
- task_id: task_0233
  name: Van, TR
  latitude_deg: 38.49457
  longitude_deg: 43.38323
  altitude_m: 0.0
  release_time: '2026-04-15T06:40:00Z'
  due_time: '2026-04-15T07:11:00Z'
  required_duration_s: 50
  required_sensor_type: visible
  weight: 4.0
- task_id: task_0234
  name: Zhoukou, CN
  latitude_deg: 33.63333
  longitude_deg: 114.63333
  altitude_m: 0.0
  release_time: '2026-04-15T02:39:00Z'
  due_time: '2026-04-15T04:00:30Z'
  required_duration_s: 80
  required_sensor_type: visible
  weight: 3.0
- task_id: task_0235
  name: Bijie, CN
  latitude_deg: 27.30193
  longitude_deg: 105.28627
  altitude_m: 0.0
  release_time: '2026-04-15T01:07:30Z'
  due_time: '2026-04-15T01:28:30Z'
  required_duration_s: 60
  required_sensor_type: visible
  weight: 5.0
- task_id: task_0236
  name: background_0005
  latitude_deg: 26.766947
  longitude_deg: -81.459852
  altitude_m: 0.0
  release_time: '2026-04-15T03:44:00Z'
  due_time: '2026-04-15T04:15:00Z'
  required_duration_s: 60
  required_sensor_type: visible
  weight: 1.5
- task_id: task_0237
  name: background_0553
  latitude_deg: -16.582391
  longitude_deg: 30.247665
  altitude_m: 0.0
  release_time: '2026-04-14T20:00:00Z'
  due_time: '2026-04-14T21:11:30Z'
  required_duration_s: 60
  required_sensor_type: visible
  weight: 1.5
- task_id: task_0238
  name: background_0823
  latitude_deg: 10.269341
  longitude_deg: 43.354896
  altitude_m: 0.0
  release_time: '2026-04-15T07:47:00Z'
  due_time: '2026-04-15T08:00:00Z'
  required_duration_s: 60
  required_sensor_type: visible
  weight: 1.0
- task_id: task_0239
  name: Denver, US
  latitude_deg: 39.73915
  longitude_deg: -104.9847
  altitude_m: 0.0
  release_time: '2026-04-15T04:37:00Z'
  due_time: '2026-04-15T05:23:00Z'
  required_duration_s: 45
  required_sensor_type: infrared
  weight: 5.0
- task_id: task_0240
  name: background_0490
  latitude_deg: 28.827681
  longitude_deg: 74.396924
  altitude_m: 0.0
  release_time: '2026-04-15T04:38:30Z'
  due_time: '2026-04-15T05:09:00Z'
  required_duration_s: 30
  required_sensor_type: visible
  weight: 1.5
- task_id: task_0241
  name: background_0199
  latitude_deg: 53.50279
  longitude_deg: -87.584067
  altitude_m: 0.0
  release_time: '2026-04-15T03:23:00Z'
  due_time: '2026-04-15T03:44:30Z'
  required_duration_s: 90
  required_sensor_type: visible
  weight: 1.0
- task_id: task_0242
  name: San Miguelito, PA
  latitude_deg: 9.05032
  longitude_deg: -79.47068
  altitude_m: 0.0
  release_time: '2026-04-15T03:39:00Z'
  due_time: '2026-04-15T04:00:30Z'
  required_duration_s: 90
  required_sensor_type: visible
  weight: 3.0
- task_id: task_0243
  name: background_0537
  latitude_deg: -15.838279
  longitude_deg: 143.962745
  altitude_m: 0.0
  release_time: '2026-04-14T20:02:00Z'
  due_time: '2026-04-14T20:43:00Z'
  required_duration_s: 20
  required_sensor_type: visible
  weight: 1.0
- task_id: task_0244
  name: Wenshan City, CN
  latitude_deg: 23.36306
  longitude_deg: 104.25047
  altitude_m: 0.0
  release_time: '2026-04-15T01:13:30Z'
  due_time: '2026-04-15T01:40:00Z'
  required_duration_s: 45
  required_sensor_type: visible
  weight: 3.0
- task_id: task_0245
  name: background_0888
  latitude_deg: -3.582047
  longitude_deg: 21.075666
  altitude_m: 0.0
  release_time: '2026-04-14T20:58:30Z'
  due_time: '2026-04-14T21:30:30Z'
  required_duration_s: 100
  required_sensor_type: visible
  weight: 1.0
- task_id: task_0246
  name: background_0914
  latitude_deg: 35.602245
  longitude_deg: 96.410449
  altitude_m: 0.0
  release_time: '2026-04-15T02:35:30Z'
  due_time: '2026-04-15T02:51:30Z'
  required_duration_s: 60
  required_sensor_type: visible
  weight: 1.5
- task_id: task_0247
  name: Adelaide, AU
  latitude_deg: -34.92866
  longitude_deg: 138.59863
  altitude_m: 0.0
  release_time: '2026-04-14T23:56:30Z'
  due_time: '2026-04-15T01:58:00Z'
  required_duration_s: 75
  required_sensor_type: visible
  weight: 3.0
- task_id: task_0248
  name: Nanyang, CN
  latitude_deg: 33.00524
  longitude_deg: 112.54659
  altitude_m: 0.0
  release_time: '2026-04-15T01:59:00Z'
  due_time: '2026-04-15T03:41:00Z'
  required_duration_s: 40
  required_sensor_type: visible
  weight: 4.0
- task_id: task_0249
  name: background_0634
  latitude_deg: 31.663156
  longitude_deg: 79.828844
  altitude_m: 0.0
  release_time: '2026-04-15T03:39:00Z'
  due_time: '2026-04-15T04:15:30Z'
  required_duration_s: 70
  required_sensor_type: visible
  weight: 1.5
- task_id: task_0250
  name: Ankang, CN
  latitude_deg: 32.68
  longitude_deg: 109.01722
  altitude_m: 0.0
  release_time: '2026-04-15T01:59:30Z'
  due_time: '2026-04-15T03:41:00Z'
  required_duration_s: 30
  required_sensor_type: visible
  weight: 4.0
- task_id: task_0251
  name: Kyzylorda, KZ
  latitude_deg: 44.85278
  longitude_deg: 65.50917
  altitude_m: 0.0
  release_time: '2026-04-15T06:13:30Z'
  due_time: '2026-04-15T06:35:00Z'
  required_duration_s: 90
  required_sensor_type: visible
  weight: 5.0
- task_id: task_0252
  name: background_0034
  latitude_deg: -27.308363
  longitude_deg: 16.957992
  altitude_m: 0.0
  release_time: '2026-04-15T00:45:00Z'
  due_time: '2026-04-15T01:15:30Z'
  required_duration_s: 20
  required_sensor_type: infrared
  weight: 1.0
- task_id: task_0253
  name: Lhoka, CN
  latitude_deg: 29.24301
  longitude_deg: 91.77239
  altitude_m: 0.0
  release_time: '2026-04-15T03:02:30Z'
  due_time: '2026-04-15T04:13:30Z'
  required_duration_s: 50
  required_sensor_type: visible
  weight: 5.0
- task_id: task_0254
  name: background_0430
  latitude_deg: 30.188697
  longitude_deg: -115.765004
  altitude_m: 0.0
  release_time: '2026-04-15T04:36:00Z'
  due_time: '2026-04-15T04:52:00Z'
  required_duration_s: 60
  required_sensor_type: visible
  weight: 2.0
- task_id: task_0255
  name: Juiz de Fora, BR
  latitude_deg: -21.76417
  longitude_deg: -43.35028
  altitude_m: 0.0
  release_time: '2026-04-15T01:03:00Z'
  due_time: '2026-04-15T02:03:30Z'
  required_duration_s: 20
  required_sensor_type: infrared
  weight: 5.0
- task_id: task_0256
  name: background_0197
  latitude_deg: 5.85515
  longitude_deg: -65.938325
  altitude_m: 0.0
  release_time: '2026-04-15T01:59:30Z'
  due_time: '2026-04-15T02:31:30Z'
  required_duration_s: 75
  required_sensor_type: visible
  weight: 2.0
- task_id: task_0257
  name: "K\u0101kin\u0101da, IN"
  latitude_deg: 16.96036
  longitude_deg: 82.23809
  altitude_m: 0.0
  release_time: '2026-04-15T04:30:00Z'
  due_time: '2026-04-15T05:02:00Z'
  required_duration_s: 90
  required_sensor_type: visible
  weight: 4.0
- task_id: task_0258
  name: background_0854
  latitude_deg: 61.861402
  longitude_deg: 117.223577
  altitude_m: 0.0
  release_time: '2026-04-14T23:00:00Z'
  due_time: '2026-04-14T23:26:00Z'
  required_duration_s: 30
  required_sensor_type: visible
  weight: 1.0
- task_id: task_0259
  name: background_0548
  latitude_deg: 9.51004
  longitude_deg: 27.036072
  altitude_m: 0.0
  release_time: '2026-04-14T20:07:30Z'
  due_time: '2026-04-14T21:09:00Z'
  required_duration_s: 80
  required_sensor_type: visible
  weight: 1.5
- task_id: task_0260
  name: background_0177
  latitude_deg: 30.45425
  longitude_deg: 70.697515
  altitude_m: 0.0
  release_time: '2026-04-15T06:00:00Z'
  due_time: '2026-04-15T06:41:00Z'
  required_duration_s: 30
  required_sensor_type: visible
  weight: 1.5
- task_id: task_0261
  name: background_0656
  latitude_deg: -74.694881
  longitude_deg: 56.848688
  altitude_m: 0.0
  release_time: '2026-04-14T20:38:00Z'
  due_time: '2026-04-14T21:10:00Z'
  required_duration_s: 80
  required_sensor_type: visible
  weight: 2.0
- task_id: task_0262
  name: Maracaibo, VE
  latitude_deg: 10.64232
  longitude_deg: -71.61089
  altitude_m: 0.0
  release_time: '2026-04-15T07:08:30Z'
  due_time: '2026-04-15T07:29:00Z'
  required_duration_s: 20
  required_sensor_type: infrared
  weight: 5.0
- task_id: task_0263
  name: background_0386
  latitude_deg: 39.077099
  longitude_deg: -99.392877
  altitude_m: 0.0
  release_time: '2026-04-15T04:00:30Z'
  due_time: '2026-04-15T04:17:30Z'
  required_duration_s: 100
  required_sensor_type: visible
  weight: 1.5
- task_id: task_0264
  name: background_0876
  latitude_deg: 69.325255
  longitude_deg: 176.266879
  altitude_m: 0.0
  release_time: '2026-04-15T00:21:30Z'
  due_time: '2026-04-15T00:43:00Z'
  required_duration_s: 90
  required_sensor_type: visible
  weight: 1.0
- task_id: task_0265
  name: Alor Setar, MY
  latitude_deg: 6.12104
  longitude_deg: 100.36014
  altitude_m: 0.0
  release_time: '2026-04-15T02:47:30Z'
  due_time: '2026-04-15T03:18:30Z'
  required_duration_s: 30
  required_sensor_type: visible
  weight: 4.0
- task_id: task_0266
  name: background_0330
  latitude_deg: 34.730298
  longitude_deg: -117.974694
  altitude_m: 0.0
  release_time: '2026-04-15T05:28:00Z'
  due_time: '2026-04-15T06:05:00Z'
  required_duration_s: 40
  required_sensor_type: visible
  weight: 2.0
- task_id: task_0267
  name: Nuevo Laredo, MX
  latitude_deg: 27.47629
  longitude_deg: -99.51639
  altitude_m: 0.0
  release_time: '2026-04-15T02:08:00Z'
  due_time: '2026-04-15T02:39:30Z'
  required_duration_s: 40
  required_sensor_type: visible
  weight: 4.0
- task_id: task_0268
  name: background_0450
  latitude_deg: -72.109495
  longitude_deg: 50.460072
  altitude_m: 0.0
  release_time: '2026-04-14T20:29:00Z'
  due_time: '2026-04-14T21:50:30Z'
  required_duration_s: 20
  required_sensor_type: visible
  weight: 1.0
- task_id: task_0269
  name: Salvador, BR
  latitude_deg: -12.97563
  longitude_deg: -38.49096
  altitude_m: 0.0
  release_time: '2026-04-15T00:28:00Z'
  due_time: '2026-04-15T00:50:00Z'
  required_duration_s: 70
  required_sensor_type: visible
  weight: 5.0
- task_id: task_0270
  name: background_0252
  latitude_deg: 58.494639
  longitude_deg: -125.087771
  altitude_m: 0.0
  release_time: '2026-04-15T05:13:30Z'
  due_time: '2026-04-15T05:55:00Z'
  required_duration_s: 90
  required_sensor_type: visible
  weight: 1.0
- task_id: task_0271
  name: background_0591
  latitude_deg: -70.819863
  longitude_deg: 132.336669
  altitude_m: 0.0
  release_time: '2026-04-15T04:14:00Z'
  due_time: '2026-04-15T04:40:00Z'
  required_duration_s: 50
  required_sensor_type: visible
  weight: 1.0
- task_id: task_0272
  name: background_0432
  latitude_deg: 55.409909
  longitude_deg: 157.858122
  altitude_m: 0.0
  release_time: '2026-04-15T00:55:30Z'
  due_time: '2026-04-15T01:27:00Z'
  required_duration_s: 40
  required_sensor_type: visible
  weight: 1.0
- task_id: task_0273
  name: Enugu, NG
  latitude_deg: 6.44132
  longitude_deg: 7.49883
  altitude_m: 0.0
  release_time: '2026-04-14T20:16:00Z'
  due_time: '2026-04-14T21:57:30Z'
  required_duration_s: 30
  required_sensor_type: visible
  weight: 5.0
- task_id: task_0274
  name: background_0134
  latitude_deg: 72.464056
  longitude_deg: -83.85439
  altitude_m: 0.0
  release_time: '2026-04-15T02:22:30Z'
  due_time: '2026-04-15T02:44:00Z'
  required_duration_s: 80
  required_sensor_type: visible
  weight: 1.5
- task_id: task_0275
  name: background_0074
  latitude_deg: 48.343469
  longitude_deg: -53.986126
  altitude_m: 0.0
  release_time: '2026-04-15T00:30:30Z'
  due_time: '2026-04-15T01:22:30Z'
  required_duration_s: 60
  required_sensor_type: visible
  weight: 1.0
- task_id: task_0276
  name: Kobe, JP
  latitude_deg: 34.6913
  longitude_deg: 135.183
  altitude_m: 0.0
  release_time: '2026-04-15T04:20:00Z'
  due_time: '2026-04-15T05:30:30Z'
  required_duration_s: 20
  required_sensor_type: infrared
  weight: 3.0
- task_id: task_0277
  name: background_0022
  latitude_deg: 67.876687
  longitude_deg: 92.158266
  altitude_m: 0.0
  release_time: '2026-04-15T07:25:00Z'
  due_time: '2026-04-15T08:00:00Z'
  required_duration_s: 40
  required_sensor_type: infrared
  weight: 1.0
- task_id: task_0278
  name: "Sumar\xE9, BR"
  latitude_deg: -22.82194
  longitude_deg: -47.26694
  altitude_m: 0.0
  release_time: '2026-04-15T01:46:00Z'
  due_time: '2026-04-15T02:17:30Z'
  required_duration_s: 90
  required_sensor_type: visible
  weight: 4.0
- task_id: task_0279
  name: Huangshan, CN
  latitude_deg: 29.71139
  longitude_deg: 118.3125
  altitude_m: 0.0
  release_time: '2026-04-15T02:48:30Z'
  due_time: '2026-04-15T03:05:30Z'
  required_duration_s: 120
  required_sensor_type: visible
  weight: 5.0
- task_id: task_0280
  name: background_0363
  latitude_deg: 41.168381
  longitude_deg: 84.839689
  altitude_m: 0.0
  release_time: '2026-04-15T03:58:30Z'
  due_time: '2026-04-15T05:00:00Z'
  required_duration_s: 75
  required_sensor_type: visible
  weight: 1.5
- task_id: task_0281
  name: background_0086
  latitude_deg: -71.202574
  longitude_deg: 88.279441
  altitude_m: 0.0
  release_time: '2026-04-15T02:33:00Z'
  due_time: '2026-04-15T02:59:00Z'
  required_duration_s: 30
  required_sensor_type: infrared
  weight: 2.0
- task_id: task_0282
  name: Takeo, KH
  latitude_deg: 10.99081
  longitude_deg: 104.78498
  altitude_m: 0.0
  release_time: '2026-04-15T04:31:30Z'
  due_time: '2026-04-15T05:02:30Z'
  required_duration_s: 60
  required_sensor_type: visible
  weight: 4.0
- task_id: task_0283
  name: Tri-Cities, US
  latitude_deg: 46.2454
  longitude_deg: -119.19617
  altitude_m: 0.0
  release_time: '2026-04-15T05:46:00Z'
  due_time: '2026-04-15T06:03:00Z'
  required_duration_s: 90
  required_sensor_type: visible
  weight: 5.0
- task_id: task_0284
  name: background_0859
  latitude_deg: 40.938623
  longitude_deg: 63.081978
  altitude_m: 0.0
  release_time: '2026-04-15T06:09:30Z'
  due_time: '2026-04-15T06:26:30Z'
  required_duration_s: 50
  required_sensor_type: visible
  weight: 2.0
- task_id: task_0285
  name: "Qu\xE9bec, CA"
  latitude_deg: 46.81228
  longitude_deg: -71.21454
  altitude_m: 0.0
  release_time: '2026-04-15T02:20:00Z'
  due_time: '2026-04-15T02:47:00Z'
  required_duration_s: 50
  required_sensor_type: visible
  weight: 4.0
- task_id: task_0286
  name: background_0007
  latitude_deg: 70.873824
  longitude_deg: -117.093365
  altitude_m: 0.0
  release_time: '2026-04-15T04:36:30Z'
  due_time: '2026-04-15T05:07:00Z'
  required_duration_s: 30
  required_sensor_type: visible
  weight: 1.5
- task_id: task_0287
  name: Coquimbo, CL
  latitude_deg: -29.95332
  longitude_deg: -71.33947
  altitude_m: 0.0
  release_time: '2026-04-15T03:29:00Z'
  due_time: '2026-04-15T04:50:30Z'
  required_duration_s: 20
  required_sensor_type: visible
  weight: 3.0
- task_id: task_0288
  name: Rasht, IR
  latitude_deg: 37.27611
  longitude_deg: 49.58862
  altitude_m: 0.0
  release_time: '2026-04-15T05:40:30Z'
  due_time: '2026-04-15T06:11:30Z'
  required_duration_s: 30
  required_sensor_type: visible
  weight: 5.0
- task_id: task_0289
  name: background_0748
  latitude_deg: 32.719678
  longitude_deg: 112.652712
  altitude_m: 0.0
  release_time: '2026-04-15T02:54:00Z'
  due_time: '2026-04-15T03:21:00Z'
  required_duration_s: 50
  required_sensor_type: visible
  weight: 1.5
- task_id: task_0290
  name: Karbala, IQ
  latitude_deg: 32.61603
  longitude_deg: 44.02488
  altitude_m: 0.0
  release_time: '2026-04-15T06:11:30Z'
  due_time: '2026-04-15T07:12:30Z'
  required_duration_s: 30
  required_sensor_type: visible
  weight: 4.0
- task_id: task_0291
  name: background_0810
  latitude_deg: 52.823864
  longitude_deg: -109.615189
  altitude_m: 0.0
  release_time: '2026-04-15T00:27:00Z'
  due_time: '2026-04-15T01:03:30Z'
  required_duration_s: 90
  required_sensor_type: visible
  weight: 2.0
- task_id: task_0292
  name: background_0961
  latitude_deg: -81.764845
  longitude_deg: -136.60629
  altitude_m: 0.0
  release_time: '2026-04-15T06:23:30Z'
  due_time: '2026-04-15T06:54:30Z'
  required_duration_s: 45
  required_sensor_type: visible
  weight: 2.0
- task_id: task_0293
  name: Xianning, CN
  latitude_deg: 29.84347
  longitude_deg: 114.32201
  altitude_m: 0.0
  release_time: '2026-04-15T02:49:00Z'
  due_time: '2026-04-15T03:15:30Z'
  required_duration_s: 70
  required_sensor_type: visible
  weight: 4.0
- task_id: task_0294
  name: background_0335
  latitude_deg: 15.308107
  longitude_deg: -91.202064
  altitude_m: 0.0
  release_time: '2026-04-15T03:23:30Z'
  due_time: '2026-04-15T05:05:00Z'
  required_duration_s: 75
  required_sensor_type: visible
  weight: 1.0
- task_id: task_0295
  name: "S\u0101ngli, IN"
  latitude_deg: 16.85438
  longitude_deg: 74.56417
  altitude_m: 0.0
  release_time: '2026-04-15T00:57:30Z'
  due_time: '2026-04-15T01:24:00Z'
  required_duration_s: 80
  required_sensor_type: visible
  weight: 4.0
- task_id: task_0296
  name: background_0011
  latitude_deg: -7.232397
  longitude_deg: -44.66923
  altitude_m: 0.0
  release_time: '2026-04-15T01:16:30Z'
  due_time: '2026-04-15T01:57:30Z'
  required_duration_s: 50
  required_sensor_type: infrared
  weight: 1.0
- task_id: task_0297
  name: Toyota, JP
  latitude_deg: 35.08333
  longitude_deg: 137.15
  altitude_m: 0.0
  release_time: '2026-04-15T05:39:30Z'
  due_time: '2026-04-15T06:10:30Z'
  required_duration_s: 45
  required_sensor_type: visible
  weight: 3.0
- task_id: task_0298
  name: background_0451
  latitude_deg: 32.9409
  longitude_deg: -84.890491
  altitude_m: 0.0
  release_time: '2026-04-15T03:45:30Z'
  due_time: '2026-04-15T04:17:00Z'
  required_duration_s: 70
  required_sensor_type: visible
  weight: 1.0
- task_id: task_0299
  name: Patos de Minas, BR
  latitude_deg: -18.57889
  longitude_deg: -46.51806
  altitude_m: 0.0
  release_time: '2026-04-15T01:47:00Z'
  due_time: '2026-04-15T02:13:00Z'
  required_duration_s: 50
  required_sensor_type: visible
  weight: 5.0
- task_id: task_0300
  name: Multan, PK
  latitude_deg: 30.19679
  longitude_deg: 71.47824
  altitude_m: 0.0
  release_time: '2026-04-14T21:14:00Z'
  due_time: '2026-04-14T21:34:30Z'
  required_duration_s: 30
  required_sensor_type: infrared
  weight: 3.0
- task_id: task_0301
  name: background_0108
  latitude_deg: 51.648844
  longitude_deg: -90.627732
  altitude_m: 0.0
  release_time: '2026-04-15T03:51:00Z'
  due_time: '2026-04-15T04:12:30Z'
  required_duration_s: 60
  required_sensor_type: visible
  weight: 2.0
- task_id: task_0302
  name: background_0023
  latitude_deg: 34.091643
  longitude_deg: 79.540881
  altitude_m: 0.0
  release_time: '2026-04-14T21:04:00Z'
  due_time: '2026-04-14T21:44:30Z'
  required_duration_s: 30
  required_sensor_type: infrared
  weight: 2.0
- task_id: task_0303
  name: Iquitos, PE
  latitude_deg: -3.74814
  longitude_deg: -73.2529
  altitude_m: 0.0
  release_time: '2026-04-15T00:36:00Z'
  due_time: '2026-04-15T01:57:00Z'
  required_duration_s: 45
  required_sensor_type: visible
  weight: 5.0
- task_id: task_0304
  name: Benghazi, LY
  latitude_deg: 32.11486
  longitude_deg: 20.06859
  altitude_m: 0.0
  release_time: '2026-04-14T22:54:00Z'
  due_time: '2026-04-14T23:10:00Z'
  required_duration_s: 45
  required_sensor_type: visible
  weight: 5.0
- task_id: task_0305
  name: Wenzhou, CN
  latitude_deg: 27.99942
  longitude_deg: 120.66682
  altitude_m: 0.0
  release_time: '2026-04-15T02:54:30Z'
  due_time: '2026-04-15T03:05:30Z'
  required_duration_s: 60
  required_sensor_type: visible
  weight: 5.0
- task_id: task_0306
  name: Vellore, IN
  latitude_deg: 12.9184
  longitude_deg: 79.13255
  altitude_m: 0.0
  release_time: '2026-04-15T04:31:30Z'
  due_time: '2026-04-15T04:53:00Z'
  required_duration_s: 90
  required_sensor_type: visible
  weight: 4.0
- task_id: task_0307
  name: background_0094
  latitude_deg: 27.541238
  longitude_deg: -8.283028
  altitude_m: 0.0
  release_time: '2026-04-14T22:48:30Z'
  due_time: '2026-04-14T23:19:00Z'
  required_duration_s: 20
  required_sensor_type: visible
  weight: 1.5
- task_id: task_0308
  name: background_0053
  latitude_deg: 65.915639
  longitude_deg: -94.524455
  altitude_m: 0.0
  release_time: '2026-04-15T03:16:30Z'
  due_time: '2026-04-15T03:43:00Z'
  required_duration_s: 70
  required_sensor_type: visible
  weight: 1.5
- task_id: task_0309
  name: Louisville, US
  latitude_deg: 38.25424
  longitude_deg: -85.75941
  altitude_m: 0.0
  release_time: '2026-04-15T02:07:30Z'
  due_time: '2026-04-15T02:38:30Z'
  required_duration_s: 45
  required_sensor_type: visible
  weight: 3.0
- task_id: task_0310
  name: "San Crist\xF3bal de las Casas, MX"
  latitude_deg: 16.73006
  longitude_deg: -92.63825
  altitude_m: 0.0
  release_time: '2026-04-15T03:54:00Z'
  due_time: '2026-04-15T04:21:00Z'
  required_duration_s: 90
  required_sensor_type: visible
  weight: 5.0
- task_id: task_0311
  name: background_0405
  latitude_deg: 53.616734
  longitude_deg: 105.20578
  altitude_m: 0.0
  release_time: '2026-04-15T04:16:00Z'
  due_time: '2026-04-15T04:32:30Z'
  required_duration_s: 70
  required_sensor_type: visible
  weight: 2.0
- task_id: task_0312
  name: Pingdu, CN
  latitude_deg: 36.78444
  longitude_deg: 119.94639
  altitude_m: 0.0
  release_time: '2026-04-15T02:36:30Z'
  due_time: '2026-04-15T03:03:30Z'
  required_duration_s: 75
  required_sensor_type: visible
  weight: 5.0
- task_id: task_0313
  name: background_0010
  latitude_deg: 35.079725
  longitude_deg: 54.199871
  altitude_m: 0.0
  release_time: '2026-04-15T07:04:30Z'
  due_time: '2026-04-15T07:20:30Z'
  required_duration_s: 50
  required_sensor_type: infrared
  weight: 2.0
- task_id: task_0314
  name: background_0037
  latitude_deg: -27.438074
  longitude_deg: -57.274249
  altitude_m: 0.0
  release_time: '2026-04-15T02:00:00Z'
  due_time: '2026-04-15T02:32:00Z'
  required_duration_s: 100
  required_sensor_type: visible
  weight: 1.0
- task_id: task_0315
  name: Santa Catarina, MX
  latitude_deg: 25.67325
  longitude_deg: -100.45813
  altitude_m: 0.0
  release_time: '2026-04-15T03:01:00Z'
  due_time: '2026-04-15T03:37:30Z'
  required_duration_s: 70
  required_sensor_type: visible
  weight: 5.0
- task_id: task_0316
  name: background_0607
  latitude_deg: 23.406835
  longitude_deg: 31.856788
  altitude_m: 0.0
  release_time: '2026-04-15T06:04:30Z'
  due_time: '2026-04-15T06:40:30Z'
  required_duration_s: 45
  required_sensor_type: visible
  weight: 2.0
- task_id: task_0317
  name: background_0031
  latitude_deg: 67.615212
  longitude_deg: -118.657469
  altitude_m: 0.0
  release_time: '2026-04-14T21:33:00Z'
  due_time: '2026-04-14T22:54:00Z'
  required_duration_s: 60
  required_sensor_type: infrared
  weight: 1.0
- task_id: task_0318
  name: Indore, IN
  latitude_deg: 22.71792
  longitude_deg: 75.8333
  altitude_m: 0.0
  release_time: '2026-04-15T05:34:30Z'
  due_time: '2026-04-15T05:55:00Z'
  required_duration_s: 30
  required_sensor_type: infrared
  weight: 5.0
- task_id: task_0319
  name: background_0065
  latitude_deg: 35.012355
  longitude_deg: 1.800161
  altitude_m: 0.0
  release_time: '2026-04-14T20:44:00Z'
  due_time: '2026-04-14T21:41:00Z'
  required_duration_s: 75
  required_sensor_type: visible
  weight: 2.0
- task_id: task_0320
  name: background_0747
  latitude_deg: 40.424633
  longitude_deg: 86.298143
  altitude_m: 0.0
  release_time: '2026-04-15T02:34:00Z'
  due_time: '2026-04-15T03:10:00Z'
  required_duration_s: 60
  required_sensor_type: visible
  weight: 1.5
- task_id: task_0321
  name: background_0870
  latitude_deg: 68.054048
  longitude_deg: 161.630942
  altitude_m: 0.0
  release_time: '2026-04-15T00:52:00Z'
  due_time: '2026-04-15T01:29:00Z'
  required_duration_s: 75
  required_sensor_type: visible
  weight: 2.0
- task_id: task_0322
  name: Cochabamba, BO
  latitude_deg: -17.38195
  longitude_deg: -66.15995
  altitude_m: 0.0
  release_time: '2026-04-15T03:07:30Z'
  due_time: '2026-04-15T03:28:00Z'
  required_duration_s: 20
  required_sensor_type: infrared
  weight: 4.0
- task_id: task_0323
  name: background_0173
  latitude_deg: 59.927061
  longitude_deg: 146.494139
  altitude_m: 0.0
  release_time: '2026-04-15T07:09:00Z'
  due_time: '2026-04-15T07:40:00Z'
  required_duration_s: 45
  required_sensor_type: visible
  weight: 1.5
- task_id: task_0324
  name: Cape Coral, US
  latitude_deg: 26.56285
  longitude_deg: -81.94953
  altitude_m: 0.0
  release_time: '2026-04-15T03:34:00Z'
  due_time: '2026-04-15T04:10:00Z'
  required_duration_s: 50
  required_sensor_type: visible
  weight: 4.0
- task_id: task_0325
  name: background_0499
  latitude_deg: -29.542206
  longitude_deg: -62.763634
  altitude_m: 0.0
  release_time: '2026-04-14T22:24:00Z'
  due_time: '2026-04-14T22:50:30Z'
  required_duration_s: 60
  required_sensor_type: visible
  weight: 1.0
- task_id: task_0326
  name: background_0398
  latitude_deg: 44.329493
  longitude_deg: 63.366964
  altitude_m: 0.0
  release_time: '2026-04-15T05:18:30Z'
  due_time: '2026-04-15T06:35:30Z'
  required_duration_s: 70
  required_sensor_type: visible
  weight: 2.0
- task_id: task_0327
  name: "Las Pi\xF1as, PH"
  latitude_deg: 14.45056
  longitude_deg: 120.98278
  altitude_m: 0.0
  release_time: '2026-04-14T20:57:00Z'
  due_time: '2026-04-14T22:13:00Z'
  required_duration_s: 45
  required_sensor_type: visible
  weight: 5.0
- task_id: task_0328
  name: Weifang, CN
  latitude_deg: 36.71
  longitude_deg: 119.10194
  altitude_m: 0.0
  release_time: '2026-04-15T01:56:00Z'
  due_time: '2026-04-15T02:21:30Z'
  required_duration_s: 30
  required_sensor_type: visible
  weight: 3.0
- task_id: task_0329
  name: Ananindeua, BR
  latitude_deg: -1.36556
  longitude_deg: -48.37222
  altitude_m: 0.0
  release_time: '2026-04-15T06:17:00Z'
  due_time: '2026-04-15T06:48:00Z'
  required_duration_s: 40
  required_sensor_type: infrared
  weight: 3.0
- task_id: task_0330
  name: Staten Island, US
  latitude_deg: 40.56233
  longitude_deg: -74.13986
  altitude_m: 0.0
  release_time: '2026-04-15T05:11:00Z'
  due_time: '2026-04-15T05:42:00Z'
  required_duration_s: 40
  required_sensor_type: visible
  weight: 4.0
- task_id: task_0331
  name: Cartagena, CO
  latitude_deg: 10.39817
  longitude_deg: -75.49328
  altitude_m: 0.0
  release_time: '2026-04-15T03:05:30Z'
  due_time: '2026-04-15T03:36:00Z'
  required_duration_s: 20
  required_sensor_type: infrared
  weight: 5.0
- task_id: task_0332
  name: background_0070
  latitude_deg: 7.403728
  longitude_deg: -6.150868
  altitude_m: 0.0
  release_time: '2026-04-14T22:40:30Z'
  due_time: '2026-04-14T23:07:00Z'
  required_duration_s: 80
  required_sensor_type: visible
  weight: 1.0
- task_id: task_0333
  name: Tongling, CN
  latitude_deg: 30.95
  longitude_deg: 117.78333
  altitude_m: 0.0
  release_time: '2026-04-15T02:43:30Z'
  due_time: '2026-04-15T03:15:00Z'
  required_duration_s: 40
  required_sensor_type: visible
  weight: 5.0
- task_id: task_0334
  name: background_0851
  latitude_deg: 28.995036
  longitude_deg: 38.59369
  altitude_m: 0.0
  release_time: '2026-04-15T07:18:00Z'
  due_time: '2026-04-15T07:59:00Z'
  required_duration_s: 20
  required_sensor_type: visible
  weight: 1.0
- task_id: task_0335
  name: Bobo-Dioulasso, BF
  latitude_deg: 11.18064
  longitude_deg: -4.29489
  altitude_m: 0.0
  release_time: '2026-04-14T22:46:30Z'
  due_time: '2026-04-14T23:13:00Z'
  required_duration_s: 50
  required_sensor_type: visible
  weight: 3.0
- task_id: task_0336
  name: background_0902
  latitude_deg: -23.915362
  longitude_deg: 16.730703
  altitude_m: 0.0
  release_time: '2026-04-14T20:57:00Z'
  due_time: '2026-04-14T21:19:00Z'
  required_duration_s: 30
  required_sensor_type: visible
  weight: 1.5
- task_id: task_0337
  name: background_0376
  latitude_deg: -11.440303
  longitude_deg: 15.096444
  altitude_m: 0.0
  release_time: '2026-04-14T20:50:30Z'
  due_time: '2026-04-14T21:21:30Z'
  required_duration_s: 60
  required_sensor_type: visible
  weight: 1.0
- task_id: task_0338
  name: Korla, CN
  latitude_deg: 41.76055
  longitude_deg: 86.15231
  altitude_m: 0.0
  release_time: '2026-04-15T04:33:00Z'
  due_time: '2026-04-15T04:55:00Z'
  required_duration_s: 90
  required_sensor_type: visible
  weight: 5.0
- task_id: task_0339
  name: background_0319
  latitude_deg: 11.043074
  longitude_deg: 39.367697
  altitude_m: 0.0
  release_time: '2026-04-15T07:37:00Z'
  due_time: '2026-04-15T08:00:00Z'
  required_duration_s: 30
  required_sensor_type: visible
  weight: 1.0
- task_id: task_0340
  name: background_0098
  latitude_deg: -21.4208
  longitude_deg: 47.6986
  altitude_m: 0.0
  release_time: '2026-04-14T23:53:00Z'
  due_time: '2026-04-15T00:18:30Z'
  required_duration_s: 30
  required_sensor_type: infrared
  weight: 1.5
- task_id: task_0341
  name: "Or\u016Bm\u012Byeh, IR"
  latitude_deg: 37.55274
  longitude_deg: 45.07605
  altitude_m: 0.0
  release_time: '2026-04-15T06:58:30Z'
  due_time: '2026-04-15T08:00:00Z'
  required_duration_s: 90
  required_sensor_type: visible
  weight: 4.0
- task_id: task_0342
  name: background_0782
  latitude_deg: -8.906027
  longitude_deg: -48.016841
  altitude_m: 0.0
  release_time: '2026-04-14T20:55:00Z'
  due_time: '2026-04-14T21:31:00Z'
  required_duration_s: 40
  required_sensor_type: visible
  weight: 1.5
- task_id: task_0343
  name: Loudi, CN
  latitude_deg: 27.73444
  longitude_deg: 111.99444
  altitude_m: 0.0
  release_time: '2026-04-15T02:40:30Z'
  due_time: '2026-04-15T03:07:00Z'
  required_duration_s: 60
  required_sensor_type: visible
  weight: 4.0
- task_id: task_0344
  name: Pallabi, BD
  latitude_deg: 23.825
  longitude_deg: 90.37
  altitude_m: 0.0
  release_time: '2026-04-15T04:36:00Z'
  due_time: '2026-04-15T04:48:00Z'
  required_duration_s: 100
  required_sensor_type: visible
  weight: 5.0
- task_id: task_0345
  name: background_0883
  latitude_deg: 31.010133
  longitude_deg: -109.393969
  altitude_m: 0.0
  release_time: '2026-04-14T21:41:00Z'
  due_time: '2026-04-14T22:16:30Z'
  required_duration_s: 20
  required_sensor_type: visible
  weight: 1.5
- task_id: task_0346
  name: background_0845
  latitude_deg: 52.188018
  longitude_deg: 49.811542
  altitude_m: 0.0
  release_time: '2026-04-15T06:26:30Z'
  due_time: '2026-04-15T07:07:00Z'
  required_duration_s: 20
  required_sensor_type: visible
  weight: 1.5
- task_id: task_0347
  name: background_0166
  latitude_deg: -72.229577
  longitude_deg: -3.513346
  altitude_m: 0.0
  release_time: '2026-04-14T20:27:00Z'
  due_time: '2026-04-14T21:07:30Z'
  required_duration_s: 20
  required_sensor_type: visible
  weight: 1.0
- task_id: task_0348
  name: background_0873
  latitude_deg: -18.357124
  longitude_deg: 133.844245
  altitude_m: 0.0
  release_time: '2026-04-15T01:26:30Z'
  due_time: '2026-04-15T01:38:00Z'
  required_duration_s: 20
  required_sensor_type: visible
  weight: 2.0
- task_id: task_0349
  name: background_0977
  latitude_deg: -65.525311
  longitude_deg: -64.108306
  altitude_m: 0.0
  release_time: '2026-04-15T03:35:30Z'
  due_time: '2026-04-15T03:57:30Z'
  required_duration_s: 45
  required_sensor_type: visible
  weight: 1.0
- task_id: task_0350
  name: background_0123
  latitude_deg: 75.142526
  longitude_deg: 103.221488
  altitude_m: 0.0
  release_time: '2026-04-15T06:04:00Z'
  due_time: '2026-04-15T06:19:30Z'
  required_duration_s: 20
  required_sensor_type: infrared
  weight: 2.0
- task_id: task_0351
  name: Valencia, US
  latitude_deg: 34.44361
  longitude_deg: -118.60953
  altitude_m: 0.0
  release_time: '2026-04-15T05:38:30Z'
  due_time: '2026-04-15T05:59:30Z'
  required_duration_s: 40
  required_sensor_type: visible
  weight: 4.0
- task_id: task_0352
  name: Bangkok, TH
  latitude_deg: 13.75398
  longitude_deg: 100.50144
  altitude_m: 0.0
  release_time: '2026-04-15T03:48:00Z'
  due_time: '2026-04-15T04:23:30Z'
  required_duration_s: 20
  required_sensor_type: infrared
  weight: 3.0
- task_id: task_0353
  name: Takasaki, JP
  latitude_deg: 36.33333
  longitude_deg: 139.01667
  altitude_m: 0.0
  release_time: '2026-04-15T01:12:00Z'
  due_time: '2026-04-15T01:38:30Z'
  required_duration_s: 60
  required_sensor_type: visible
  weight: 4.0
- task_id: task_0354
  name: background_0471
  latitude_deg: 47.652644
  longitude_deg: 52.908285
  altitude_m: 0.0
  release_time: '2026-04-15T07:11:30Z'
  due_time: '2026-04-15T08:00:00Z'
  required_duration_s: 45
  required_sensor_type: visible
  weight: 2.0
- task_id: task_0355
  name: background_0603
  latitude_deg: -20.604081
  longitude_deg: 133.751491
  altitude_m: 0.0
  release_time: '2026-04-15T00:53:30Z'
  due_time: '2026-04-15T01:45:00Z'
  required_duration_s: 45
  required_sensor_type: visible
  weight: 2.0
- task_id: task_0356
  name: Datong, CN
  latitude_deg: 40.09361
  longitude_deg: 113.29139
  altitude_m: 0.0
  release_time: '2026-04-15T00:59:00Z'
  due_time: '2026-04-15T01:29:30Z'
  required_duration_s: 30
  required_sensor_type: visible
  weight: 3.0
- task_id: task_0357
  name: Kabul, AF
  latitude_deg: 34.52813
  longitude_deg: 69.17233
  altitude_m: 0.0
  release_time: '2026-04-14T21:21:00Z'
  due_time: '2026-04-14T21:52:00Z'
  required_duration_s: 30
  required_sensor_type: visible
  weight: 5.0
- task_id: task_0358
  name: background_0960
  latitude_deg: 36.104111
  longitude_deg: 80.27243
  altitude_m: 0.0
  release_time: '2026-04-15T04:46:00Z'
  due_time: '2026-04-15T05:37:00Z'
  required_duration_s: 20
  required_sensor_type: visible
  weight: 1.5
- task_id: task_0359
  name: "Bouak\xE9, CI"
  latitude_deg: 7.69385
  longitude_deg: -5.03031
  altitude_m: 0.0
  release_time: '2026-04-15T06:10:30Z'
  due_time: '2026-04-15T06:21:00Z'
  required_duration_s: 20
  required_sensor_type: visible
  weight: 3.0
- task_id: task_0360
  name: background_0996
  latitude_deg: 66.809131
  longitude_deg: -73.209336
  altitude_m: 0.0
  release_time: '2026-04-15T02:16:00Z'
  due_time: '2026-04-15T02:42:30Z'
  required_duration_s: 80
  required_sensor_type: visible
  weight: 1.0
- task_id: task_0361
  name: background_0733
  latitude_deg: 14.136682
  longitude_deg: 9.802922
  altitude_m: 0.0
  release_time: '2026-04-14T20:48:00Z'
  due_time: '2026-04-14T21:59:30Z'
  required_duration_s: 80
  required_sensor_type: visible
  weight: 2.0
- task_id: task_0362
  name: background_0059
  latitude_deg: -12.768832
  longitude_deg: -52.908154
  altitude_m: 0.0
  release_time: '2026-04-15T05:32:30Z'
  due_time: '2026-04-15T06:03:00Z'
  required_duration_s: 30
  required_sensor_type: infrared
  weight: 2.0
- task_id: task_0363
  name: Banan, CN
  latitude_deg: 29.37861
  longitude_deg: 106.54
  altitude_m: 0.0
  release_time: '2026-04-15T02:50:30Z'
  due_time: '2026-04-15T03:17:00Z'
  required_duration_s: 90
  required_sensor_type: visible
  weight: 4.0
- task_id: task_0364
  name: Adana, TR
  latitude_deg: 36.98615
  longitude_deg: 35.32531
  altitude_m: 0.0
  release_time: '2026-04-15T01:10:30Z'
  due_time: '2026-04-15T01:36:30Z'
  required_duration_s: 20
  required_sensor_type: infrared
  weight: 5.0
- task_id: task_0365
  name: background_0130
  latitude_deg: 26.516899
  longitude_deg: 79.235033
  altitude_m: 0.0
  release_time: '2026-04-15T01:03:30Z'
  due_time: '2026-04-15T01:19:00Z'
  required_duration_s: 30
  required_sensor_type: visible
  weight: 1.0
- task_id: task_0366
  name: background_0615
  latitude_deg: 54.535663
  longitude_deg: -65.809971
  altitude_m: 0.0
  release_time: '2026-04-14T21:08:00Z'
  due_time: '2026-04-14T21:34:00Z'
  required_duration_s: 60
  required_sensor_type: visible
  weight: 1.5
- task_id: task_0367
  name: Leipzig, DE
  latitude_deg: 51.33962
  longitude_deg: 12.37129
  altitude_m: 0.0
  release_time: '2026-04-15T07:32:00Z'
  due_time: '2026-04-15T08:00:00Z'
  required_duration_s: 60
  required_sensor_type: visible
  weight: 5.0
- task_id: task_0368
  name: Hangzhou, CN
  latitude_deg: 30.29365
  longitude_deg: 120.16142
  altitude_m: 0.0
  release_time: '2026-04-15T02:53:30Z'
  due_time: '2026-04-15T03:05:00Z'
  required_duration_s: 50
  required_sensor_type: visible
  weight: 4.0
- task_id: task_0369
  name: Kukatpally, IN
  latitude_deg: 17.48486
  longitude_deg: 78.41376
  altitude_m: 0.0
  release_time: '2026-04-15T04:40:30Z'
  due_time: '2026-04-15T05:02:00Z'
  required_duration_s: 80
  required_sensor_type: visible
  weight: 3.0
- task_id: task_0370
  name: "Gundup\u0101laiyam, IN"
  latitude_deg: 11.94096
  longitude_deg: 79.80294
  altitude_m: 0.0
  release_time: '2026-04-15T02:57:00Z'
  due_time: '2026-04-15T03:08:00Z'
  required_duration_s: 60
  required_sensor_type: visible
  weight: 5.0
- task_id: task_0371
  name: Kaohsiung, TW
  latitude_deg: 22.61626
  longitude_deg: 120.31333
  altitude_m: 0.0
  release_time: '2026-04-15T02:35:30Z'
  due_time: '2026-04-15T03:22:00Z'
  required_duration_s: 70
  required_sensor_type: visible
  weight: 3.0
- task_id: task_0372
  name: Agadir, MA
  latitude_deg: 30.42018
  longitude_deg: -9.59815
  altitude_m: 0.0
  release_time: '2026-04-14T22:44:00Z'
  due_time: '2026-04-14T23:25:00Z'
  required_duration_s: 30
  required_sensor_type: visible
  weight: 5.0
- task_id: task_0373
  name: background_0646
  latitude_deg: -77.705083
  longitude_deg: -149.335395
  altitude_m: 0.0
  release_time: '2026-04-15T06:04:30Z'
  due_time: '2026-04-15T07:46:00Z'
  required_duration_s: 75
  required_sensor_type: visible
  weight: 2.0
- task_id: task_0374
  name: Manta, EC
  latitude_deg: -0.94937
  longitude_deg: -80.73137
  altitude_m: 0.0
  release_time: '2026-04-15T03:42:00Z'
  due_time: '2026-04-15T04:09:00Z'
  required_duration_s: 100
  required_sensor_type: visible
  weight: 5.0
- task_id: task_0375
  name: Dammam, SA
  latitude_deg: 26.43442
  longitude_deg: 50.10326
  altitude_m: 0.0
  release_time: '2026-04-15T07:02:00Z'
  due_time: '2026-04-15T08:00:00Z'
  required_duration_s: 70
  required_sensor_type: visible
  weight: 3.0
- task_id: task_0376
  name: background_0900
  latitude_deg: -11.601296
  longitude_deg: 35.551219
  altitude_m: 0.0
  release_time: '2026-04-15T07:43:00Z'
  due_time: '2026-04-15T08:00:00Z'
  required_duration_s: 30
  required_sensor_type: visible
  weight: 1.0
- task_id: task_0377
  name: background_0664
  latitude_deg: 21.735542
  longitude_deg: -101.501797
  altitude_m: 0.0
  release_time: '2026-04-15T04:44:30Z'
  due_time: '2026-04-15T05:16:00Z'
  required_duration_s: 75
  required_sensor_type: visible
  weight: 2.0
- task_id: task_0378
  name: Bandar Lampung, ID
  latitude_deg: -5.42917
  longitude_deg: 105.26111
  altitude_m: 0.0
  release_time: '2026-04-15T02:07:30Z'
  due_time: '2026-04-15T02:33:00Z'
  required_duration_s: 20
  required_sensor_type: visible
  weight: 4.0
- task_id: task_0379
  name: Padang, ID
  latitude_deg: -0.94924
  longitude_deg: 100.35427
  altitude_m: 0.0
  release_time: '2026-04-15T03:04:00Z'
  due_time: '2026-04-15T03:15:30Z'
  required_duration_s: 50
  required_sensor_type: visible
  weight: 5.0
- task_id: task_0380
  name: "Itag\xFC\xED, CO"
  latitude_deg: 6.18461
  longitude_deg: -75.59913
  altitude_m: 0.0
  release_time: '2026-04-14T22:31:30Z'
  due_time: '2026-04-14T23:52:00Z'
  required_duration_s: 20
  required_sensor_type: visible
  weight: 5.0
- task_id: task_0381
  name: Singapore, SG
  latitude_deg: 1.28967
  longitude_deg: 103.85007
  altitude_m: 0.0
  release_time: '2026-04-15T02:48:00Z'
  due_time: '2026-04-15T03:30:00Z'
  required_duration_s: 60
  required_sensor_type: visible
  weight: 4.0
- task_id: task_0382
  name: Kashgar, CN
  latitude_deg: 39.46718
  longitude_deg: 75.98675
  altitude_m: 0.0
  release_time: '2026-04-15T05:44:30Z'
  due_time: '2026-04-15T06:11:00Z'
  required_duration_s: 50
  required_sensor_type: visible
  weight: 4.0
- task_id: task_0383
  name: background_0932
  latitude_deg: 82.275462
  longitude_deg: -39.671935
  altitude_m: 0.0
  release_time: '2026-04-14T21:28:30Z'
  due_time: '2026-04-14T22:00:00Z'
  required_duration_s: 80
  required_sensor_type: visible
  weight: 1.5
- task_id: task_0384
  name: background_0373
  latitude_deg: -11.280402
  longitude_deg: -40.978149
  altitude_m: 0.0
  release_time: '2026-04-14T22:41:30Z'
