- id: city_ban_sai_ma_tai_th
  name: Ban Sai Ma Tai
  country: Thailand
  latitude_deg: 13.8642
  longitude_deg: 100.4741
  altitude_m: 0.0
  population: 30750.0
- id: city_laiwu_cn
  name: Laiwu
  country: China
  latitude_deg: 36.1833
  longitude_deg: 117.6667
  altitude_m: 0.0
  population: 1248636.0
- id: city_escalante_ph
  name: Escalante
  country: Philippines
  latitude_deg: 10.83
  longitude_deg: 123.5
  altitude_m: 0.0
  population: 96159.0
- id: city_samarinda_id
  name: Samarinda
  country: Indonesia
  latitude_deg: -0.5
  longitude_deg: 117.1378
  altitude_m: 0.0
  population: 831460.0
- id: city_mojokerto_id
  name: Mojokerto
  country: Indonesia
  latitude_deg: -7.4722
  longitude_deg: 112.4336
  altitude_m: 0.0
  population: 130196.0
- id: city_mildura_au
  name: Mildura
  country: Australia
  latitude_deg: -34.1889
  longitude_deg: 142.1583
  altitude_m: 0.0
  population: 34565.0
- id: city_al_manaqil_sd
  name: Al Manaqil
  country: Sudan
  latitude_deg: 14.2504
  longitude_deg: 32.98
  altitude_m: 0.0
  population: 151827.0
- id: city_kurivikod_in
  name: Kurivikod
  country: India
  latitude_deg: 8.3196
  longitude_deg: 77.1104
  altitude_m: 0.0
  population: 31506.0
- id: city_ano_liosia_gr
  name: Ano Liosia
  country: Greece
  latitude_deg: 38.0833
  longitude_deg: 23.7
  altitude_m: 0.0
  population: 35047.0
- id: city_ivirgarzama_bo
  name: Ivirgarzama
  country: Bolivia
  latitude_deg: -17.0333
  longitude_deg: -64.85
  altitude_m: 0.0
  population: 28255.0
- id: city_cusco_pe
  name: Cusco
  country: Peru
  latitude_deg: -13.525
  longitude_deg: -71.9722
  altitude_m: 0.0
  population: 428450.0
- id: city_mogi_das_cruzes_br
  name: Mogi das Cruzes
  country: Brazil
  latitude_deg: -23.5228
  longitude_deg: -46.1931
  altitude_m: 0.0
  population: 450785.0
- id: city_shreveport_us
  name: Shreveport
  country: United States
  latitude_deg: 32.4653
  longitude_deg: -93.7955
  altitude_m: 0.0
  population: 278269.0
- id: city_south_san_francisco_us
  name: South San Francisco
  country: United States
  latitude_deg: 37.6538
  longitude_deg: -122.4196
  altitude_m: 0.0
  population: 64487.0
- id: city_san_jeronimo_gt
  name: San Jeronimo
  country: Guatemala
  latitude_deg: 15.0611
  longitude_deg: -90.2403
  altitude_m: 0.0
  population: 28321.0
- id: city_valladolid_es
  name: Valladolid
  country: Spain
  latitude_deg: 41.6528
  longitude_deg: -4.7236
  altitude_m: 0.0
  population: 300618.0
- id: city_akron_us
  name: Akron
  country: United States
  latitude_deg: 41.0798
  longitude_deg: -81.5219
  altitude_m: 0.0
  population: 538659.0
- id: city_ibarra_ec
  name: Ibarra
  country: Ecuador
  latitude_deg: 0.3627
  longitude_deg: -78.1307
  altitude_m: 0.0
  population: 131856.0
- id: city_oullins_fr
  name: Oullins
  country: France
  latitude_deg: 45.715
  longitude_deg: 4.8083
  altitude_m: 0.0
  population: 26994.0
- id: city_vyshniy_volochek_ru
  name: Vyshniy Volochek
  country: Russia
  latitude_deg: 57.5833
  longitude_deg: 34.5667
  altitude_m: 0.0
  population: 45830.0
- id: city_semiluki_ru
  name: Semiluki
  country: Russia
  latitude_deg: 51.6833
  longitude_deg: 39.0333
  altitude_m: 0.0
  population: 27938.0
- id: city_antalaha_mg
  name: Antalaha
  country: Madagascar
  latitude_deg: -14.8833
  longitude_deg: 50.2833
  altitude_m: 0.0
  population: 67888.0
- id: city_mahambo_mg
  name: Mahambo
  country: Madagascar
  latitude_deg: -17.4914
  longitude_deg: 49.4498
  altitude_m: 0.0
  population: 26000.0
- id: city_sumbe_ao
  name: Sumbe
  country: Angola
  latitude_deg: -11.2053
  longitude_deg: 13.8417
  altitude_m: 0.0
  population: 279968.0
- id: city_bangor_gb
  name: Bangor
  country: United Kingdom
  latitude_deg: 54.66
  longitude_deg: -5.67
  altitude_m: 0.0
  population: 61011.0
- id: city_bridlington_gb
  name: Bridlington
  country: United Kingdom
  latitude_deg: 54.0819
  longitude_deg: -0.1923
  altitude_m: 0.0
  population: 35026.0
- id: city_stratford_gb
  name: Stratford
  country: United Kingdom
  latitude_deg: 51.5423
  longitude_deg: -0.0026
  altitude_m: 0.0
  population: 51387.0
- id: city_shuangcheng_cn
  name: Shuangcheng
  country: China
  latitude_deg: 45.3503
  longitude_deg: 126.28
  altitude_m: 0.0
  population: 130710.0
- id: city_ulan_ude_ru
  name: Ulan-Ude
  country: Russia
  latitude_deg: 51.8333
  longitude_deg: 107.6
  altitude_m: 0.0
  population: 439128.0
- id: city_linkou_cn
  name: Linkou
  country: China
  latitude_deg: 45.2819
  longitude_deg: 130.2519
  altitude_m: 0.0
  population: 77754.0
- id: city_moose_jaw_ca
  name: Moose Jaw
  country: Canada
  latitude_deg: 50.3933
  longitude_deg: -105.5519
  altitude_m: 0.0
  population: 33665.0
- id: city_vancouver_us
  name: Vancouver
  country: United States
  latitude_deg: 45.6366
  longitude_deg: -122.5967
  altitude_m: 0.0
  population: 192696.0
- id: city_leduc_ca
  name: Leduc
  country: Canada
  latitude_deg: 53.2594
  longitude_deg: -113.5492
  altitude_m: 0.0
  population: 34094.0
- id: city_coyhaique_cl
  name: Coyhaique
  country: Chile
  latitude_deg: -45.5667
  longitude_deg: -72.0667
  altitude_m: 0.0
  population: 61210.0
- id: city_caleta_olivia_ar
  name: Caleta Olivia
  country: Argentina
  latitude_deg: -46.4333
  longitude_deg: -67.5333
  altitude_m: 0.0
  population: 51733.0
- id: city_ushuaia_ar
  name: Ushuaia
  country: Argentina
  latitude_deg: -54.8019
  longitude_deg: -68.3031
  altitude_m: 0.0
  population: 82615.0
- id: city_nuku_alofa_to
  name: Nuku`alofa
  country: Tonga
  latitude_deg: -21.1333
  longitude_deg: -175.2
  altitude_m: 0.0
  population: 27600.0
- id: city_papeete_pf
  name: Papeete
  country: French Polynesia
  latitude_deg: -17.5334
  longitude_deg: -149.5667
  altitude_m: 0.0
  population: 131695.0
- id: city_apia_ws
  name: Apia
  country: Samoa
  latitude_deg: -13.8333
  longitude_deg: -171.75
  altitude_m: 0.0
  population: 35974.0
- id: city_invercargill_nz
  name: Invercargill
  country: New Zealand
  latitude_deg: -46.429
  longitude_deg: 168.362
  altitude_m: 0.0
  population: 47625.0
- id: city_dunedin_nz
  name: Dunedin
  country: New Zealand
  latitude_deg: -45.8742
  longitude_deg: 170.5036
  altitude_m: 0.0
  population: 36070.0
- id: city_ganderkesee_de
  name: Ganderkesee
  country: Germany
  latitude_deg: 53.0358
  longitude_deg: 8.5483
  altitude_m: 0.0
  population: 32149.0
- id: city_pilibangan_in
  name: Pilibangan
  country: India
  latitude_deg: 29.4888
  longitude_deg: 74.0748
  altitude_m: 0.0
  population: 37288.0
