tasks:
- task_id: task_0001
  name: background_0915
  latitude_deg: -38.014839
  longitude_deg: 140.856718
  altitude_m: 0.0
  release_time: '2026-04-14T12:43:00Z'
  due_time: '2026-04-14T13:08:30Z'
  required_duration_s: 20
  required_sensor_type: visible
  weight: 2.0
- task_id: task_0002
  name: background_0542
  latitude_deg: 29.740949
  longitude_deg: 119.09479
  altitude_m: 0.0
  release_time: '2026-04-14T13:55:00Z'
  due_time: '2026-04-14T14:36:30Z'
  required_duration_s: 20
  required_sensor_type: visible
  weight: 1.0
- task_id: task_0003
  name: background_0035
  latitude_deg: 53.136352
  longitude_deg: -114.197344
  altitude_m: 0.0
  release_time: '2026-04-14T18:22:00Z'
  due_time: '2026-04-14T18:33:00Z'
  required_duration_s: 45
  required_sensor_type: infrared
  weight: 2.0
- task_id: task_0004
  name: Bawshar, OM
  latitude_deg: 23.57769
  longitude_deg: 58.39982
  altitude_m: 0.0
  release_time: '2026-04-14T18:11:00Z'
  due_time: '2026-04-14T18:32:00Z'
  required_duration_s: 50
  required_sensor_type: visible
  weight: 5.0
- task_id: task_0005
  name: background_0371
  latitude_deg: -81.271309
  longitude_deg: 24.053867
  altitude_m: 0.0
  release_time: '2026-04-14T15:15:30Z'
  due_time: '2026-04-14T15:46:30Z'
  required_duration_s: 20
  required_sensor_type: visible
  weight: 1.5
- task_id: task_0006
  name: background_0011
  latitude_deg: 66.762445
  longitude_deg: 119.05412
  altitude_m: 0.0
  release_time: '2026-04-14T12:32:00Z'
  due_time: '2026-04-14T13:27:30Z'
  required_duration_s: 20
  required_sensor_type: infrared
  weight: 1.0
- task_id: task_0007
  name: Yaroslavl, RU
  latitude_deg: 57.62987
  longitude_deg: 39.87368
  altitude_m: 0.0
  release_time: '2026-04-14T13:23:30Z'
  due_time: '2026-04-14T15:04:30Z'
  required_duration_s: 60
  required_sensor_type: visible
  weight: 4.0
- task_id: task_0008
  name: background_0267
  latitude_deg: 44.691966
  longitude_deg: -121.201946
  altitude_m: 0.0
  release_time: '2026-04-14T17:53:30Z'
  due_time: '2026-04-14T18:44:00Z'
  required_duration_s: 30
  required_sensor_type: visible
  weight: 2.0
- task_id: task_0009
  name: Chennai, IN
  latitude_deg: 13.08784
  longitude_deg: 80.27847
  altitude_m: 0.0
  release_time: '2026-04-14T08:42:30Z'
  due_time: '2026-04-14T09:23:00Z'
  required_duration_s: 20
  required_sensor_type: infrared
  weight: 5.0
- task_id: task_0010
  name: Dalian, CN
  latitude_deg: 38.91222
  longitude_deg: 121.60222
  altitude_m: 0.0
  release_time: '2026-04-14T13:32:30Z'
  due_time: '2026-04-14T14:09:30Z'
  required_duration_s: 120
  required_sensor_type: visible
  weight: 5.0
- task_id: task_0011
  name: Okene, NG
  latitude_deg: 7.55122
  longitude_deg: 6.23589
  altitude_m: 0.0
  release_time: '2026-04-14T08:16:30Z'
  due_time: '2026-04-14T08:52:30Z'
  required_duration_s: 20
  required_sensor_type: visible
  weight: 5.0
- task_id: task_0012
  name: Mukalla, YE
  latitude_deg: 14.54248
  longitude_deg: 49.12424
  altitude_m: 0.0
  release_time: '2026-04-14T14:12:00Z'
  due_time: '2026-04-14T14:48:30Z'
  required_duration_s: 90
  required_sensor_type: visible
  weight: 3.0
- task_id: task_0013
  name: Minna, NG
  latitude_deg: 9.61524
  longitude_deg: 6.54776
  altitude_m: 0.0
  release_time: '2026-04-14T08:47:00Z'
  due_time: '2026-04-14T09:38:30Z'
  required_duration_s: 45
  required_sensor_type: visible
  weight: 3.0
- task_id: task_0014
  name: background_1031
  latitude_deg: 68.876027
  longitude_deg: -84.779714
  altitude_m: 0.0
  release_time: '2026-04-14T13:13:00Z'
  due_time: '2026-04-14T13:40:00Z'
  required_duration_s: 45
  required_sensor_type: visible
  weight: 1.0
- task_id: task_0015
  name: Chiclayo, PE
  latitude_deg: -6.77008
  longitude_deg: -79.85495
  altitude_m: 0.0
  release_time: '2026-04-14T15:01:30Z'
  due_time: '2026-04-14T15:37:00Z'
  required_duration_s: 20
  required_sensor_type: infrared
  weight: 3.0
- task_id: task_0016
  name: Zhu Cheng City, CN
  latitude_deg: 35.99502
  longitude_deg: 119.40259
  altitude_m: 0.0
  release_time: '2026-04-14T09:28:00Z'
  due_time: '2026-04-14T09:45:00Z'
  required_duration_s: 50
  required_sensor_type: visible
  weight: 3.0
- task_id: task_0017
  name: background_0251
  latitude_deg: 16.90328
  longitude_deg: -9.202573
  altitude_m: 0.0
  release_time: '2026-04-14T10:36:00Z'
  due_time: '2026-04-14T11:22:30Z'
  required_duration_s: 70
  required_sensor_type: visible
  weight: 1.0
- task_id: task_0018
  name: background_0326
  latitude_deg: 47.534068
  longitude_deg: 9.110727
  altitude_m: 0.0
  release_time: '2026-04-14T12:47:00Z'
  due_time: '2026-04-14T13:07:30Z'
  required_duration_s: 30
  required_sensor_type: visible
  weight: 1.0
- task_id: task_0019
  name: Brusque, BR
  latitude_deg: -27.09795
  longitude_deg: -48.91281
  altitude_m: 0.0
  release_time: '2026-04-14T13:10:00Z'
  due_time: '2026-04-14T13:31:30Z'
  required_duration_s: 75
  required_sensor_type: visible
  weight: 4.0
- task_id: task_0020
  name: Quillacollo, BO
  latitude_deg: -17.39228
  longitude_deg: -66.27838
  altitude_m: 0.0
  release_time: '2026-04-14T09:52:30Z'
  due_time: '2026-04-14T11:04:30Z'
  required_duration_s: 90
  required_sensor_type: visible
  weight: 3.0
- task_id: task_0021
  name: background_0153
  latitude_deg: 41.390318
  longitude_deg: 41.570826
  altitude_m: 0.0
  release_time: '2026-04-14T18:39:30Z'
  due_time: '2026-04-14T19:15:30Z'
  required_duration_s: 30
  required_sensor_type: visible
  weight: 1.5
- task_id: task_0022
  name: background_0740
  latitude_deg: 27.290741
  longitude_deg: 11.036178
  altitude_m: 0.0
  release_time: '2026-04-14T08:52:30Z'
  due_time: '2026-04-14T10:53:30Z'
  required_duration_s: 20
  required_sensor_type: visible
  weight: 2.0
- task_id: task_0023
  name: Astana, KZ
  latitude_deg: 51.1801
  longitude_deg: 71.44598
  altitude_m: 0.0
  release_time: '2026-04-14T16:57:30Z'
  due_time: '2026-04-14T17:34:00Z'
  required_duration_s: 80
  required_sensor_type: visible
  weight: 3.0
- task_id: task_0024
  name: Durham, US
  latitude_deg: 35.99403
  longitude_deg: -78.89862
  altitude_m: 0.0
  release_time: '2026-04-14T11:27:30Z'
  due_time: '2026-04-14T12:49:30Z'
  required_duration_s: 60
  required_sensor_type: visible
  weight: 3.0
- task_id: task_0025
  name: background_0911
  latitude_deg: 32.965038
  longitude_deg: 71.172924
  altitude_m: 0.0
  release_time: '2026-04-14T15:06:00Z'
  due_time: '2026-04-14T15:36:30Z'
  required_duration_s: 20
  required_sensor_type: visible
  weight: 1.5
- task_id: task_0026
  name: background_0941
  latitude_deg: -81.624282
  longitude_deg: 35.490349
  altitude_m: 0.0
  release_time: '2026-04-14T15:10:00Z'
  due_time: '2026-04-14T15:36:00Z'
  required_duration_s: 45
  required_sensor_type: visible
  weight: 2.0
- task_id: task_0027
  name: background_0725
  latitude_deg: -1.257612
  longitude_deg: -73.030772
  altitude_m: 0.0
  release_time: '2026-04-14T14:04:30Z'
  due_time: '2026-04-14T14:40:30Z'
  required_duration_s: 20
  required_sensor_type: visible
  weight: 1.5
- task_id: task_0028
  name: "S\xE3o Bernardo do Campo, BR"
  latitude_deg: -23.69389
  longitude_deg: -46.565
  altitude_m: 0.0
  release_time: '2026-04-14T13:09:00Z'
  due_time: '2026-04-14T13:45:30Z'
  required_duration_s: 70
  required_sensor_type: visible
  weight: 3.0
- task_id: task_0029
  name: background_0624
  latitude_deg: 68.214281
  longitude_deg: 125.142219
  altitude_m: 0.0
  release_time: '2026-04-14T18:37:00Z'
  due_time: '2026-04-14T19:03:30Z'
  required_duration_s: 70
  required_sensor_type: visible
  weight: 2.0
- task_id: task_0030
  name: Takatsuki, JP
  latitude_deg: 34.84833
  longitude_deg: 135.61678
  altitude_m: 0.0
  release_time: '2026-04-14T11:51:00Z'
  due_time: '2026-04-14T12:22:00Z'
  required_duration_s: 60
  required_sensor_type: visible
  weight: 4.0
- task_id: task_0031
  name: "Al Hoce\xEFma, MA"
  latitude_deg: 35.25165
  longitude_deg: -3.93723
  altitude_m: 0.0
  release_time: '2026-04-14T17:47:30Z'
  due_time: '2026-04-14T18:09:00Z'
  required_duration_s: 90
  required_sensor_type: visible
  weight: 3.0
- task_id: task_0032
  name: Ajegunle, NG
  latitude_deg: 6.45197
  longitude_deg: 3.33115
  altitude_m: 0.0
  release_time: '2026-04-14T18:30:30Z'
  due_time: '2026-04-14T19:41:30Z'
  required_duration_s: 45
  required_sensor_type: visible
  weight: 5.0
- task_id: task_0033
  name: Longyan, CN
  latitude_deg: 25.07485
  longitude_deg: 117.01775
  altitude_m: 0.0
  release_time: '2026-04-14T13:59:30Z'
  due_time: '2026-04-14T14:20:00Z'
  required_duration_s: 20
  required_sensor_type: visible
  weight: 5.0
- task_id: task_0034
  name: Budta, PH
  latitude_deg: 7.20417
  longitude_deg: 124.43972
  altitude_m: 0.0
  release_time: '2026-04-14T10:42:30Z'
  due_time: '2026-04-14T11:13:30Z'
  required_duration_s: 60
  required_sensor_type: visible
  weight: 4.0
- task_id: task_0035
  name: Newport News, US
  latitude_deg: 36.98038
  longitude_deg: -76.42975
  altitude_m: 0.0
  release_time: '2026-04-14T15:42:00Z'
  due_time: '2026-04-14T16:14:00Z'
  required_duration_s: 20
  required_sensor_type: visible
  weight: 3.0
- task_id: task_0036
  name: Wakayama, JP
  latitude_deg: 34.23333
  longitude_deg: 135.16667
  altitude_m: 0.0
  release_time: '2026-04-14T11:47:00Z'
  due_time: '2026-04-14T11:58:00Z'
  required_duration_s: 20
  required_sensor_type: visible
  weight: 3.0
- task_id: task_0037
  name: background_0024
  latitude_deg: 18.078969
  longitude_deg: -0.25073
  altitude_m: 0.0
  release_time: '2026-04-14T09:55:30Z'
  due_time: '2026-04-14T10:26:30Z'
  required_duration_s: 30
  required_sensor_type: infrared
  weight: 2.0
- task_id: task_0038
  name: background_0731
  latitude_deg: 53.078262
  longitude_deg: 70.635785
  altitude_m: 0.0
  release_time: '2026-04-14T17:13:00Z'
  due_time: '2026-04-14T17:34:30Z'
  required_duration_s: 40
  required_sensor_type: visible
  weight: 1.0
- task_id: task_0039
  name: Paris, FR
  latitude_deg: 48.85341
  longitude_deg: 2.3488
  altitude_m: 0.0
  release_time: '2026-04-14T10:46:00Z'
  due_time: '2026-04-14T11:22:00Z'
  required_duration_s: 60
  required_sensor_type: visible
  weight: 5.0
- task_id: task_0040
  name: Bhilai, IN
  latitude_deg: 21.20919
  longitude_deg: 81.4285
  altitude_m: 0.0
  release_time: '2026-04-14T10:28:00Z'
  due_time: '2026-04-14T11:59:00Z'
  required_duration_s: 50
  required_sensor_type: visible
  weight: 4.0
- task_id: task_0041
  name: background_1084
  latitude_deg: 55.649476
  longitude_deg: 40.975268
  altitude_m: 0.0
  release_time: '2026-04-14T19:13:30Z'
  due_time: '2026-04-14T19:24:30Z'
  required_duration_s: 60
  required_sensor_type: visible
  weight: 1.0
- task_id: task_0042
  name: Davao, PH
  latitude_deg: 7.07306
  longitude_deg: 125.61278
  altitude_m: 0.0
  release_time: '2026-04-14T08:30:00Z'
  due_time: '2026-04-14T09:46:30Z'
  required_duration_s: 40
  required_sensor_type: visible
  weight: 3.0
- task_id: task_0043
  name: background_0697
  latitude_deg: 79.389378
  longitude_deg: -76.409481
  altitude_m: 0.0
  release_time: '2026-04-14T19:05:30Z'
  due_time: '2026-04-14T19:32:30Z'
  required_duration_s: 50
  required_sensor_type: visible
  weight: 2.0
- task_id: task_0044
  name: Delhi, IN
  latitude_deg: 28.65195
  longitude_deg: 77.23149
  altitude_m: 0.0
  release_time: '2026-04-14T16:16:30Z'
  due_time: '2026-04-14T16:53:00Z'
  required_duration_s: 45
  required_sensor_type: visible
  weight: 5.0
- task_id: task_0045
  name: Ankara, TR
  latitude_deg: 39.91987
  longitude_deg: 32.85427
  altitude_m: 0.0
  release_time: '2026-04-14T18:29:00Z'
  due_time: '2026-04-14T19:00:30Z'
  required_duration_s: 70
  required_sensor_type: visible
  weight: 3.0
- task_id: task_0046
  name: background_0108
  latitude_deg: 38.30537
  longitude_deg: 85.401877
  altitude_m: 0.0
  release_time: '2026-04-14T16:12:30Z'
  due_time: '2026-04-14T16:43:00Z'
  required_duration_s: 20
  required_sensor_type: infrared
  weight: 1.5
- task_id: task_0047
  name: background_0184
  latitude_deg: -45.570967
  longitude_deg: -68.148199
  altitude_m: 0.0
  release_time: '2026-04-14T13:36:30Z'
  due_time: '2026-04-14T13:58:00Z'
  required_duration_s: 90
  required_sensor_type: visible
  weight: 2.0
- task_id: task_0048
  name: background_1076
  latitude_deg: -82.231932
  longitude_deg: -134.374946
  altitude_m: 0.0
  release_time: '2026-04-14T19:16:00Z'
  due_time: '2026-04-14T19:52:30Z'
  required_duration_s: 80
  required_sensor_type: visible
  weight: 2.0
- task_id: task_0049
  name: Malacca, MY
  latitude_deg: 2.196
  longitude_deg: 102.2405
  altitude_m: 0.0
  release_time: '2026-04-14T09:20:30Z'
  due_time: '2026-04-14T09:31:30Z'
  required_duration_s: 50
  required_sensor_type: visible
  weight: 4.0
- task_id: task_0050
  name: background_0902
  latitude_deg: 61.000754
  longitude_deg: -107.419723
  altitude_m: 0.0
  release_time: '2026-04-14T10:21:30Z'
  due_time: '2026-04-14T10:43:00Z'
  required_duration_s: 80
  required_sensor_type: visible
  weight: 1.0
- task_id: task_0051
  name: Tarlac City, PH
  latitude_deg: 15.48017
  longitude_deg: 120.59794
  altitude_m: 0.0
  release_time: '2026-04-14T10:30:00Z'
  due_time: '2026-04-14T11:31:00Z'
  required_duration_s: 45
  required_sensor_type: visible
  weight: 5.0
- task_id: task_0052
  name: background_0694
  latitude_deg: 56.246711
  longitude_deg: 125.260212
  altitude_m: 0.0
  release_time: '2026-04-14T13:23:30Z'
  due_time: '2026-04-14T13:54:30Z'
  required_duration_s: 30
  required_sensor_type: visible
  weight: 1.5
- task_id: task_0053
  name: "San Jos\xE9, CR"
  latitude_deg: 9.93388
  longitude_deg: -84.08489
  altitude_m: 0.0
  release_time: '2026-04-14T15:49:30Z'
  due_time: '2026-04-14T16:16:30Z'
  required_duration_s: 90
  required_sensor_type: visible
  weight: 4.0
- task_id: task_0054
  name: background_0690
  latitude_deg: 25.344936
  longitude_deg: 106.660859
  altitude_m: 0.0
  release_time: '2026-04-14T14:24:00Z'
  due_time: '2026-04-14T15:20:00Z'
  required_duration_s: 20
  required_sensor_type: visible
  weight: 2.0
- task_id: task_0055
  name: background_0658
  latitude_deg: 19.025644
  longitude_deg: 31.719049
  altitude_m: 0.0
  release_time: '2026-04-14T19:34:00Z'
  due_time: '2026-04-14T20:00:00Z'
  required_duration_s: 50
  required_sensor_type: visible
  weight: 1.5
- task_id: task_0056
  name: Posadas, AR
  latitude_deg: -27.39184
  longitude_deg: -55.92379
  altitude_m: 0.0
  release_time: '2026-04-14T12:25:30Z'
  due_time: '2026-04-14T12:57:00Z'
  required_duration_s: 75
  required_sensor_type: visible
  weight: 5.0
- task_id: task_0057
  name: background_0069
  latitude_deg: 52.624426
  longitude_deg: 39.255897
  altitude_m: 0.0
  release_time: '2026-04-14T08:00:00Z'
  due_time: '2026-04-14T09:20:00Z'
  required_duration_s: 45
  required_sensor_type: infrared
  weight: 1.5
- task_id: task_0058
  name: background_0306
  latitude_deg: 65.995086
  longitude_deg: -96.868036
  altitude_m: 0.0
  release_time: '2026-04-14T16:55:30Z'
  due_time: '2026-04-14T17:16:30Z'
  required_duration_s: 40
  required_sensor_type: visible
  weight: 1.5
- task_id: task_0059
  name: Thiruvananthapuram, IN
  latitude_deg: 8.4855
  longitude_deg: 76.94924
  altitude_m: 0.0
  release_time: '2026-04-14T17:17:00Z'
  due_time: '2026-04-14T17:48:00Z'
  required_duration_s: 40
  required_sensor_type: visible
  weight: 5.0
- task_id: task_0060
  name: background_0192
  latitude_deg: 29.404202
  longitude_deg: 23.026183
  altitude_m: 0.0
  release_time: '2026-04-14T15:56:00Z'
  due_time: '2026-04-14T16:27:30Z'
  required_duration_s: 40
  required_sensor_type: visible
  weight: 2.0
- task_id: task_0061
  name: "S\xE3o Jos\xE9 do Rio Preto, BR"
  latitude_deg: -20.81972
  longitude_deg: -49.37944
  altitude_m: 0.0
  release_time: '2026-04-14T13:18:30Z'
  due_time: '2026-04-14T13:39:30Z'
  required_duration_s: 40
  required_sensor_type: visible
  weight: 3.0
- task_id: task_0062
  name: Uyo, NG
  latitude_deg: 5.05127
  longitude_deg: 7.9335
  altitude_m: 0.0
  release_time: '2026-04-14T09:48:30Z'
  due_time: '2026-04-14T10:15:00Z'
  required_duration_s: 50
  required_sensor_type: visible
  weight: 3.0
- task_id: task_0063
  name: background_0337
  latitude_deg: 71.722846
  longitude_deg: -115.283632
  altitude_m: 0.0
  release_time: '2026-04-14T14:42:30Z'
  due_time: '2026-04-14T15:29:00Z'
  required_duration_s: 70
  required_sensor_type: visible
  weight: 1.0
- task_id: task_0064
  name: Palmdale, US
  latitude_deg: 34.57943
  longitude_deg: -118.11646
  altitude_m: 0.0
  release_time: '2026-04-14T17:12:30Z'
  due_time: '2026-04-14T17:33:30Z'
  required_duration_s: 20
  required_sensor_type: visible
  weight: 4.0
- task_id: task_0065
  name: Jerusalem, IL
  latitude_deg: 31.76904
  longitude_deg: 35.21633
  altitude_m: 0.0
  release_time: '2026-04-14T18:17:00Z'
  due_time: '2026-04-14T18:48:30Z'
  required_duration_s: 75
  required_sensor_type: visible
  weight: 3.0
- task_id: task_0066
  name: Pokhara, NP
  latitude_deg: 28.26689
  longitude_deg: 83.96851
  altitude_m: 0.0
  release_time: '2026-04-14T15:45:00Z'
  due_time: '2026-04-14T16:46:00Z'
  required_duration_s: 20
  required_sensor_type: visible
  weight: 4.0
- task_id: task_0067
  name: background_0101
  latitude_deg: 42.937345
  longitude_deg: 90.388319
  altitude_m: 0.0
  release_time: '2026-04-14T14:56:00Z'
  due_time: '2026-04-14T15:21:30Z'
  required_duration_s: 20
  required_sensor_type: infrared
  weight: 1.5
- task_id: task_0068
  name: Sullana, PE
  latitude_deg: -4.90389
  longitude_deg: -80.68528
  altitude_m: 0.0
  release_time: '2026-04-14T15:37:30Z'
  due_time: '2026-04-14T16:03:30Z'
  required_duration_s: 50
  required_sensor_type: visible
  weight: 4.0
- task_id: task_0069
  name: Puente Alto, CL
  latitude_deg: -33.61169
  longitude_deg: -70.57577
  altitude_m: 0.0
  release_time: '2026-04-14T14:31:30Z'
  due_time: '2026-04-14T15:03:00Z'
  required_duration_s: 60
  required_sensor_type: visible
  weight: 5.0
- task_id: task_0070
  name: background_1008
  latitude_deg: 38.965969
  longitude_deg: 108.139751
  altitude_m: 0.0
  release_time: '2026-04-14T13:29:30Z'
  due_time: '2026-04-14T13:56:00Z'
  required_duration_s: 75
  required_sensor_type: visible
  weight: 2.0
- task_id: task_0071
  name: "E\u2019zhou, CN"
  latitude_deg: 30.39607
  longitude_deg: 114.88655
  altitude_m: 0.0
  release_time: '2026-04-14T13:02:00Z'
  due_time: '2026-04-14T13:53:30Z'
  required_duration_s: 30
  required_sensor_type: visible
  weight: 3.0
- task_id: task_0072
  name: background_0910
  latitude_deg: -5.186939
  longitude_deg: -69.665044
  altitude_m: 0.0
  release_time: '2026-04-14T12:38:00Z'
  due_time: '2026-04-14T13:13:30Z'
  required_duration_s: 20
  required_sensor_type: visible
  weight: 1.0
- task_id: task_0073
  name: background_0163
  latitude_deg: 23.184919
  longitude_deg: 80.906068
  altitude_m: 0.0
  release_time: '2026-04-14T10:42:30Z'
  due_time: '2026-04-14T11:03:30Z'
  required_duration_s: 60
  required_sensor_type: visible
  weight: 2.0
- task_id: task_0074
  name: Itapipoca, BR
  latitude_deg: -3.49444
  longitude_deg: -39.57861
  altitude_m: 0.0
  release_time: '2026-04-14T12:38:00Z'
  due_time: '2026-04-14T13:13:30Z'
  required_duration_s: 20
  required_sensor_type: visible
  weight: 3.0
- task_id: task_0075
  name: background_0984
  latitude_deg: 51.634225
  longitude_deg: 81.523497
  altitude_m: 0.0
  release_time: '2026-04-14T14:45:30Z'
  due_time: '2026-04-14T16:26:30Z'
  required_duration_s: 20
  required_sensor_type: visible
  weight: 2.0
- task_id: task_0076
  name: Recife, BR
  latitude_deg: -8.05389
  longitude_deg: -34.88111
  altitude_m: 0.0
  release_time: '2026-04-14T12:05:00Z'
  due_time: '2026-04-14T12:31:30Z'
  required_duration_s: 80
  required_sensor_type: visible
  weight: 3.0
- task_id: task_0077
  name: "Goi\xE2nia, BR"
  latitude_deg: -16.67861
  longitude_deg: -49.25389
  altitude_m: 0.0
  release_time: '2026-04-14T13:37:30Z'
  due_time: '2026-04-14T14:08:00Z'
  required_duration_s: 20
  required_sensor_type: infrared
  weight: 5.0
- task_id: task_0078
  name: background_0894
  latitude_deg: 61.964435
  longitude_deg: 127.921098
  altitude_m: 0.0
  release_time: '2026-04-14T12:30:30Z'
  due_time: '2026-04-14T13:02:00Z'
  required_duration_s: 40
  required_sensor_type: visible
  weight: 1.5
- task_id: task_0079
  name: Franco da Rocha, BR
  latitude_deg: -23.32167
  longitude_deg: -46.72694
  altitude_m: 0.0
  release_time: '2026-04-14T13:08:30Z'
  due_time: '2026-04-14T13:30:30Z'
  required_duration_s: 75
  required_sensor_type: visible
  weight: 5.0
- task_id: task_0080
  name: background_0142
  latitude_deg: 39.192196
  longitude_deg: 117.953023
  altitude_m: 0.0
  release_time: '2026-04-14T14:02:30Z'
  due_time: '2026-04-14T14:39:00Z'
  required_duration_s: 30
  required_sensor_type: visible
  weight: 1.5
- task_id: task_0081
  name: Araraquara, BR
  latitude_deg: -21.79444
  longitude_deg: -48.17556
  altitude_m: 0.0
  release_time: '2026-04-14T13:18:30Z'
  due_time: '2026-04-14T13:30:00Z'
  required_duration_s: 80
  required_sensor_type: visible
  weight: 3.0
- task_id: task_0082
  name: background_0872
  latitude_deg: 24.703538
  longitude_deg: 49.947717
  altitude_m: 0.0
  release_time: '2026-04-14T14:14:30Z'
  due_time: '2026-04-14T15:06:00Z'
  required_duration_s: 75
  required_sensor_type: visible
  weight: 1.0
- task_id: task_0083
  name: "Jaragu\xE1 do Sul, BR"
  latitude_deg: -26.48611
  longitude_deg: -49.06667
  altitude_m: 0.0
  release_time: '2026-04-14T13:04:30Z'
  due_time: '2026-04-14T13:31:00Z'
  required_duration_s: 90
  required_sensor_type: visible
  weight: 5.0
- task_id: task_0084
  name: Yongzhou, CN
  latitude_deg: 26.42389
  longitude_deg: 111.61306
  altitude_m: 0.0
  release_time: '2026-04-14T13:21:00Z'
  due_time: '2026-04-14T13:42:30Z'
  required_duration_s: 75
  required_sensor_type: visible
  weight: 3.0
- task_id: task_0085
  name: Agartala, IN
  latitude_deg: 23.83605
  longitude_deg: 91.27939
  altitude_m: 0.0
  release_time: '2026-04-14T14:41:30Z'
  due_time: '2026-04-14T15:53:00Z'
  required_duration_s: 40
  required_sensor_type: visible
  weight: 3.0
- task_id: task_0086
  name: Savannah, US
  latitude_deg: 32.08354
  longitude_deg: -81.09983
  altitude_m: 0.0
  release_time: '2026-04-14T11:44:00Z'
  due_time: '2026-04-14T11:55:30Z'
  required_duration_s: 70
  required_sensor_type: visible
  weight: 3.0
- task_id: task_0087
  name: background_0703
  latitude_deg: -5.433369
  longitude_deg: -40.154526
  altitude_m: 0.0
  release_time: '2026-04-14T08:34:30Z'
  due_time: '2026-04-14T08:46:00Z'
  required_duration_s: 75
  required_sensor_type: visible
  weight: 1.5
- task_id: task_0088
  name: background_0025
  latitude_deg: -7.127197
  longitude_deg: -61.939887
  altitude_m: 0.0
  release_time: '2026-04-14T13:40:30Z'
  due_time: '2026-04-14T14:16:00Z'
  required_duration_s: 30
  required_sensor_type: visible
  weight: 1.0
- task_id: task_0089
  name: background_0627
  latitude_deg: 68.334746
  longitude_deg: 56.324906
  altitude_m: 0.0
  release_time: '2026-04-14T08:00:00Z'
  due_time: '2026-04-14T08:33:30Z'
  required_duration_s: 90
  required_sensor_type: visible
  weight: 2.0
- task_id: task_0090
  name: Perth, AU
  latitude_deg: -31.95224
  longitude_deg: 115.8614
  altitude_m: 0.0
  release_time: '2026-04-14T14:58:00Z'
  due_time: '2026-04-14T15:20:00Z'
  required_duration_s: 80
  required_sensor_type: visible
  weight: 5.0
- task_id: task_0091
  name: background_0115
  latitude_deg: 64.147621
  longitude_deg: 101.583199
  altitude_m: 0.0
  release_time: '2026-04-14T09:26:30Z'
  due_time: '2026-04-14T10:03:00Z'
  required_duration_s: 70
  required_sensor_type: visible
  weight: 2.0
- task_id: task_0092
  name: "Thanh H\xF3a, VN"
  latitude_deg: 19.8
  longitude_deg: 105.76667
  altitude_m: 0.0
  release_time: '2026-04-14T15:18:00Z'
  due_time: '2026-04-14T15:34:00Z'
  required_duration_s: 45
  required_sensor_type: visible
  weight: 3.0
- task_id: task_0093
  name: Qingdao, CN
  latitude_deg: 36.06488
  longitude_deg: 120.38042
  altitude_m: 0.0
  release_time: '2026-04-14T13:37:00Z'
  due_time: '2026-04-14T14:13:30Z'
  required_duration_s: 75
  required_sensor_type: visible
  weight: 4.0
- task_id: task_0094
  name: Dar es Salaam, TZ
  latitude_deg: -6.82349
  longitude_deg: 39.26951
  altitude_m: 0.0
  release_time: '2026-04-14T19:21:00Z'
  due_time: '2026-04-14T19:37:00Z'
  required_duration_s: 40
  required_sensor_type: infrared
  weight: 3.0
- task_id: task_0095
  name: background_0626
  latitude_deg: -81.502012
  longitude_deg: 61.086971
  altitude_m: 0.0
  release_time: '2026-04-14T13:47:30Z'
  due_time: '2026-04-14T14:09:00Z'
  required_duration_s: 60
  required_sensor_type: visible
  weight: 1.0
- task_id: task_0096
  name: background_0900
  latitude_deg: 63.18545
  longitude_deg: 12.311781
  altitude_m: 0.0
  release_time: '2026-04-14T16:05:30Z'
  due_time: '2026-04-14T16:42:00Z'
  required_duration_s: 60
  required_sensor_type: visible
  weight: 1.0
- task_id: task_0097
  name: Georgetown, GY
  latitude_deg: 6.80448
  longitude_deg: -58.15527
  altitude_m: 0.0
  release_time: '2026-04-14T13:31:30Z'
  due_time: '2026-04-14T14:12:30Z'
  required_duration_s: 50
  required_sensor_type: visible
  weight: 3.0
- task_id: task_0098
  name: Milwaukee, US
  latitude_deg: 43.0389
  longitude_deg: -87.90647
  altitude_m: 0.0
  release_time: '2026-04-14T15:28:30Z'
  due_time: '2026-04-14T16:05:00Z'
  required_duration_s: 90
  required_sensor_type: visible
  weight: 5.0
- task_id: task_0099
  name: Manado, ID
  latitude_deg: 1.48218
  longitude_deg: 124.84892
  altitude_m: 0.0
  release_time: '2026-04-14T13:47:30Z'
  due_time: '2026-04-14T14:28:30Z'
  required_duration_s: 40
  required_sensor_type: visible
  weight: 3.0
- task_id: task_0100
  name: "S\xE3o Jos\xE9 de Ribamar, BR"
  latitude_deg: -2.55572
  longitude_deg: -44.05992
  altitude_m: 0.0
  release_time: '2026-04-14T17:09:30Z'
  due_time: '2026-04-14T17:40:00Z'
  required_duration_s: 20
  required_sensor_type: visible
  weight: 4.0
- task_id: task_0101
  name: background_0011
  latitude_deg: -79.969653
  longitude_deg: -106.523572
  altitude_m: 0.0
  release_time: '2026-04-14T19:20:00Z'
  due_time: '2026-04-14T19:41:30Z'
  required_duration_s: 70
  required_sensor_type: visible
  weight: 2.0
- task_id: task_0102
  name: background_0416
  latitude_deg: 53.757788
  longitude_deg: 85.574747
  altitude_m: 0.0
  release_time: '2026-04-14T15:50:30Z'
  due_time: '2026-04-14T16:12:00Z'
  required_duration_s: 20
  required_sensor_type: visible
  weight: 1.5
- task_id: task_0103
  name: background_0537
  latitude_deg: 63.087196
  longitude_deg: 79.875141
  altitude_m: 0.0
  release_time: '2026-04-14T12:34:30Z'
  due_time: '2026-04-14T13:00:30Z'
  required_duration_s: 20
  required_sensor_type: visible
  weight: 1.0
- task_id: task_0104
  name: background_0102
  latitude_deg: 47.084585
  longitude_deg: 59.737366
  altitude_m: 0.0
  release_time: '2026-04-14T17:59:00Z'
  due_time: '2026-04-14T18:10:00Z'
  required_duration_s: 60
  required_sensor_type: infrared
  weight: 1.0
- task_id: task_0105
  name: background_0632
  latitude_deg: -71.041915
  longitude_deg: 76.374173
  altitude_m: 0.0
  release_time: '2026-04-14T13:48:00Z'
  due_time: '2026-04-14T14:19:30Z'
  required_duration_s: 20
  required_sensor_type: visible
  weight: 2.0
- task_id: task_0106
  name: "Bil\u0101spur, IN"
  latitude_deg: 22.08005
  longitude_deg: 82.15543
  altitude_m: 0.0
  release_time: '2026-04-14T16:03:30Z'
  due_time: '2026-04-14T16:24:30Z'
  required_duration_s: 50
  required_sensor_type: visible
  weight: 3.0
- task_id: task_0107
  name: "M\xE9rida, MX"
  latitude_deg: 20.967
  longitude_deg: -89.62318
  altitude_m: 0.0
  release_time: '2026-04-14T12:55:00Z'
  due_time: '2026-04-14T13:21:00Z'
  required_duration_s: 60
  required_sensor_type: visible
  weight: 3.0
- task_id: task_0108
  name: Jepara, ID
  latitude_deg: -6.5924
  longitude_deg: 110.671
  altitude_m: 0.0
  release_time: '2026-04-14T15:15:30Z'
  due_time: '2026-04-14T15:42:00Z'
  required_duration_s: 70
  required_sensor_type: visible
  weight: 5.0
- task_id: task_0109
  name: background_0363
  latitude_deg: 32.073095
  longitude_deg: 8.31012
  altitude_m: 0.0
  release_time: '2026-04-14T08:46:00Z'
  due_time: '2026-04-14T09:07:00Z'
  required_duration_s: 60
  required_sensor_type: visible
  weight: 1.5
- task_id: task_0110
  name: background_0568
  latitude_deg: -82.852738
  longitude_deg: -0.970733
  altitude_m: 0.0
  release_time: '2026-04-14T09:45:30Z'
  due_time: '2026-04-14T10:12:00Z'
  required_duration_s: 70
  required_sensor_type: visible
  weight: 2.0
- task_id: task_0111
  name: background_0148
  latitude_deg: -28.341909
  longitude_deg: -54.424354
  altitude_m: 0.0
  release_time: '2026-04-14T13:40:30Z'
  due_time: '2026-04-14T14:11:30Z'
  required_duration_s: 45
  required_sensor_type: infrared
  weight: 2.0
- task_id: task_0112
  name: background_1068
  latitude_deg: 68.953207
  longitude_deg: 176.918798
  altitude_m: 0.0
  release_time: '2026-04-14T19:37:30Z'
  due_time: '2026-04-14T20:00:00Z'
  required_duration_s: 90
  required_sensor_type: visible
  weight: 2.0
- task_id: task_0113
  name: background_0947
  latitude_deg: -7.3024
  longitude_deg: 142.616276
  altitude_m: 0.0
  release_time: '2026-04-14T16:23:30Z'
  due_time: '2026-04-14T16:49:30Z'
  required_duration_s: 40
  required_sensor_type: visible
  weight: 1.0
- task_id: task_0114
  name: background_0183
  latitude_deg: 59.582965
  longitude_deg: 36.553875
  altitude_m: 0.0
  release_time: '2026-04-14T18:55:30Z'
  due_time: '2026-04-14T19:17:30Z'
  required_duration_s: 120
  required_sensor_type: visible
  weight: 1.5
- task_id: task_0115
  name: background_0053
  latitude_deg: -13.097937
  longitude_deg: -63.146454
  altitude_m: 0.0
  release_time: '2026-04-14T13:47:00Z'
  due_time: '2026-04-14T14:18:00Z'
  required_duration_s: 20
  required_sensor_type: visible
  weight: 1.0
- task_id: task_0116
  name: background_0524
  latitude_deg: -76.60061
  longitude_deg: 88.810756
  altitude_m: 0.0
  release_time: '2026-04-14T18:07:00Z'
  due_time: '2026-04-14T18:38:30Z'
  required_duration_s: 60
  required_sensor_type: visible
  weight: 1.0
- task_id: task_0117
  name: Calabar, NG
  latitude_deg: 4.95893
  longitude_deg: 8.32695
  altitude_m: 0.0
  release_time: '2026-04-14T09:28:30Z'
  due_time: '2026-04-14T10:40:00Z'
  required_duration_s: 60
  required_sensor_type: visible
  weight: 5.0
- task_id: task_0118
  name: Erbil, IQ
  latitude_deg: 36.19117
  longitude_deg: 44.00943
  altitude_m: 0.0
  release_time: '2026-04-14T08:00:00Z'
  due_time: '2026-04-14T08:22:00Z'
  required_duration_s: 50
  required_sensor_type: visible
  weight: 4.0
- task_id: task_0119
  name: "R\xEDo Cuarto, AR"
  latitude_deg: -33.13044
  longitude_deg: -64.35272
  altitude_m: 0.0
  release_time: '2026-04-14T14:06:30Z'
  due_time: '2026-04-14T14:32:30Z'
  required_duration_s: 45
  required_sensor_type: visible
  weight: 3.0
- task_id: task_0120
  name: "S\xE3o Lu\xEDs, BR"
  latitude_deg: -2.52972
  longitude_deg: -44.30278
  altitude_m: 0.0
  release_time: '2026-04-14T13:13:30Z'
  due_time: '2026-04-14T13:29:30Z'
  required_duration_s: 20
  required_sensor_type: visible
  weight: 3.0
- task_id: task_0121
  name: background_0001
  latitude_deg: -76.654722
  longitude_deg: 2.198266
  altitude_m: 0.0
  release_time: '2026-04-14T16:31:30Z'
  due_time: '2026-04-14T16:47:00Z'
  required_duration_s: 20
  required_sensor_type: infrared
  weight: 1.5
- task_id: task_0122
  name: background_0064
  latitude_deg: 42.111277
  longitude_deg: -93.176153
  altitude_m: 0.0
  release_time: '2026-04-14T16:53:00Z'
  due_time: '2026-04-14T17:19:30Z'
  required_duration_s: 75
  required_sensor_type: visible
  weight: 1.5
- task_id: task_0123
  name: background_0036
  latitude_deg: -8.735396
  longitude_deg: -73.859279
  altitude_m: 0.0
  release_time: '2026-04-14T13:56:30Z'
  due_time: '2026-04-14T14:33:00Z'
  required_duration_s: 30
  required_sensor_type: visible
  weight: 2.0
- task_id: task_0124
  name: background_0005
  latitude_deg: 47.171481
  longitude_deg: 75.425716
  altitude_m: 0.0
  release_time: '2026-04-14T16:03:30Z'
  due_time: '2026-04-14T16:39:30Z'
  required_duration_s: 45
  required_sensor_type: infrared
  weight: 1.5
- task_id: task_0125
  name: Daloa, CI
  latitude_deg: 6.87735
  longitude_deg: -6.45022
  altitude_m: 0.0
  release_time: '2026-04-14T09:41:00Z'
  due_time: '2026-04-14T10:06:30Z'
  required_duration_s: 30
  required_sensor_type: visible
  weight: 4.0
- task_id: task_0126
  name: "Montr\xE9al, CA"
  latitude_deg: 45.50884
  longitude_deg: -73.58781
  altitude_m: 0.0
  release_time: '2026-04-14T15:15:30Z'
  due_time: '2026-04-14T15:32:00Z'
  required_duration_s: 80
  required_sensor_type: visible
  weight: 4.0
- task_id: task_0127
  name: background_0290
  latitude_deg: 11.865926
  longitude_deg: 36.493832
  altitude_m: 0.0
  release_time: '2026-04-14T08:12:30Z'
  due_time: '2026-04-14T08:24:00Z'
  required_duration_s: 75
  required_sensor_type: visible
  weight: 2.0
- task_id: task_0128
  name: "Cuauht\xE9moc, MX"
  latitude_deg: 28.4063
  longitude_deg: -106.86667
  altitude_m: 0.0
  release_time: '2026-04-14T13:19:30Z'
  due_time: '2026-04-14T13:41:30Z'
  required_duration_s: 100
  required_sensor_type: visible
  weight: 5.0
- task_id: task_0129
  name: Nizhny Tagil, RU
  latitude_deg: 57.91944
  longitude_deg: 59.965
  altitude_m: 0.0
  release_time: '2026-04-14T09:25:00Z'
  due_time: '2026-04-14T10:01:00Z'
  required_duration_s: 45
  required_sensor_type: visible
  weight: 5.0
- task_id: task_0130
  name: background_0130
  latitude_deg: -2.085128
  longitude_deg: -55.896755
  altitude_m: 0.0
  release_time: '2026-04-14T13:24:00Z'
  due_time: '2026-04-14T13:55:00Z'
  required_duration_s: 60
  required_sensor_type: infrared
  weight: 1.5
- task_id: task_0131
  name: Bengbu, CN
  latitude_deg: 32.94083
  longitude_deg: 117.36083
  altitude_m: 0.0
  release_time: '2026-04-14T14:06:00Z'
  due_time: '2026-04-14T14:37:30Z'
  required_duration_s: 40
  required_sensor_type: visible
  weight: 4.0
- task_id: task_0132
  name: Kano, NG
  latitude_deg: 12.00012
  longitude_deg: 8.51672
  altitude_m: 0.0
  release_time: '2026-04-14T13:32:30Z'
  due_time: '2026-04-14T13:58:00Z'
  required_duration_s: 20
  required_sensor_type: infrared
  weight: 4.0
- task_id: task_0133
  name: background_0449
  latitude_deg: 40.10081
  longitude_deg: 86.721564
  altitude_m: 0.0
  release_time: '2026-04-14T10:32:30Z'
  due_time: '2026-04-14T11:04:00Z'
  required_duration_s: 90
  required_sensor_type: visible
  weight: 1.0
- task_id: task_0134
  name: background_0930
  latitude_deg: -2.350378
  longitude_deg: 33.84668
  altitude_m: 0.0
  release_time: '2026-04-14T08:16:30Z'
  due_time: '2026-04-14T08:43:00Z'
  required_duration_s: 30
  required_sensor_type: visible
  weight: 2.0
- task_id: task_0135
  name: background_0759
  latitude_deg: -78.658007
  longitude_deg: -129.397815
  altitude_m: 0.0
  release_time: '2026-04-14T15:46:00Z'
  due_time: '2026-04-14T16:17:00Z'
  required_duration_s: 30
  required_sensor_type: visible
  weight: 1.0
- task_id: task_0136
  name: background_0926
  latitude_deg: 42.10918
  longitude_deg: -87.763217
  altitude_m: 0.0
  release_time: '2026-04-14T15:13:30Z'
  due_time: '2026-04-14T16:00:00Z'
  required_duration_s: 90
  required_sensor_type: visible
  weight: 1.5
- task_id: task_0137
  name: background_0033
  latitude_deg: 55.475159
  longitude_deg: -118.867584
  altitude_m: 0.0
  release_time: '2026-04-14T14:52:00Z'
  due_time: '2026-04-14T15:13:30Z'
  required_duration_s: 60
  required_sensor_type: visible
  weight: 2.0
- task_id: task_0138
  name: background_0897
  latitude_deg: -7.370551
  longitude_deg: 140.986214
  altitude_m: 0.0
  release_time: '2026-04-14T12:46:00Z'
  due_time: '2026-04-14T13:37:00Z'
  required_duration_s: 50
  required_sensor_type: visible
  weight: 1.0
- task_id: task_0139
  name: "Maracana\xFA, BR"
  latitude_deg: -3.87667
  longitude_deg: -38.62556
  altitude_m: 0.0
  release_time: '2026-04-14T08:09:00Z'
  due_time: '2026-04-14T09:00:30Z'
  required_duration_s: 75
  required_sensor_type: visible
  weight: 4.0
- task_id: task_0140
  name: Jaipur, IN
  latitude_deg: 26.91962
  longitude_deg: 75.78781
  altitude_m: 0.0
  release_time: '2026-04-14T11:55:30Z'
  due_time: '2026-04-14T13:11:30Z'
  required_duration_s: 45
  required_sensor_type: visible
  weight: 3.0
- task_id: task_0141
  name: Gaza, PS
  latitude_deg: 31.50161
  longitude_deg: 34.46672
  altitude_m: 0.0
  release_time: '2026-04-14T13:50:30Z'
  due_time: '2026-04-14T14:22:00Z'
  required_duration_s: 30
  required_sensor_type: visible
  weight: 5.0
- task_id: task_0142
  name: background_0752
  latitude_deg: 6.175445
  longitude_deg: -69.20804
  altitude_m: 0.0
  release_time: '2026-04-14T13:57:30Z'
  due_time: '2026-04-14T14:28:30Z'
  required_duration_s: 20
  required_sensor_type: visible
  weight: 1.5
- task_id: task_0143
  name: background_0175
  latitude_deg: -25.586915
  longitude_deg: 142.553477
  altitude_m: 0.0
  release_time: '2026-04-14T12:10:30Z'
  due_time: '2026-04-14T13:11:30Z'
  required_duration_s: 50
  required_sensor_type: infrared
  weight: 1.0
- task_id: task_0144
  name: Joliet, US
  latitude_deg: 41.52519
  longitude_deg: -88.0834
  altitude_m: 0.0
  release_time: '2026-04-14T15:34:00Z'
  due_time: '2026-04-14T15:50:00Z'
  required_duration_s: 40
  required_sensor_type: visible
  weight: 4.0
- task_id: task_0145
  name: background_0573
  latitude_deg: 24.529732
  longitude_deg: 120.97327
  altitude_m: 0.0
  release_time: '2026-04-14T14:03:30Z'
  due_time: '2026-04-14T14:25:00Z'
  required_duration_s: 70
  required_sensor_type: visible
  weight: 1.5
- task_id: task_0146
  name: background_0655
  latitude_deg: -10.364109
  longitude_deg: 28.793285
  altitude_m: 0.0
  release_time: '2026-04-14T15:50:00Z'
  due_time: '2026-04-14T16:21:30Z'
  required_duration_s: 45
  required_sensor_type: visible
  weight: 1.5
- task_id: task_0147
  name: background_0692
  latitude_deg: 11.117812
  longitude_deg: 33.164851
  altitude_m: 0.0
  release_time: '2026-04-14T19:42:00Z'
  due_time: '2026-04-14T19:58:00Z'
  required_duration_s: 60
  required_sensor_type: visible
  weight: 2.0
- task_id: task_0148
  name: background_0015
  latitude_deg: -34.906485
  longitude_deg: -63.41339
  altitude_m: 0.0
  release_time: '2026-04-14T18:27:30Z'
  due_time: '2026-04-14T19:29:00Z'
  required_duration_s: 75
  required_sensor_type: visible
  weight: 2.0
- task_id: task_0149
  name: Huludao, CN
  latitude_deg: 40.75243
  longitude_deg: 120.83552
  altitude_m: 0.0
  release_time: '2026-04-14T13:43:00Z'
  due_time: '2026-04-14T14:10:00Z'
  required_duration_s: 70
  required_sensor_type: visible
  weight: 4.0
- task_id: task_0150
  name: background_0131
  latitude_deg: -74.505055
  longitude_deg: -124.587527
  altitude_m: 0.0
  release_time: '2026-04-14T16:20:30Z'
  due_time: '2026-04-14T17:37:00Z'
  required_duration_s: 40
  required_sensor_type: visible
  weight: 1.5
- task_id: task_0151
  name: Pembroke Pines, US
  latitude_deg: 26.00315
  longitude_deg: -80.22394
  altitude_m: 0.0
  release_time: '2026-04-14T11:35:30Z'
  due_time: '2026-04-14T12:07:00Z'
  required_duration_s: 60
  required_sensor_type: visible
  weight: 3.0
- task_id: task_0152
  name: background_0022
  latitude_deg: 18.952393
  longitude_deg: -100.189249
  altitude_m: 0.0
  release_time: '2026-04-14T16:25:30Z'
  due_time: '2026-04-14T17:56:30Z'
  required_duration_s: 40
  required_sensor_type: infrared
  weight: 2.0
- task_id: task_0153
  name: Aurora, US
  latitude_deg: 41.76058
  longitude_deg: -88.32007
  altitude_m: 0.0
  release_time: '2026-04-14T15:23:30Z'
  due_time: '2026-04-14T15:55:00Z'
  required_duration_s: 75
  required_sensor_type: visible
  weight: 5.0
- task_id: task_0154
  name: Chetumal, MX
  latitude_deg: 18.51957
  longitude_deg: -88.30397
  altitude_m: 0.0
  release_time: '2026-04-14T16:00:00Z'
  due_time: '2026-04-14T16:16:00Z'
  required_duration_s: 30
  required_sensor_type: visible
  weight: 3.0
- task_id: task_0155
  name: Mixco, GT
  latitude_deg: 14.63077
  longitude_deg: -90.60711
  altitude_m: 0.0
  release_time: '2026-04-14T16:16:30Z'
  due_time: '2026-04-14T16:37:30Z'
  required_duration_s: 60
  required_sensor_type: visible
  weight: 3.0
- task_id: task_0156
  name: Milan, IT
  latitude_deg: 45.46427
  longitude_deg: 9.18951
  altitude_m: 0.0
  release_time: '2026-04-14T09:47:30Z'
  due_time: '2026-04-14T10:23:30Z'
  required_duration_s: 50
  required_sensor_type: infrared
  weight: 3.0
- task_id: task_0157
  name: Albuquerque, US
  latitude_deg: 35.08449
  longitude_deg: -106.65114
  altitude_m: 0.0
  release_time: '2026-04-14T12:48:00Z'
  due_time: '2026-04-14T13:44:30Z'
  required_duration_s: 50
  required_sensor_type: visible
  weight: 3.0
- task_id: task_0158
  name: Milagro, EC
  latitude_deg: -2.13396
  longitude_deg: -79.59337
  altitude_m: 0.0
  release_time: '2026-04-14T15:41:30Z'
  due_time: '2026-04-14T16:08:00Z'
  required_duration_s: 20
  required_sensor_type: visible
  weight: 3.0
- task_id: task_0159
  name: background_1074
  latitude_deg: 24.2873
  longitude_deg: 99.93627
  altitude_m: 0.0
  release_time: '2026-04-14T15:19:00Z'
  due_time: '2026-04-14T15:46:00Z'
  required_duration_s: 45
  required_sensor_type: visible
  weight: 1.5
- task_id: task_0160
  name: Sofia, BG
  latitude_deg: 42.69751
  longitude_deg: 23.32415
  altitude_m: 0.0
  release_time: '2026-04-14T09:05:30Z'
  due_time: '2026-04-14T09:46:30Z'
  required_duration_s: 30
  required_sensor_type: visible
  weight: 4.0
- task_id: task_0161
  name: "San Juan del R\xEDo, MX"
  latitude_deg: 20.38897
  longitude_deg: -99.99637
  altitude_m: 0.0
  release_time: '2026-04-14T16:41:00Z'
  due_time: '2026-04-14T17:07:00Z'
  required_duration_s: 40
  required_sensor_type: visible
  weight: 3.0
- task_id: task_0162
  name: Chifeng, CN
  latitude_deg: 42.26833
  longitude_deg: 118.96361
  altitude_m: 0.0
  release_time: '2026-04-14T09:30:00Z'
  due_time: '2026-04-14T09:56:30Z'
  required_duration_s: 80
  required_sensor_type: visible
  weight: 4.0
- task_id: task_0163
  name: background_0459
  latitude_deg: 6.357112
  longitude_deg: 100.225709
  altitude_m: 0.0
  release_time: '2026-04-14T14:37:30Z'
  due_time: '2026-04-14T15:13:30Z'
  required_duration_s: 40
  required_sensor_type: visible
  weight: 1.5
- task_id: task_0164
  name: background_1087
  latitude_deg: 43.700557
  longitude_deg: 95.537751
  altitude_m: 0.0
  release_time: '2026-04-14T15:14:30Z'
  due_time: '2026-04-14T15:51:30Z'
  required_duration_s: 75
  required_sensor_type: visible
  weight: 1.0
- task_id: task_0165
  name: Bhubaneswar, IN
  latitude_deg: 20.27241
  longitude_deg: 85.83385
  altitude_m: 0.0
  release_time: '2026-04-14T16:08:00Z'
  due_time: '2026-04-14T16:33:30Z'
  required_duration_s: 20
  required_sensor_type: visible
  weight: 3.0
- task_id: task_0166
  name: background_0555
  latitude_deg: 54.407132
  longitude_deg: -7.208108
  altitude_m: 0.0
  release_time: '2026-04-14T11:04:00Z'
  due_time: '2026-04-14T11:44:30Z'
  required_duration_s: 30
  required_sensor_type: visible
  weight: 1.5
- task_id: task_0167
  name: Pekalongan, ID
  latitude_deg: -6.8886
  longitude_deg: 109.6753
  altitude_m: 0.0
  release_time: '2026-04-14T15:05:00Z'
  due_time: '2026-04-14T15:37:00Z'
  required_duration_s: 70
  required_sensor_type: visible
  weight: 3.0
- task_id: task_0168
  name: Providence, US
  latitude_deg: 41.82399
  longitude_deg: -71.41283
  altitude_m: 0.0
  release_time: '2026-04-14T15:45:30Z'
  due_time: '2026-04-14T16:42:00Z'
  required_duration_s: 70
  required_sensor_type: visible
  weight: 3.0
- task_id: task_0169
  name: background_0228
  latitude_deg: 36.315049
  longitude_deg: 70.664789
  altitude_m: 0.0
  release_time: '2026-04-14T16:58:30Z'
  due_time: '2026-04-14T17:30:00Z'
  required_duration_s: 80
  required_sensor_type: visible
  weight: 1.0
- task_id: task_0170
  name: background_0904
  latitude_deg: 64.861272
  longitude_deg: 84.457005
  altitude_m: 0.0
  release_time: '2026-04-14T15:20:30Z'
  due_time: '2026-04-14T16:02:30Z'
  required_duration_s: 80
  required_sensor_type: visible
  weight: 1.0
- task_id: task_0171
  name: Izhevsk, RU
  latitude_deg: 56.85225
  longitude_deg: 53.19862
  altitude_m: 0.0
  release_time: '2026-04-14T16:47:30Z'
  due_time: '2026-04-14T17:14:00Z'
  required_duration_s: 75
  required_sensor_type: visible
  weight: 4.0
- task_id: task_0172
  name: Abuja, NG
  latitude_deg: 9.05785
  longitude_deg: 7.49508
  altitude_m: 0.0
  release_time: '2026-04-14T12:51:30Z'
  due_time: '2026-04-14T14:12:30Z'
  required_duration_s: 20
  required_sensor_type: infrared
  weight: 3.0
- task_id: task_0173
  name: background_0474
  latitude_deg: 26.592313
  longitude_deg: 108.767477
  altitude_m: 0.0
  release_time: '2026-04-14T09:04:00Z'
  due_time: '2026-04-14T09:39:30Z'
  required_duration_s: 20
  required_sensor_type: visible
  weight: 2.0
- task_id: task_0174
  name: Marrakesh, MA
  latitude_deg: 31.63416
  longitude_deg: -7.99994
  altitude_m: 0.0
  release_time: '2026-04-14T14:14:30Z'
  due_time: '2026-04-14T14:35:30Z'
  required_duration_s: 45
  required_sensor_type: visible
  weight: 3.0
- task_id: task_0175
  name: background_0016
  latitude_deg: -24.070184
  longitude_deg: -54.293742
  altitude_m: 0.0
  release_time: '2026-04-14T12:49:30Z'
  due_time: '2026-04-14T14:10:00Z'
  required_duration_s: 20
  required_sensor_type: infrared
  weight: 1.5
- task_id: task_0176
  name: Jiamusi, CN
  latitude_deg: 46.79711
  longitude_deg: 130.31118
  altitude_m: 0.0
  release_time: '2026-04-14T11:44:30Z'
  due_time: '2026-04-14T12:55:30Z'
  required_duration_s: 45
  required_sensor_type: visible
  weight: 4.0
- task_id: task_0177
  name: background_0838
  latitude_deg: 39.840133
  longitude_deg: 63.614197
  altitude_m: 0.0
  release_time: '2026-04-14T09:05:00Z'
  due_time: '2026-04-14T09:51:30Z'
  required_duration_s: 20
  required_sensor_type: visible
  weight: 2.0
- task_id: task_0178
  name: "Mogi Gua\xE7u, BR"
  latitude_deg: -22.3677
  longitude_deg: -46.94552
  altitude_m: 0.0
  release_time: '2026-04-14T13:18:30Z'
  due_time: '2026-04-14T13:45:00Z'
  required_duration_s: 50
  required_sensor_type: visible
  weight: 3.0
- task_id: task_0179
  name: Rabat, MA
  latitude_deg: 34.01325
  longitude_deg: -6.83255
  altitude_m: 0.0
  release_time: '2026-04-14T17:37:30Z'
  due_time: '2026-04-14T18:13:30Z'
  required_duration_s: 40
  required_sensor_type: visible
  weight: 4.0
- task_id: task_0180
  name: Hong Kong, HK
  latitude_deg: 22.27832
  longitude_deg: 114.17469
  altitude_m: 0.0
  release_time: '2026-04-14T14:23:30Z'
  due_time: '2026-04-14T15:19:30Z'
  required_duration_s: 45
  required_sensor_type: infrared
  weight: 5.0
- task_id: task_0181
  name: Huntsville, US
  latitude_deg: 34.7304
  longitude_deg: -86.58594
  altitude_m: 0.0
  release_time: '2026-04-14T15:56:00Z'
  due_time: '2026-04-14T16:46:30Z'
  required_duration_s: 20
  required_sensor_type: visible
  weight: 4.0
- task_id: task_0182
  name: background_0087
  latitude_deg: -30.828532
  longitude_deg: 152.029522
  altitude_m: 0.0
  release_time: '2026-04-14T12:34:30Z'
  due_time: '2026-04-14T13:00:30Z'
  required_duration_s: 40
  required_sensor_type: infrared
  weight: 1.0
- task_id: task_0183
  name: background_0235
  latitude_deg: 9.915681
  longitude_deg: 10.448503
  altitude_m: 0.0
  release_time: '2026-04-14T08:56:30Z'
  due_time: '2026-04-14T09:52:30Z'
  required_duration_s: 60
  required_sensor_type: visible
  weight: 1.0
- task_id: task_0184
  name: background_0629
  latitude_deg: 71.707288
  longitude_deg: 80.103448
  altitude_m: 0.0
  release_time: '2026-04-14T11:23:00Z'
  due_time: '2026-04-14T11:39:30Z'
  required_duration_s: 80
  required_sensor_type: visible
  weight: 1.0
- task_id: task_0185
  name: background_0730
  latitude_deg: 22.040025
  longitude_deg: 52.013511
  altitude_m: 0.0
  release_time: '2026-04-14T18:40:00Z'
  due_time: '2026-04-14T19:01:30Z'
  required_duration_s: 30
  required_sensor_type: visible
  weight: 2.0
- task_id: task_0186
  name: McKinney, US
  latitude_deg: 33.19762
  longitude_deg: -96.61527
  altitude_m: 0.0
  release_time: '2026-04-14T09:54:00Z'
  due_time: '2026-04-14T10:40:00Z'
  required_duration_s: 20
  required_sensor_type: visible
  weight: 3.0
- task_id: task_0187
  name: background_0751
  latitude_deg: 68.886756
  longitude_deg: -155.938962
  altitude_m: 0.0
  release_time: '2026-04-14T18:02:30Z'
  due_time: '2026-04-14T18:24:00Z'
  required_duration_s: 40
  required_sensor_type: visible
  weight: 1.0
- task_id: task_0188
  name: background_0044
  latitude_deg: -27.13548
  longitude_deg: -62.355729
  altitude_m: 0.0
  release_time: '2026-04-14T13:06:00Z'
  due_time: '2026-04-14T14:27:00Z'
  required_duration_s: 60
  required_sensor_type: infrared
  weight: 2.0
- task_id: task_0189
  name: background_0258
  latitude_deg: 62.226768
  longitude_deg: 54.317537
  altitude_m: 0.0
  release_time: '2026-04-14T15:59:30Z'
  due_time: '2026-04-14T16:30:30Z'
  required_duration_s: 45
  required_sensor_type: visible
  weight: 1.0
- task_id: task_0190
  name: Choloma, HN
  latitude_deg: 15.61444
  longitude_deg: -87.95302
  altitude_m: 0.0
  release_time: '2026-04-14T11:38:30Z'
  due_time: '2026-04-14T12:15:00Z'
  required_duration_s: 75
  required_sensor_type: visible
  weight: 3.0
- task_id: task_0191
  name: Hulunbuir, CN
  latitude_deg: 49.21141
  longitude_deg: 119.75582
  altitude_m: 0.0
  release_time: '2026-04-14T13:06:30Z'
  due_time: '2026-04-14T14:17:30Z'
  required_duration_s: 60
  required_sensor_type: visible
  weight: 4.0
- task_id: task_0192
  name: background_0492
  latitude_deg: 34.307519
  longitude_deg: -116.977791
  altitude_m: 0.0
  release_time: '2026-04-14T17:12:30Z'
  due_time: '2026-04-14T17:43:30Z'
  required_duration_s: 20
  required_sensor_type: visible
  weight: 2.0
- task_id: task_0193
  name: background_0029
  latitude_deg: 53.855403
  longitude_deg: 31.596573
  altitude_m: 0.0
  release_time: '2026-04-14T09:09:30Z'
  due_time: '2026-04-14T09:31:00Z'
  required_duration_s: 40
  required_sensor_type: visible
  weight: 1.0
- task_id: task_0194
  name: Enugu, NG
  latitude_deg: 6.44132
  longitude_deg: 7.49883
  altitude_m: 0.0
  release_time: '2026-04-14T08:28:00Z'
  due_time: '2026-04-14T09:29:00Z'
  required_duration_s: 45
  required_sensor_type: visible
  weight: 3.0
- task_id: task_0195
  name: Tiruppur, IN
  latitude_deg: 11.11541
  longitude_deg: 77.35456
  altitude_m: 0.0
  release_time: '2026-04-14T16:17:30Z'
  due_time: '2026-04-14T16:58:00Z'
  required_duration_s: 30
  required_sensor_type: visible
  weight: 4.0
- task_id: task_0196
  name: background_0501
  latitude_deg: 32.97741
  longitude_deg: 61.295595
  altitude_m: 0.0
  release_time: '2026-04-14T12:22:30Z'
  due_time: '2026-04-14T12:38:30Z'
  required_duration_s: 40
  required_sensor_type: visible
  weight: 2.0
- task_id: task_0197
  name: Szczecin, PL
  latitude_deg: 53.42894
  longitude_deg: 14.55302
  altitude_m: 0.0
  release_time: '2026-04-14T15:27:00Z'
  due_time: '2026-04-14T15:53:30Z'
  required_duration_s: 60
  required_sensor_type: visible
  weight: 4.0
- task_id: task_0198
  name: Winston-Salem, US
  latitude_deg: 36.09986
  longitude_deg: -80.24422
  altitude_m: 0.0
  release_time: '2026-04-14T15:42:30Z'
  due_time: '2026-04-14T16:14:00Z'
  required_duration_s: 60
  required_sensor_type: visible
  weight: 3.0
- task_id: task_0199
  name: background_0252
  latitude_deg: 26.237924
  longitude_deg: 78.515875
  altitude_m: 0.0
  release_time: '2026-04-14T16:32:00Z'
  due_time: '2026-04-14T17:43:00Z'
  required_duration_s: 30
  required_sensor_type: visible
  weight: 1.0
- task_id: task_0200
  name: background_1081
  latitude_deg: -74.335281
  longitude_deg: 108.977052
  altitude_m: 0.0
  release_time: '2026-04-14T18:01:30Z'
  due_time: '2026-04-14T18:43:00Z'
  required_duration_s: 20
  required_sensor_type: visible
  weight: 1.5
- task_id: task_0201
  name: Eslamshahr, IR
  latitude_deg: 35.55222
  longitude_deg: 51.23504
  altitude_m: 0.0
  release_time: '2026-04-14T18:08:30Z'
  due_time: '2026-04-14T18:20:00Z'
  required_duration_s: 70
  required_sensor_type: visible
  weight: 5.0
- task_id: task_0202
  name: background_0130
  latitude_deg: 12.002038
  longitude_deg: -4.609918
  altitude_m: 0.0
  release_time: '2026-04-14T09:29:30Z'
  due_time: '2026-04-14T10:50:30Z'
  required_duration_s: 60
  required_sensor_type: visible
  weight: 1.0
- task_id: task_0203
  name: Huaibei, CN
  latitude_deg: 33.97444
  longitude_deg: 116.79167
  altitude_m: 0.0
  release_time: '2026-04-14T13:26:00Z'
  due_time: '2026-04-14T14:37:00Z'
  required_duration_s: 45
  required_sensor_type: visible
  weight: 3.0
- task_id: task_0204
  name: Stockton, US
  latitude_deg: 37.9577
  longitude_deg: -121.29078
  altitude_m: 0.0
  release_time: '2026-04-14T18:50:30Z'
  due_time: '2026-04-14T19:26:00Z'
  required_duration_s: 20
  required_sensor_type: visible
  weight: 3.0
- task_id: task_0205
  name: background_0821
  latitude_deg: -82.257551
  longitude_deg: -97.891116
  altitude_m: 0.0
  release_time: '2026-04-14T16:06:30Z'
  due_time: '2026-04-14T16:37:30Z'
  required_duration_s: 40
  required_sensor_type: visible
  weight: 1.0
- task_id: task_0206
  name: background_0966
  latitude_deg: -44.885399
  longitude_deg: -72.26932
  altitude_m: 0.0
  release_time: '2026-04-14T14:34:30Z'
  due_time: '2026-04-14T14:56:30Z'
  required_duration_s: 50
  required_sensor_type: visible
  weight: 1.5
- task_id: task_0207
  name: Tangerang, ID
  latitude_deg: -6.17806
  longitude_deg: 106.63
  altitude_m: 0.0
  release_time: '2026-04-14T10:56:00Z'
  due_time: '2026-04-14T11:17:30Z'
  required_duration_s: 80
  required_sensor_type: visible
  weight: 5.0
- task_id: task_0208
  name: Phoenix, US
  latitude_deg: 33.44838
  longitude_deg: -112.07404
  altitude_m: 0.0
  release_time: '2026-04-14T18:21:30Z'
  due_time: '2026-04-14T18:37:00Z'
  required_duration_s: 30
  required_sensor_type: infrared
  weight: 5.0
- task_id: task_0209
  name: Vilnius, LT
  latitude_deg: 54.68916
  longitude_deg: 25.2798
  altitude_m: 0.0
  release_time: '2026-04-14T08:15:00Z'
  due_time: '2026-04-14T09:31:00Z'
  required_duration_s: 50
  required_sensor_type: visible
  weight: 5.0
- task_id: task_0210
  name: Orlando, US
  latitude_deg: 28.53834
  longitude_deg: -81.37924
  altitude_m: 0.0
  release_time: '2026-04-14T15:57:00Z'
  due_time: '2026-04-14T17:08:00Z'
  required_duration_s: 60
  required_sensor_type: visible
  weight: 5.0
- task_id: task_0211
  name: background_0077
  latitude_deg: -12.886827
  longitude_deg: -66.276419
  altitude_m: 0.0
  release_time: '2026-04-14T14:16:00Z'
  due_time: '2026-04-14T14:42:00Z'
  required_duration_s: 50
  required_sensor_type: visible
  weight: 2.0
- task_id: task_0212
  name: Mianyang, CN
  latitude_deg: 31.46784
  longitude_deg: 104.68168
  altitude_m: 0.0
  release_time: '2026-04-14T14:23:00Z'
  due_time: '2026-04-14T14:54:00Z'
  required_duration_s: 45
  required_sensor_type: infrared
  weight: 3.0
- task_id: task_0213
  name: background_0422
  latitude_deg: 66.200499
  longitude_deg: -115.673408
  altitude_m: 0.0
  release_time: '2026-04-14T14:54:00Z'
  due_time: '2026-04-14T15:10:30Z'
  required_duration_s: 70
  required_sensor_type: visible
  weight: 1.0
- task_id: task_0214
  name: background_0520
  latitude_deg: 27.120968
  longitude_deg: 31.253978
  altitude_m: 0.0
  release_time: '2026-04-14T19:12:30Z'
  due_time: '2026-04-14T19:38:30Z'
  required_duration_s: 30
  required_sensor_type: visible
  weight: 1.0
- task_id: task_0215
  name: background_0831
  latitude_deg: 25.189979
  longitude_deg: -4.082124
  altitude_m: 0.0
  release_time: '2026-04-14T10:23:30Z'
  due_time: '2026-04-14T11:25:00Z'
  required_duration_s: 80
  required_sensor_type: visible
  weight: 1.5
- task_id: task_0216
  name: Staten Island, US
  latitude_deg: 40.56233
  longitude_deg: -74.13986
  altitude_m: 0.0
  release_time: '2026-04-14T15:02:00Z'
  due_time: '2026-04-14T15:33:00Z'
  required_duration_s: 20
  required_sensor_type: visible
  weight: 3.0
- task_id: task_0217
  name: background_0775
  latitude_deg: 37.653836
  longitude_deg: -82.08039
  altitude_m: 0.0
  release_time: '2026-04-14T16:04:30Z'
  due_time: '2026-04-14T16:31:00Z'
  required_duration_s: 80
  required_sensor_type: visible
  weight: 1.0
- task_id: task_0218
  name: "Car\xFApano, VE"
  latitude_deg: 10.66516
  longitude_deg: -63.25387
  altitude_m: 0.0
  release_time: '2026-04-14T14:48:00Z'
  due_time: '2026-04-14T15:09:30Z'
  required_duration_s: 45
  required_sensor_type: visible
  weight: 3.0
- task_id: task_0219
  name: background_0574
  latitude_deg: 60.09137
  longitude_deg: 153.271176
  altitude_m: 0.0
  release_time: '2026-04-14T10:26:00Z'
  due_time: '2026-04-14T12:07:30Z'
  required_duration_s: 50
  required_sensor_type: visible
  weight: 1.5
- task_id: task_0220
  name: Pingdu, CN
  latitude_deg: 36.78444
  longitude_deg: 119.94639
  altitude_m: 0.0
  release_time: '2026-04-14T13:32:00Z'
  due_time: '2026-04-14T13:58:30Z'
  required_duration_s: 45
  required_sensor_type: visible
  weight: 4.0
- task_id: task_0221
  name: Barinas, VE
  latitude_deg: 8.62064
  longitude_deg: -70.23105
  altitude_m: 0.0
  release_time: '2026-04-14T15:09:30Z'
  due_time: '2026-04-14T15:40:30Z'
  required_duration_s: 40
  required_sensor_type: infrared
  weight: 3.0
- task_id: task_0222
  name: background_0370
  latitude_deg: 71.826113
  longitude_deg: -110.48535
  altitude_m: 0.0
  release_time: '2026-04-14T16:09:00Z'
  due_time: '2026-04-14T16:35:30Z'
  required_duration_s: 80
  required_sensor_type: visible
  weight: 1.0
- task_id: task_0223
  name: background_0846
  latitude_deg: -19.339956
  longitude_deg: 121.965794
  altitude_m: 0.0
  release_time: '2026-04-14T13:26:30Z'
  due_time: '2026-04-14T13:37:30Z'
  required_duration_s: 20
  required_sensor_type: visible
  weight: 2.0
- task_id: task_0224
  name: Loja, EC
  latitude_deg: -3.99313
  longitude_deg: -79.20422
  altitude_m: 0.0
  release_time: '2026-04-14T14:18:30Z'
  due_time: '2026-04-14T15:29:00Z'
  required_duration_s: 30
  required_sensor_type: visible
  weight: 3.0
- task_id: task_0225
  name: background_0778
  latitude_deg: 13.727978
  longitude_deg: 8.780508
  altitude_m: 0.0
  release_time: '2026-04-14T09:41:00Z'
  due_time: '2026-04-14T10:07:30Z'
  required_duration_s: 75
  required_sensor_type: visible
  weight: 1.0
- task_id: task_0226
  name: background_0391
  latitude_deg: -6.555373
  longitude_deg: 155.409425
  altitude_m: 0.0
  release_time: '2026-04-14T10:59:30Z'
  due_time: '2026-04-14T13:00:30Z'
  required_duration_s: 20
  required_sensor_type: visible
  weight: 1.0
- task_id: task_0227
  name: background_0718
  latitude_deg: 54.027662
  longitude_deg: 156.888353
  altitude_m: 0.0
  release_time: '2026-04-14T16:07:00Z'
  due_time: '2026-04-14T16:43:00Z'
  required_duration_s: 60
  required_sensor_type: visible
  weight: 1.0
- task_id: task_0228
  name: Valle de La Pascua, VE
  latitude_deg: 9.21554
  longitude_deg: -66.00734
  altitude_m: 0.0
  release_time: '2026-04-14T14:43:30Z'
  due_time: '2026-04-14T15:15:00Z'
  required_duration_s: 20
  required_sensor_type: visible
  weight: 4.0
- task_id: task_0229
  name: Dazhou, CN
  latitude_deg: 31.2106
  longitude_deg: 107.46308
  altitude_m: 0.0
  release_time: '2026-04-14T09:12:30Z'
  due_time: '2026-04-14T09:39:00Z'
  required_duration_s: 90
  required_sensor_type: visible
  weight: 5.0
- task_id: task_0230
  name: background_0806
  latitude_deg: -25.281902
  longitude_deg: -50.345634
  altitude_m: 0.0
  release_time: '2026-04-14T10:09:00Z'
  due_time: '2026-04-14T10:20:30Z'
  required_duration_s: 45
  required_sensor_type: visible
  weight: 1.5
- task_id: task_0231
  name: Chincha Alta, PE
  latitude_deg: -13.40985
  longitude_deg: -76.13235
  altitude_m: 0.0
  release_time: '2026-04-14T13:48:00Z'
  due_time: '2026-04-14T14:59:30Z'
  required_duration_s: 40
  required_sensor_type: visible
  weight: 4.0
- task_id: task_0232
  name: Qingyuan, CN
  latitude_deg: 23.7
  longitude_deg: 113.03333
  altitude_m: 0.0
  release_time: '2026-04-14T13:20:30Z'
  due_time: '2026-04-14T13:41:30Z'
  required_duration_s: 40
  required_sensor_type: visible
  weight: 4.0
- task_id: task_0233
  name: background_0101
  latitude_deg: 23.083433
  longitude_deg: -105.397903
  altitude_m: 0.0
  release_time: '2026-04-14T17:41:30Z'
  due_time: '2026-04-14T18:08:30Z'
  required_duration_s: 70
  required_sensor_type: visible
  weight: 2.0
- task_id: task_0234
  name: background_0630
  latitude_deg: 56.240092
  longitude_deg: 25.427933
  altitude_m: 0.0
  release_time: '2026-04-14T18:29:00Z'
  due_time: '2026-04-14T19:45:30Z'
  required_duration_s: 70
  required_sensor_type: visible
  weight: 1.5
- task_id: task_0235
  name: Kozhikode, IN
  latitude_deg: 11.24802
  longitude_deg: 75.7804
  altitude_m: 0.0
  release_time: '2026-04-14T16:32:30Z'
  due_time: '2026-04-14T16:48:30Z'
  required_duration_s: 50
  required_sensor_type: visible
  weight: 5.0
- task_id: task_0236
  name: Srinagar, IN
  latitude_deg: 34.08565
  longitude_deg: 74.80555
  altitude_m: 0.0
  release_time: '2026-04-14T09:03:00Z'
  due_time: '2026-04-14T09:28:30Z'
  required_duration_s: 30
  required_sensor_type: infrared
  weight: 3.0
- task_id: task_0237
  name: Luanda, AO
  latitude_deg: -8.83682
  longitude_deg: 13.23432
  altitude_m: 0.0
  release_time: '2026-04-14T09:17:00Z'
  due_time: '2026-04-14T09:39:00Z'
  required_duration_s: 50
  required_sensor_type: visible
  weight: 5.0
- task_id: task_0238
  name: Osasco, BR
  latitude_deg: -23.5325
  longitude_deg: -46.79167
  altitude_m: 0.0
  release_time: '2026-04-14T12:54:00Z'
  due_time: '2026-04-14T13:40:30Z'
  required_duration_s: 70
  required_sensor_type: visible
  weight: 4.0
- task_id: task_0239
  name: background_0214
  latitude_deg: 46.731177
  longitude_deg: -74.932913
  altitude_m: 0.0
  release_time: '2026-04-14T15:39:30Z'
  due_time: '2026-04-14T16:16:00Z'
  required_duration_s: 80
  required_sensor_type: visible
  weight: 2.0
- task_id: task_0240
  name: background_1107
  latitude_deg: 32.674021
  longitude_deg: 71.40083
  altitude_m: 0.0
  release_time: '2026-04-14T12:52:00Z'
  due_time: '2026-04-14T13:03:30Z'
  required_duration_s: 90
  required_sensor_type: visible
  weight: 1.5
- task_id: task_0241
  name: "Ara\xE7atuba, BR"
  latitude_deg: -21.20889
  longitude_deg: -50.43278
  altitude_m: 0.0
  release_time: '2026-04-14T18:38:00Z'
  due_time: '2026-04-14T19:49:00Z'
  required_duration_s: 60
  required_sensor_type: visible
  weight: 4.0
- task_id: task_0242
  name: San Salvador, SV
  latitude_deg: 13.68935
  longitude_deg: -89.18718
  altitude_m: 0.0
  release_time: '2026-04-14T15:51:00Z'
  due_time: '2026-04-14T16:32:00Z'
  required_duration_s: 40
  required_sensor_type: visible
  weight: 4.0
- task_id: task_0243
  name: background_0833
  latitude_deg: 39.30197
  longitude_deg: 79.464968
  altitude_m: 0.0
  release_time: '2026-04-14T15:58:00Z'
  due_time: '2026-04-14T17:19:00Z'
  required_duration_s: 45
  required_sensor_type: visible
  weight: 2.0
- task_id: task_0244
  name: Makhachkala, RU
  latitude_deg: 42.97782
  longitude_deg: 47.50027
  altitude_m: 0.0
  release_time: '2026-04-14T17:55:30Z'
  due_time: '2026-04-14T19:37:30Z'
  required_duration_s: 120
  required_sensor_type: visible
  weight: 5.0
- task_id: task_0245
  name: background_0366
  latitude_deg: 38.437397
  longitude_deg: 23.52466
  altitude_m: 0.0
  release_time: '2026-04-14T15:58:30Z'
  due_time: '2026-04-14T16:39:30Z'
  required_duration_s: 40
  required_sensor_type: visible
  weight: 2.0
- task_id: task_0246
  name: background_0400
  latitude_deg: 36.63183
  longitude_deg: 34.18043
  altitude_m: 0.0
  release_time: '2026-04-14T13:59:00Z'
  due_time: '2026-04-14T14:30:30Z'
  required_duration_s: 45
  required_sensor_type: visible
  weight: 2.0
- task_id: task_0247
  name: background_0002
  latitude_deg: -75.642331
  longitude_deg: 86.253449
  altitude_m: 0.0
  release_time: '2026-04-14T17:57:30Z'
  due_time: '2026-04-14T18:23:00Z'
  required_duration_s: 30
  required_sensor_type: infrared
  weight: 1.0
- task_id: task_0248
  name: Lima, PE
  latitude_deg: -12.04318
  longitude_deg: -77.02824
  altitude_m: 0.0
  release_time: '2026-04-14T13:57:30Z'
  due_time: '2026-04-14T14:34:00Z'
  required_duration_s: 40
  required_sensor_type: visible
  weight: 4.0
- task_id: task_0249
  name: Jakarta, ID
  latitude_deg: -6.21462
  longitude_deg: 106.84513
  altitude_m: 0.0
  release_time: '2026-04-14T15:15:30Z'
  due_time: '2026-04-14T15:37:30Z'
  required_duration_s: 75
  required_sensor_type: visible
  weight: 5.0
- task_id: task_0250
  name: background_0628
  latitude_deg: 11.653319
  longitude_deg: 18.419963
  altitude_m: 0.0
  release_time: '2026-04-14T09:21:30Z'
  due_time: '2026-04-14T09:33:00Z'
  required_duration_s: 75
  required_sensor_type: visible
  weight: 1.5
- task_id: task_0251
  name: background_0783
  latitude_deg: -79.855742
  longitude_deg: 60.020539
  altitude_m: 0.0
  release_time: '2026-04-14T12:12:00Z'
  due_time: '2026-04-14T12:32:30Z'
  required_duration_s: 20
  required_sensor_type: visible
  weight: 1.5
- task_id: task_0252
  name: background_0944
  latitude_deg: 65.379678
  longitude_deg: 19.831402
  altitude_m: 0.0
  release_time: '2026-04-14T15:24:00Z'
  due_time: '2026-04-14T16:00:00Z'
  required_duration_s: 60
  required_sensor_type: visible
  weight: 1.0
- task_id: task_0253
  name: Banjarmasin, ID
  latitude_deg: -3.31987
  longitude_deg: 114.59075
  altitude_m: 0.0
  release_time: '2026-04-14T14:46:00Z'
  due_time: '2026-04-14T15:02:00Z'
  required_duration_s: 20
  required_sensor_type: visible
  weight: 4.0
- task_id: task_0254
  name: Bayamo, CU
  latitude_deg: 20.37368
  longitude_deg: -76.64272
  altitude_m: 0.0
  release_time: '2026-04-14T19:02:30Z'
  due_time: '2026-04-14T19:24:00Z'
  required_duration_s: 75
  required_sensor_type: visible
  weight: 5.0
- task_id: task_0255
  name: Dushanbe, TJ
  latitude_deg: 38.53575
  longitude_deg: 68.77905
  altitude_m: 0.0
  release_time: '2026-04-14T16:14:00Z'
  due_time: '2026-04-14T17:45:30Z'
  required_duration_s: 75
  required_sensor_type: visible
  weight: 4.0
- task_id: task_0256
  name: background_0848
  latitude_deg: -5.296005
  longitude_deg: -42.40782
  altitude_m: 0.0
  release_time: '2026-04-14T08:34:30Z'
  due_time: '2026-04-14T09:01:00Z'
  required_duration_s: 75
  required_sensor_type: visible
  weight: 1.5
- task_id: task_0257
  name: Guadalajara, MX
  latitude_deg: 20.67738
  longitude_deg: -103.34749
  altitude_m: 0.0
  release_time: '2026-04-14T16:35:30Z'
  due_time: '2026-04-14T17:16:00Z'
  required_duration_s: 30
  required_sensor_type: infrared
  weight: 3.0
- task_id: task_0258
  name: background_1046
  latitude_deg: 2.973599
  longitude_deg: -65.021364
  altitude_m: 0.0
  release_time: '2026-04-14T10:12:00Z'
  due_time: '2026-04-14T10:29:00Z'
  required_duration_s: 60
  required_sensor_type: visible
  weight: 2.0
- task_id: task_0259
  name: "\u0130zmir, TR"
  latitude_deg: 38.41273
  longitude_deg: 27.13838
  altitude_m: 0.0
  release_time: '2026-04-14T19:34:00Z'
  due_time: '2026-04-14T20:00:00Z'
  required_duration_s: 45
  required_sensor_type: infrared
  weight: 3.0
- task_id: task_0260
  name: Barquisimeto, VE
  latitude_deg: 10.0647
  longitude_deg: -69.35703
  altitude_m: 0.0
  release_time: '2026-04-14T14:59:00Z'
  due_time: '2026-04-14T15:40:00Z'
  required_duration_s: 30
  required_sensor_type: infrared
  weight: 4.0
- task_id: task_0261
  name: Guiyang, CN
  latitude_deg: 26.58333
  longitude_deg: 106.71667
  altitude_m: 0.0
  release_time: '2026-04-14T13:56:30Z'
  due_time: '2026-04-14T15:07:30Z'
  required_duration_s: 50
  required_sensor_type: infrared
  weight: 5.0
- task_id: task_0262
  name: Manchester, GB
  latitude_deg: 53.48095
  longitude_deg: -2.23743
  altitude_m: 0.0
  release_time: '2026-04-14T11:08:30Z'
  due_time: '2026-04-14T12:05:00Z'
  required_duration_s: 90
  required_sensor_type: visible
  weight: 4.0
- task_id: task_0263
  name: Vinnytsya, UA
  latitude_deg: 49.2322
  longitude_deg: 28.46871
  altitude_m: 0.0
  release_time: '2026-04-14T18:32:00Z'
  due_time: '2026-04-14T18:53:30Z'
  required_duration_s: 75
  required_sensor_type: visible
  weight: 4.0
- task_id: task_0264
  name: Baoding, CN
  latitude_deg: 38.87288
  longitude_deg: 115.46246
  altitude_m: 0.0
  release_time: '2026-04-14T14:12:30Z'
  due_time: '2026-04-14T14:39:00Z'
  required_duration_s: 30
  required_sensor_type: visible
  weight: 4.0
- task_id: task_0265
  name: Phnom Penh, KH
  latitude_deg: 11.56245
  longitude_deg: 104.91601
  altitude_m: 0.0
  release_time: '2026-04-14T09:03:00Z'
  due_time: '2026-04-14T09:39:00Z'
  required_duration_s: 60
  required_sensor_type: visible
  weight: 3.0
- task_id: task_0266
  name: Banan, CN
  latitude_deg: 29.37861
  longitude_deg: 106.54
  altitude_m: 0.0
  release_time: '2026-04-14T13:48:00Z'
  due_time: '2026-04-14T14:28:30Z'
  required_duration_s: 30
  required_sensor_type: visible
  weight: 5.0
- task_id: task_0267
  name: background_0065
  latitude_deg: -30.81717
  longitude_deg: 117.564542
  altitude_m: 0.0
  release_time: '2026-04-14T14:19:30Z'
  due_time: '2026-04-14T14:51:00Z'
  required_duration_s: 70
  required_sensor_type: visible
  weight: 1.5
- task_id: task_0268
  name: "Matur\xEDn, VE"
  latitude_deg: 9.74569
  longitude_deg: -63.18323
  altitude_m: 0.0
  release_time: '2026-04-14T14:43:30Z'
  due_time: '2026-04-14T15:05:00Z'
  required_duration_s: 70
  required_sensor_type: visible
  weight: 3.0
- task_id: task_0269
  name: background_0197
  latitude_deg: 60.092542
  longitude_deg: 91.614355
  altitude_m: 0.0
  release_time: '2026-04-14T14:45:00Z'
  due_time: '2026-04-14T15:16:30Z'
  required_duration_s: 75
  required_sensor_type: visible
  weight: 1.5
- task_id: task_0270
  name: Tehran, IR
  latitude_deg: 35.69439
  longitude_deg: 51.42151
  altitude_m: 0.0
  release_time: '2026-04-14T18:49:00Z'
  due_time: '2026-04-14T19:10:00Z'
  required_duration_s: 20
  required_sensor_type: visible
  weight: 5.0
- task_id: task_0271
  name: background_0364
  latitude_deg: -1.317144
  longitude_deg: 101.240814
  altitude_m: 0.0
  release_time: '2026-04-14T15:25:00Z'
  due_time: '2026-04-14T15:56:30Z'
  required_duration_s: 90
  required_sensor_type: visible
  weight: 1.0
- task_id: task_0272
  name: Jutiapa, GT
  latitude_deg: 14.28491
  longitude_deg: -89.88798
  altitude_m: 0.0
  release_time: '2026-04-14T08:11:30Z'
  due_time: '2026-04-14T09:03:00Z'
  required_duration_s: 90
  required_sensor_type: visible
  weight: 4.0
- task_id: task_0273
  name: background_0970
  latitude_deg: 64.280056
  longitude_deg: 87.385759
  altitude_m: 0.0
  release_time: '2026-04-14T10:56:00Z'
  due_time: '2026-04-14T12:07:30Z'
  required_duration_s: 80
  required_sensor_type: visible
  weight: 2.0
- task_id: task_0274
  name: background_0389
  latitude_deg: -6.799475
  longitude_deg: -68.877634
  altitude_m: 0.0
  release_time: '2026-04-14T14:38:00Z'
  due_time: '2026-04-14T15:19:30Z'
  required_duration_s: 75
  required_sensor_type: visible
  weight: 1.0
- task_id: task_0275
  name: Port Saint Lucie, US
  latitude_deg: 27.29393
  longitude_deg: -80.35033
  altitude_m: 0.0
  release_time: '2026-04-14T15:35:00Z'
  due_time: '2026-04-14T16:26:30Z'
  required_duration_s: 90
  required_sensor_type: visible
  weight: 3.0
- task_id: task_0276
  name: Seoul, KR
  latitude_deg: 37.566
  longitude_deg: 126.9784
  altitude_m: 0.0
  release_time: '2026-04-14T13:08:30Z'
  due_time: '2026-04-14T13:30:00Z'
  required_duration_s: 80
  required_sensor_type: visible
  weight: 3.0
- task_id: task_0277
  name: background_0066
  latitude_deg: 24.192778
  longitude_deg: 92.257633
  altitude_m: 0.0
  release_time: '2026-04-14T16:08:30Z'
  due_time: '2026-04-14T16:39:00Z'
  required_duration_s: 20
  required_sensor_type: infrared
  weight: 2.0
- task_id: task_0278
  name: background_0733
  latitude_deg: 51.013798
  longitude_deg: 81.060479
  altitude_m: 0.0
  release_time: '2026-04-14T15:09:30Z'
  due_time: '2026-04-14T15:41:00Z'
  required_duration_s: 45
  required_sensor_type: visible
  weight: 1.5
- task_id: task_0279
  name: background_0002
  latitude_deg: 38.204273
  longitude_deg: 78.388499
  altitude_m: 0.0
  release_time: '2026-04-14T16:16:00Z'
  due_time: '2026-04-14T17:47:00Z'
  required_duration_s: 60
  required_sensor_type: visible
  weight: 1.5
- task_id: task_0280
  name: background_0994
  latitude_deg: 66.905149
  longitude_deg: 155.025275
  altitude_m: 0.0
  release_time: '2026-04-14T10:48:00Z'
  due_time: '2026-04-14T11:14:00Z'
  required_duration_s: 45
  required_sensor_type: visible
  weight: 1.0
- task_id: task_0281
  name: background_0810
  latitude_deg: 61.233101
  longitude_deg: -161.204689
  altitude_m: 0.0
  release_time: '2026-04-14T18:00:30Z'
  due_time: '2026-04-14T18:26:00Z'
  required_duration_s: 30
  required_sensor_type: visible
  weight: 1.5
- task_id: task_0282
  name: background_0170
  latitude_deg: 43.604054
  longitude_deg: -76.692505
  altitude_m: 0.0
  release_time: '2026-04-14T08:00:00Z'
  due_time: '2026-04-14T09:30:30Z'
  required_duration_s: 90
  required_sensor_type: visible
  weight: 1.0
- task_id: task_0283
  name: background_0761
  latitude_deg: 7.970898
  longitude_deg: -11.395368
  altitude_m: 0.0
  release_time: '2026-04-14T10:53:30Z'
  due_time: '2026-04-14T11:30:00Z'
  required_duration_s: 60
  required_sensor_type: visible
  weight: 1.5
- task_id: task_0284
  name: background_0423
  latitude_deg: 71.28585
  longitude_deg: -38.106012
  altitude_m: 0.0
  release_time: '2026-04-14T13:43:30Z'
  due_time: '2026-04-14T14:05:00Z'
  required_duration_s: 90
  required_sensor_type: visible
  weight: 2.0
- task_id: task_0285
  name: Jalgaon, IN
  latitude_deg: 21.00292
  longitude_deg: 75.56602
  altitude_m: 0.0
  release_time: '2026-04-14T16:29:00Z'
  due_time: '2026-04-14T17:50:30Z'
  required_duration_s: 30
  required_sensor_type: visible
  weight: 3.0
- task_id: task_0286
  name: background_0312
  latitude_deg: 37.984517
  longitude_deg: -81.430348
  altitude_m: 0.0
  release_time: '2026-04-14T15:44:30Z'
  due_time: '2026-04-14T17:06:00Z'
  required_duration_s: 75
  required_sensor_type: visible
  weight: 1.5
- task_id: task_0287
  name: background_1007
  latitude_deg: 63.747393
  longitude_deg: -91.675906
  altitude_m: 0.0
  release_time: '2026-04-14T09:45:00Z'
  due_time: '2026-04-14T10:16:00Z'
  required_duration_s: 45
  required_sensor_type: visible
  weight: 2.0
- task_id: task_0288
  name: background_0200
  latitude_deg: -67.71232
  longitude_deg: 111.004578
  altitude_m: 0.0
  release_time: '2026-04-14T15:44:00Z'
  due_time: '2026-04-14T16:15:30Z'
  required_duration_s: 75
  required_sensor_type: visible
  weight: 2.0
- task_id: task_0289
  name: background_0119
  latitude_deg: 34.708881
  longitude_deg: 48.89902
  altitude_m: 0.0
  release_time: '2026-04-14T14:22:30Z'
  due_time: '2026-04-14T14:43:30Z'
  required_duration_s: 60
  required_sensor_type: visible
  weight: 2.0
- task_id: task_0290
  name: background_0702
  latitude_deg: 60.749594
  longitude_deg: 11.589231
  altitude_m: 0.0
  release_time: '2026-04-14T12:45:00Z'
  due_time: '2026-04-14T13:11:00Z'
  required_duration_s: 50
  required_sensor_type: visible
  weight: 1.5
- task_id: task_0291
  name: Novo Hamburgo, BR
  latitude_deg: -29.67833
  longitude_deg: -51.13056
  altitude_m: 0.0
  release_time: '2026-04-14T10:10:30Z'
  due_time: '2026-04-14T10:31:30Z'
  required_duration_s: 20
  required_sensor_type: visible
  weight: 3.0
- task_id: task_0292
  name: background_0664
  latitude_deg: -78.867996
  longitude_deg: -46.707191
  altitude_m: 0.0
  release_time: '2026-04-14T09:33:00Z'
  due_time: '2026-04-14T10:15:00Z'
  required_duration_s: 100
  required_sensor_type: visible
  weight: 2.0
- task_id: task_0293
  name: background_0547
  latitude_deg: 4.002899
  longitude_deg: 22.369961
  altitude_m: 0.0
  release_time: '2026-04-14T12:35:00Z'
  due_time: '2026-04-14T13:01:00Z'
  required_duration_s: 45
  required_sensor_type: visible
  weight: 1.0
- task_id: task_0294
  name: background_0707
  latitude_deg: -11.862896
  longitude_deg: -65.293105
  altitude_m: 0.0
  release_time: '2026-04-14T14:30:30Z'
  due_time: '2026-04-14T14:52:00Z'
  required_duration_s: 20
  required_sensor_type: visible
  weight: 1.5
- task_id: task_0295
  name: background_0003
  latitude_deg: 33.68131
  longitude_deg: 9.899472
  altitude_m: 0.0
  release_time: '2026-04-14T10:09:30Z'
  due_time: '2026-04-14T10:35:30Z'
  required_duration_s: 60
  required_sensor_type: infrared
  weight: 2.0
- task_id: task_0296
  name: Feira de Santana, BR
  latitude_deg: -12.26667
  longitude_deg: -38.96667
  altitude_m: 0.0
  release_time: '2026-04-14T12:49:30Z'
  due_time: '2026-04-14T13:06:30Z'
  required_duration_s: 30
  required_sensor_type: visible
  weight: 3.0
- task_id: task_0297
  name: "Sumar\xE9, BR"
  latitude_deg: -22.82194
  longitude_deg: -47.26694
  altitude_m: 0.0
  release_time: '2026-04-14T12:43:30Z'
  due_time: '2026-04-14T14:25:00Z'
  required_duration_s: 75
  required_sensor_type: visible
  weight: 3.0
- task_id: task_0298
  name: Mangaluru, IN
  latitude_deg: 12.91723
  longitude_deg: 74.85603
  altitude_m: 0.0
  release_time: '2026-04-14T12:31:30Z'
  due_time: '2026-04-14T12:58:00Z'
  required_duration_s: 50
  required_sensor_type: visible
  weight: 5.0
- task_id: task_0299
  name: background_0239
  latitude_deg: 43.620861
  longitude_deg: -111.691175
  altitude_m: 0.0
  release_time: '2026-04-14T17:14:30Z'
  due_time: '2026-04-14T17:36:00Z'
  required_duration_s: 40
  required_sensor_type: visible
  weight: 1.5
- task_id: task_0300
  name: background_0429
  latitude_deg: 60.929054
  longitude_deg: 119.762991
  altitude_m: 0.0
  release_time: '2026-04-14T12:56:30Z'
  due_time: '2026-04-14T13:12:30Z'
  required_duration_s: 20
  required_sensor_type: visible
  weight: 2.0
- task_id: task_0301
  name: Kadapa, IN
  latitude_deg: 14.47995
  longitude_deg: 78.82346
  altitude_m: 0.0
  release_time: '2026-04-14T12:32:00Z'
  due_time: '2026-04-14T13:53:00Z'
  required_duration_s: 60
  required_sensor_type: visible
  weight: 3.0
- task_id: task_0302
  name: Zamboanga, PH
  latitude_deg: 6.91028
  longitude_deg: 122.07389
  altitude_m: 0.0
  release_time: '2026-04-14T18:01:30Z'
  due_time: '2026-04-14T18:48:00Z'
  required_duration_s: 90
  required_sensor_type: visible
  weight: 3.0
- task_id: task_0303
  name: Penza, RU
  latitude_deg: 53.19568
  longitude_deg: 45.01075
  altitude_m: 0.0
  release_time: '2026-04-14T18:48:30Z'
  due_time: '2026-04-14T19:10:00Z'
  required_duration_s: 40
  required_sensor_type: visible
  weight: 5.0
- task_id: task_0304
  name: Belo Horizonte, BR
  latitude_deg: -19.92083
  longitude_deg: -43.93778
  altitude_m: 0.0
  release_time: '2026-04-14T12:47:30Z'
  due_time: '2026-04-14T13:18:30Z'
  required_duration_s: 50
  required_sensor_type: visible
  weight: 5.0
- task_id: task_0305
  name: background_0352
  latitude_deg: 62.273964
  longitude_deg: -45.486948
  altitude_m: 0.0
  release_time: '2026-04-14T14:23:30Z'
  due_time: '2026-04-14T14:50:00Z'
  required_duration_s: 75
  required_sensor_type: visible
  weight: 2.0
- task_id: task_0306
  name: background_0014
  latitude_deg: 31.280805
  longitude_deg: -97.105228
  altitude_m: 0.0
  release_time: '2026-04-14T16:47:00Z'
  due_time: '2026-04-14T17:03:00Z'
  required_duration_s: 50
  required_sensor_type: infrared
  weight: 1.0
- task_id: task_0307
  name: background_0865
  latitude_deg: -78.527335
  longitude_deg: 40.396468
  altitude_m: 0.0
  release_time: '2026-04-14T18:49:00Z'
  due_time: '2026-04-14T19:26:00Z'
  required_duration_s: 120
  required_sensor_type: visible
  weight: 1.0
- task_id: task_0308
  name: "Yan\u2019an, CN"
  latitude_deg: 36.59889
  longitude_deg: 109.49167
  altitude_m: 0.0
  release_time: '2026-04-14T13:36:30Z'
  due_time: '2026-04-14T13:52:30Z'
  required_duration_s: 60
  required_sensor_type: visible
  weight: 4.0
- task_id: task_0309
  name: Brisbane, AU
  latitude_deg: -27.46794
  longitude_deg: 153.02809
  altitude_m: 0.0
  release_time: '2026-04-14T11:14:00Z'
  due_time: '2026-04-14T12:35:30Z'
  required_duration_s: 80
  required_sensor_type: visible
  weight: 3.0
- task_id: task_0310
  name: background_0610
  latitude_deg: -15.867995
  longitude_deg: -52.840778
  altitude_m: 0.0
  release_time: '2026-04-14T12:48:30Z'
  due_time: '2026-04-14T12:59:30Z'
  required_duration_s: 20
  required_sensor_type: visible
  weight: 1.0
- task_id: task_0311
  name: background_0612
  latitude_deg: 12.000198
  longitude_deg: -12.980203
  altitude_m: 0.0
  release_time: '2026-04-14T11:25:00Z'
  due_time: '2026-04-14T11:56:30Z'
  required_duration_s: 70
  required_sensor_type: visible
  weight: 1.0
- task_id: task_0312
  name: Amravati, IN
  latitude_deg: 20.93333
  longitude_deg: 77.75
  altitude_m: 0.0
  release_time: '2026-04-14T16:49:00Z'
  due_time: '2026-04-14T17:15:30Z'
  required_duration_s: 90
  required_sensor_type: visible
  weight: 5.0
- task_id: task_0313
  name: Suizhou, CN
  latitude_deg: 31.71111
  longitude_deg: 113.36306
  altitude_m: 0.0
  release_time: '2026-04-14T13:22:30Z'
  due_time: '2026-04-14T13:54:00Z'
  required_duration_s: 50
  required_sensor_type: visible
  weight: 4.0
- task_id: task_0314
  name: background_0797
  latitude_deg: 46.811043
  longitude_deg: -112.255075
  altitude_m: 0.0
  release_time: '2026-04-14T17:09:00Z'
  due_time: '2026-04-14T18:25:00Z'
  required_duration_s: 45
  required_sensor_type: visible
  weight: 1.0
- task_id: task_0315
  name: background_0321
  latitude_deg: -24.441638
  longitude_deg: 23.788811
  altitude_m: 0.0
  release_time: '2026-04-14T13:55:30Z'
  due_time: '2026-04-14T14:57:00Z'
  required_duration_s: 75
  required_sensor_type: visible
  weight: 2.0
- task_id: task_0316
  name: background_0596
  latitude_deg: -18.940437
  longitude_deg: -69.660981
  altitude_m: 0.0
  release_time: '2026-04-14T18:42:30Z'
  due_time: '2026-04-14T19:23:30Z'
  required_duration_s: 50
  required_sensor_type: visible
  weight: 1.0
- task_id: task_0317
  name: General Santos, PH
  latitude_deg: 6.11278
  longitude_deg: 125.17167
  altitude_m: 0.0
  release_time: '2026-04-14T10:27:30Z'
  due_time: '2026-04-14T11:58:00Z'
  required_duration_s: 30
  required_sensor_type: visible
  weight: 5.0
- task_id: task_0318
  name: background_0374
  latitude_deg: -39.47288
  longitude_deg: 174.536421
  altitude_m: 0.0
  release_time: '2026-04-14T11:23:00Z'
  due_time: '2026-04-14T11:49:00Z'
  required_duration_s: 40
  required_sensor_type: visible
  weight: 1.5
- task_id: task_0319
  name: Santa Ana, SV
  latitude_deg: 13.98827
  longitude_deg: -89.55685
  altitude_m: 0.0
  release_time: '2026-04-14T12:57:00Z'
  due_time: '2026-04-14T13:28:00Z'
  required_duration_s: 50
  required_sensor_type: visible
  weight: 4.0
- task_id: task_0320
  name: background_0668
  latitude_deg: -5.808624
  longitude_deg: -63.948015
  altitude_m: 0.0
  release_time: '2026-04-14T08:00:00Z'
  due_time: '2026-04-14T09:16:30Z'
  required_duration_s: 20
  required_sensor_type: visible
  weight: 1.5
- task_id: task_0321
  name: Jincheng, CN
  latitude_deg: 35.50222
  longitude_deg: 112.83278
  altitude_m: 0.0
  release_time: '2026-04-14T13:23:30Z'
  due_time: '2026-04-14T13:55:00Z'
  required_duration_s: 70
  required_sensor_type: visible
  weight: 5.0
- task_id: task_0322
  name: background_0035
  latitude_deg: -35.44144
  longitude_deg: 143.282974
  altitude_m: 0.0
  release_time: '2026-04-14T13:26:30Z'
  due_time: '2026-04-14T13:53:00Z'
  required_duration_s: 90
  required_sensor_type: visible
  weight: 1.0
- task_id: task_0323
  name: background_0433
  latitude_deg: 67.379612
  longitude_deg: -99.246246
  altitude_m: 0.0
  release_time: '2026-04-14T16:37:30Z'
  due_time: '2026-04-14T17:39:00Z'
  required_duration_s: 70
  required_sensor_type: visible
  weight: 1.0
- task_id: task_0324
  name: background_0643
  latitude_deg: 63.80164
  longitude_deg: 143.269866
  altitude_m: 0.0
  release_time: '2026-04-14T09:59:00Z'
  due_time: '2026-04-14T10:50:30Z'
  required_duration_s: 75
  required_sensor_type: visible
  weight: 2.0
- task_id: task_0325
  name: Saint Petersburg, RU
  latitude_deg: 59.93863
  longitude_deg: 30.31413
  altitude_m: 0.0
  release_time: '2026-04-14T19:27:00Z'
  due_time: '2026-04-14T20:00:00Z'
  required_duration_s: 30
  required_sensor_type: infrared
  weight: 5.0
- task_id: task_0326
  name: Ulyanovsk, RU
  latitude_deg: 54.32824
  longitude_deg: 48.38657
  altitude_m: 0.0
  release_time: '2026-04-14T08:01:00Z'
  due_time: '2026-04-14T08:27:30Z'
  required_duration_s: 70
  required_sensor_type: visible
  weight: 4.0
- task_id: task_0327
  name: background_0770
  latitude_deg: 12.820871
  longitude_deg: 40.734659
  altitude_m: 0.0
  release_time: '2026-04-14T18:01:30Z'
  due_time: '2026-04-14T19:33:00Z'
  required_duration_s: 30
  required_sensor_type: visible
  weight: 2.0
- task_id: task_0328
  name: background_0055
  latitude_deg: 8.683599
  longitude_deg: 99.309609
  altitude_m: 0.0
  release_time: '2026-04-14T15:43:00Z'
  due_time: '2026-04-14T15:59:30Z'
  required_duration_s: 20
  required_sensor_type: visible
  weight: 1.0
- task_id: task_0329
  name: Anshan, CN
  latitude_deg: 41.12361
  longitude_deg: 122.99
  altitude_m: 0.0
  release_time: '2026-04-14T13:09:30Z'
  due_time: '2026-04-14T13:21:00Z'
  required_duration_s: 70
  required_sensor_type: visible
  weight: 3.0
- task_id: task_0330
  name: background_1016
  latitude_deg: 59.830305
  longitude_deg: 94.051513
  altitude_m: 0.0
  release_time: '2026-04-14T14:20:00Z'
  due_time: '2026-04-14T15:16:00Z'
  required_duration_s: 60
  required_sensor_type: visible
  weight: 1.5
- task_id: task_0331
  name: background_0012
  latitude_deg: 64.026425
  longitude_deg: -114.989641
  altitude_m: 0.0
  release_time: '2026-04-14T10:17:30Z'
  due_time: '2026-04-14T10:39:00Z'
  required_duration_s: 75
  required_sensor_type: visible
  weight: 1.0
- task_id: task_0332
  name: Londrina, BR
  latitude_deg: -23.31028
  longitude_deg: -51.16278
  altitude_m: 0.0
  release_time: '2026-04-14T13:44:00Z'
  due_time: '2026-04-14T14:00:00Z'
  required_duration_s: 45
  required_sensor_type: infrared
  weight: 5.0
- task_id: task_0333
  name: background_0813
  latitude_deg: 39.846491
  longitude_deg: -105.343669
  altitude_m: 0.0
  release_time: '2026-04-14T14:16:30Z'
  due_time: '2026-04-14T15:02:30Z'
  required_duration_s: 50
  required_sensor_type: visible
  weight: 1.5
- task_id: task_0334
  name: "Hu\xE1nuco, PE"
  latitude_deg: -9.92882
  longitude_deg: -76.23989
  altitude_m: 0.0
  release_time: '2026-04-14T13:47:00Z'
  due_time: '2026-04-14T15:07:30Z'
  required_duration_s: 30
  required_sensor_type: visible
  weight: 5.0
- task_id: task_0335
  name: background_0553
  latitude_deg: 57.928105
  longitude_deg: 64.436836
  altitude_m: 0.0
  release_time: '2026-04-14T12:15:30Z'
  due_time: '2026-04-14T12:32:00Z'
  required_duration_s: 30
  required_sensor_type: visible
  weight: 2.0
- task_id: task_0336
  name: Baghdad, IQ
  latitude_deg: 33.34058
  longitude_deg: 44.40088
  altitude_m: 0.0
  release_time: '2026-04-14T15:39:30Z'
  due_time: '2026-04-14T16:36:00Z'
  required_duration_s: 60
  required_sensor_type: visible
  weight: 3.0
- task_id: task_0337
  name: "Ryazan\u2019, RU"
  latitude_deg: 54.62696
  longitude_deg: 39.70415
  altitude_m: 0.0
  release_time: '2026-04-14T15:50:30Z'
  due_time: '2026-04-14T16:21:30Z'
  required_duration_s: 60
  required_sensor_type: visible
  weight: 3.0
- task_id: task_0338
  name: Chichicastenango, GT
  latitude_deg: 14.94333
  longitude_deg: -91.11116
  altitude_m: 0.0
  release_time: '2026-04-14T13:07:00Z'
  due_time: '2026-04-14T13:22:30Z'
  required_duration_s: 20
  required_sensor_type: visible
  weight: 5.0
- task_id: task_0339
  name: Ciudad del Este, PY
  latitude_deg: -25.5036
  longitude_deg: -54.65067
  altitude_m: 0.0
  release_time: '2026-04-14T12:25:00Z'
  due_time: '2026-04-14T13:01:30Z'
  required_duration_s: 75
  required_sensor_type: visible
  weight: 5.0
- task_id: task_0340
  name: Sucre, BO
  latitude_deg: -19.03332
  longitude_deg: -65.26274
  altitude_m: 0.0
  release_time: '2026-04-14T14:22:00Z'
  due_time: '2026-04-14T14:48:00Z'
  required_duration_s: 60
  required_sensor_type: visible
  weight: 3.0
- task_id: task_0341
  name: Ulsan, KR
  latitude_deg: 35.53722
  longitude_deg: 129.31667
  altitude_m: 0.0
  release_time: '2026-04-14T12:19:30Z'
  due_time: '2026-04-14T13:30:30Z'
  required_duration_s: 30
  required_sensor_type: visible
  weight: 3.0
- task_id: task_0342
  name: background_0594
  latitude_deg: 38.326309
  longitude_deg: 40.669728
  altitude_m: 0.0
  release_time: '2026-04-14T14:19:00Z'
  due_time: '2026-04-14T15:00:00Z'
  required_duration_s: 30
  required_sensor_type: visible
  weight: 2.0
- task_id: task_0343
  name: Thembisa, ZA
  latitude_deg: -25.99636
  longitude_deg: 28.2268
  altitude_m: 0.0
  release_time: '2026-04-14T08:00:00Z'
  due_time: '2026-04-14T09:29:30Z'
  required_duration_s: 75
  required_sensor_type: visible
  weight: 3.0
- task_id: task_0344
  name: Amritsar, IN
  latitude_deg: 31.62234
  longitude_deg: 74.87534
  altitude_m: 0.0
  release_time: '2026-04-14T16:17:30Z'
  due_time: '2026-04-14T17:13:30Z'
  required_duration_s: 45
  required_sensor_type: visible
  weight: 4.0
- task_id: task_0345
  name: Kobe, JP
  latitude_deg: 34.6913
  longitude_deg: 135.183
  altitude_m: 0.0
  release_time: '2026-04-14T11:42:00Z'
  due_time: '2026-04-14T11:58:30Z'
  required_duration_s: 20
  required_sensor_type: visible
  weight: 4.0
- task_id: task_0346
  name: Goma, CD
  latitude_deg: -1.67409
  longitude_deg: 29.22845
  altitude_m: 0.0
  release_time: '2026-04-14T15:37:00Z'
  due_time: '2026-04-14T16:29:00Z'
  required_duration_s: 90
  required_sensor_type: visible
  weight: 3.0
- task_id: task_0347
  name: background_0275
  latitude_deg: -79.919653
  longitude_deg: -28.221588
  altitude_m: 0.0
  release_time: '2026-04-14T14:21:30Z'
  due_time: '2026-04-14T15:03:00Z'
  required_duration_s: 80
  required_sensor_type: visible
  weight: 1.0
- task_id: task_0348
  name: Guntur, IN
  latitude_deg: 16.29974
  longitude_deg: 80.45729
  altitude_m: 0.0
  release_time: '2026-04-14T16:18:00Z'
  due_time: '2026-04-14T16:49:30Z'
  required_duration_s: 80
  required_sensor_type: visible
  weight: 3.0
- task_id: task_0349
  name: "Torre\xF3n, MX"
  latitude_deg: 25.54389
  longitude_deg: -103.41898
  altitude_m: 0.0
  release_time: '2026-04-14T17:26:00Z'
  due_time: '2026-04-14T17:57:30Z'
  required_duration_s: 45
  required_sensor_type: visible
  weight: 4.0
- task_id: task_0350
  name: San Diego, US
  latitude_deg: 32.71571
  longitude_deg: -117.16472
  altitude_m: 0.0
  release_time: '2026-04-14T17:18:00Z'
  due_time: '2026-04-14T17:34:00Z'
  required_duration_s: 40
  required_sensor_type: visible
  weight: 3.0
- task_id: task_0351
  name: Sargodha, PK
  latitude_deg: 32.08586
  longitude_deg: 72.67418
  altitude_m: 0.0
  release_time: '2026-04-14T12:52:00Z'
  due_time: '2026-04-14T13:13:30Z'
  required_duration_s: 75
  required_sensor_type: visible
  weight: 3.0
- task_id: task_0352
  name: background_0051
  latitude_deg: -19.749078
  longitude_deg: 22.252942
  altitude_m: 0.0
  release_time: '2026-04-14T13:44:30Z'
  due_time: '2026-04-14T14:56:00Z'
  required_duration_s: 90
  required_sensor_type: visible
  weight: 1.0
- task_id: task_0353
  name: Luhansk, UA
  latitude_deg: 48.56814
  longitude_deg: 39.30553
  altitude_m: 0.0
  release_time: '2026-04-14T18:37:30Z'
  due_time: '2026-04-14T19:39:00Z'
  required_duration_s: 70
  required_sensor_type: visible
  weight: 3.0
- task_id: task_0354
  name: background_0803
  latitude_deg: 47.101106
  longitude_deg: 88.811611
  altitude_m: 0.0
  release_time: '2026-04-14T11:01:30Z'
  due_time: '2026-04-14T11:53:00Z'
  required_duration_s: 80
  required_sensor_type: visible
  weight: 2.0
- task_id: task_0355
  name: Dortmund, DE
  latitude_deg: 51.51494
  longitude_deg: 7.466
  altitude_m: 0.0
  release_time: '2026-04-14T10:51:00Z'
  due_time: '2026-04-14T11:07:30Z'
  required_duration_s: 75
  required_sensor_type: visible
  weight: 3.0
- task_id: task_0356
  name: background_0036
  latitude_deg: -10.9106
  longitude_deg: -49.262097
  altitude_m: 0.0
  release_time: '2026-04-14T13:25:30Z'
  due_time: '2026-04-14T13:56:30Z'
  required_duration_s: 40
  required_sensor_type: infrared
  weight: 1.5
- task_id: task_0357
  name: background_0535
  latitude_deg: 37.254781
  longitude_deg: -86.725238
  altitude_m: 0.0
  release_time: '2026-04-14T15:44:00Z'
  due_time: '2026-04-14T15:55:00Z'
  required_duration_s: 60
  required_sensor_type: visible
  weight: 2.0
- task_id: task_0358
  name: background_0125
  latitude_deg: 60.893286
  longitude_deg: 90.009373
  altitude_m: 0.0
  release_time: '2026-04-14T14:41:30Z'
  due_time: '2026-04-14T15:02:30Z'
  required_duration_s: 20
  required_sensor_type: infrared
  weight: 1.5
- task_id: task_0359
  name: background_0329
  latitude_deg: 43.377702
  longitude_deg: -86.627586
  altitude_m: 0.0
  release_time: '2026-04-14T15:27:30Z'
  due_time: '2026-04-14T16:08:30Z'
  required_duration_s: 45
  required_sensor_type: visible
  weight: 1.0
- task_id: task_0360
  name: Daegu, KR
  latitude_deg: 35.87028
  longitude_deg: 128.59111
  altitude_m: 0.0
  release_time: '2026-04-14T17:54:00Z'
  due_time: '2026-04-14T18:20:00Z'
  required_duration_s: 20
  required_sensor_type: visible
  weight: 5.0
- task_id: task_0361
  name: Qingyang, CN
  latitude_deg: 35.70976
  longitude_deg: 107.64455
  altitude_m: 0.0
  release_time: '2026-04-14T13:14:00Z'
  due_time: '2026-04-14T13:50:00Z'
  required_duration_s: 30
  required_sensor_type: visible
  weight: 3.0
- task_id: task_0362
  name: background_0928
  latitude_deg: 40.38852
  longitude_deg: -75.630531
  altitude_m: 0.0
  release_time: '2026-04-14T15:51:00Z'
  due_time: '2026-04-14T16:23:00Z'
  required_duration_s: 100
  required_sensor_type: visible
  weight: 1.0
- task_id: task_0363
  name: Nanyang, CN
  latitude_deg: 33.00524
  longitude_deg: 112.54659
  altitude_m: 0.0
  release_time: '2026-04-14T13:15:30Z'
  due_time: '2026-04-14T14:01:30Z'
  required_duration_s: 60
  required_sensor_type: visible
  weight: 5.0
- task_id: task_0364
  name: background_0800
  latitude_deg: 66.642286
  longitude_deg: 147.319747
  altitude_m: 0.0
  release_time: '2026-04-14T16:49:00Z'
  due_time: '2026-04-14T17:20:30Z'
  required_duration_s: 90
  required_sensor_type: visible
  weight: 2.0
- task_id: task_0365
  name: Birmingham, US
  latitude_deg: 33.52066
  longitude_deg: -86.80249
  altitude_m: 0.0
  release_time: '2026-04-14T13:01:30Z'
  due_time: '2026-04-14T13:17:30Z'
  required_duration_s: 20
  required_sensor_type: visible
  weight: 4.0
- task_id: task_0366
  name: Baotou, CN
  latitude_deg: 40.6516
  longitude_deg: 109.84389
  altitude_m: 0.0
  release_time: '2026-04-14T13:07:30Z'
  due_time: '2026-04-14T14:28:30Z'
  required_duration_s: 20
  required_sensor_type: visible
  weight: 3.0
- task_id: task_0367
  name: background_0043
  latitude_deg: 35.464247
  longitude_deg: 111.619256
  altitude_m: 0.0
  release_time: '2026-04-14T14:27:00Z'
  due_time: '2026-04-14T15:03:00Z'
  required_duration_s: 45
  required_sensor_type: infrared
  weight: 1.0
- task_id: task_0368
  name: Hanoi, VN
  latitude_deg: 21.0245
  longitude_deg: 105.84117
  altitude_m: 0.0
  release_time: '2026-04-14T14:24:30Z'
  due_time: '2026-04-14T14:45:30Z'
  required_duration_s: 30
  required_sensor_type: visible
  weight: 4.0
- task_id: task_0369
  name: background_0804
  latitude_deg: 17.876915
  longitude_deg: -101.484439
  altitude_m: 0.0
  release_time: '2026-04-14T16:41:30Z'
  due_time: '2026-04-14T16:58:00Z'
  required_duration_s: 70
  required_sensor_type: visible
  weight: 2.0
- task_id: task_0370
  name: background_0126
  latitude_deg: 31.473922
  longitude_deg: 90.071707
  altitude_m: 0.0
  release_time: '2026-04-14T14:03:30Z'
  due_time: '2026-04-14T14:44:30Z'
  required_duration_s: 40
  required_sensor_type: visible
  weight: 2.0
- task_id: task_0371
  name: background_0587
  latitude_deg: 29.409898
  longitude_deg: 23.8435
  altitude_m: 0.0
  release_time: '2026-04-14T16:11:00Z'
  due_time: '2026-04-14T16:37:30Z'
  required_duration_s: 70
  required_sensor_type: visible
  weight: 1.0
- task_id: task_0372
  name: background_0414
  latitude_deg: 21.979676
  longitude_deg: -79.782465
  altitude_m: 0.0
  release_time: '2026-04-14T15:26:30Z'
  due_time: '2026-04-14T16:28:00Z'
  required_duration_s: 75
  required_sensor_type: visible
  weight: 1.0
- task_id: task_0373
  name: background_0302
  latitude_deg: 40.004547
  longitude_deg: 111.922074
  altitude_m: 0.0
  release_time: '2026-04-14T13:14:30Z'
  due_time: '2026-04-14T13:56:00Z'
  required_duration_s: 70
  required_sensor_type: visible
  weight: 1.5
- task_id: task_0374
  name: background_1010
  latitude_deg: -76.591855
  longitude_deg: -111.168522
  altitude_m: 0.0
  release_time: '2026-04-14T14:08:30Z'
  due_time: '2026-04-14T14:44:30Z'
  required_duration_s: 60
  required_sensor_type: visible
  weight: 1.5
- task_id: task_0375
  name: Huancayo, PE
  latitude_deg: -12.06866
  longitude_deg: -75.21027
  altitude_m: 0.0
  release_time: '2026-04-14T15:05:30Z'
  due_time: '2026-04-14T15:31:00Z'
  required_duration_s: 20
  required_sensor_type: infrared
  weight: 5.0
- task_id: task_0376
  name: background_0825
  latitude_deg: -31.583087
  longitude_deg: -51.533547
  altitude_m: 0.0
  release_time: '2026-04-14T11:27:00Z'
  due_time: '2026-04-14T12:13:00Z'
  required_duration_s: 45
  required_sensor_type: visible
  weight: 1.0
- task_id: task_0377
  name: Quetzaltenango, GT
  latitude_deg: 14.84462
  longitude_deg: -91.52316
  altitude_m: 0.0
  release_time: '2026-04-14T14:39:30Z'
  due_time: '2026-04-14T15:10:30Z'
  required_duration_s: 60
  required_sensor_type: visible
  weight: 3.0
- task_id: task_0378
  name: Bharatpur, NP
  latitude_deg: 27.68027
  longitude_deg: 84.43647
  altitude_m: 0.0
  release_time: '2026-04-14T16:23:00Z'
  due_time: '2026-04-14T16:49:00Z'
  required_duration_s: 50
  required_sensor_type: visible
  weight: 5.0
- task_id: task_0379
  name: Huainan, CN
  latitude_deg: 32.62639
  longitude_deg: 116.99694
  altitude_m: 0.0
  release_time: '2026-04-14T13:46:00Z'
  due_time: '2026-04-14T14:37:30Z'
  required_duration_s: 75
  required_sensor_type: visible
  weight: 4.0
- task_id: task_0380
  name: background_0644
  latitude_deg: -26.308987
  longitude_deg: 25.91215
  altitude_m: 0.0
  release_time: '2026-04-14T08:18:00Z'
  due_time: '2026-04-14T08:50:00Z'
  required_duration_s: 50
  required_sensor_type: visible
  weight: 1.5
- task_id: task_0381
  name: background_0378
  latitude_deg: 37.069864
  longitude_deg: -2.082943
  altitude_m: 0.0
  release_time: '2026-04-14T10:40:00Z'
  due_time: '2026-04-14T11:07:00Z'
  required_duration_s: 80
  required_sensor_type: visible
  weight: 2.0
- task_id: task_0382
  name: background_0059
  latitude_deg: 62.273238
  longitude_deg: 122.655733
  altitude_m: 0.0
  release_time: '2026-04-14T18:25:30Z'
  due_time: '2026-04-14T19:22:00Z'
  required_duration_s: 40
  required_sensor_type: visible
  weight: 1.0
- task_id: task_0383
  name: background_0103
  latitude_deg: 37.14784
  longitude_deg: 120.354335
  altitude_m: 0.0
  release_time: '2026-04-14T14:12:00Z'
  due_time: '2026-04-14T14:23:00Z'
  required_duration_s: 50
  required_sensor_type: visible
  weight: 1.0
- task_id: task_0384
  name: Patna, IN
  latitude_deg: 25.59408
  longitude_deg: 85.13563
  altitude_m: 0.0
  release_time: '2026-04-14T16:27:30Z'
