tasks:
- task_id: task_0001
  name: Kano, NG
  latitude_deg: 12.00012
  longitude_deg: 8.51672
  altitude_m: 0.0
  release_time: '2026-04-14T14:20:00Z'
  due_time: '2026-04-14T15:20:00Z'
  required_duration_s: 70
  required_sensor_type: visible
  weight: 3.0
- task_id: task_0002
  name: Guangzhou, CN
  latitude_deg: 23.11667
  longitude_deg: 113.25
  altitude_m: 0.0
  release_time: '2026-04-14T19:47:30Z'
  due_time: '2026-04-14T20:02:30Z'
  required_duration_s: 15
  required_sensor_type: visible
  weight: 3.0
- task_id: task_0003
  name: background_0098
  latitude_deg: -32.379219
  longitude_deg: 137.305737
  altitude_m: 0.0
  release_time: '2026-04-14T22:02:40Z'
  due_time: '2026-04-14T22:32:40Z'
  required_duration_s: 60
  required_sensor_type: visible
  weight: 1.0
- task_id: task_0004
  name: background_0195
  latitude_deg: 78.329451
  longitude_deg: 100.080613
  altitude_m: 0.0
  release_time: '2026-04-14T15:04:20Z'
  due_time: '2026-04-14T16:04:20Z'
  required_duration_s: 80
  required_sensor_type: infrared
  weight: 1.0
- task_id: task_0005
  name: background_0126
  latitude_deg: 27.85939
  longitude_deg: 24.864728
  altitude_m: 0.0
  release_time: '2026-04-14T12:10:00Z'
  due_time: '2026-04-14T12:50:00Z'
  required_duration_s: 55
  required_sensor_type: visible
  weight: 1.0
- task_id: task_0006
  name: Boa Vista, BR
  latitude_deg: 2.81972
  longitude_deg: -60.67333
  altitude_m: 0.0
  release_time: '2026-04-14T17:40:00Z'
  due_time: '2026-04-14T18:10:00Z'
  required_duration_s: 75
  required_sensor_type: visible
  weight: 4.0
- task_id: task_0007
  name: Milan, IT
  latitude_deg: 45.46427
  longitude_deg: 9.18951
  altitude_m: 0.0
  release_time: '2026-04-14T14:56:00Z'
  due_time: '2026-04-14T15:26:00Z'
  required_duration_s: 80
  required_sensor_type: infrared
  weight: 4.0
- task_id: task_0008
  name: background_0004
  latitude_deg: 24.177765
  longitude_deg: 114.152052
  altitude_m: 0.0
  release_time: '2026-04-14T14:36:00Z'
  due_time: '2026-04-14T16:36:00Z'
  required_duration_s: 15
  required_sensor_type: visible
  weight: 1.0
- task_id: task_0009
  name: "Niter\xF3i, BR"
  latitude_deg: -22.88333
  longitude_deg: -43.10361
  altitude_m: 0.0
  release_time: '2026-04-14T17:15:00Z'
  due_time: '2026-04-14T17:55:00Z'
  required_duration_s: 65
  required_sensor_type: visible
  weight: 3.0
- task_id: task_0010
  name: Warsaw, PL
  latitude_deg: 52.22977
  longitude_deg: 21.01178
  altitude_m: 0.0
  release_time: '2026-04-14T19:47:30Z'
  due_time: '2026-04-14T20:02:30Z'
  required_duration_s: 45
  required_sensor_type: visible
  weight: 5.0
- task_id: task_0011
  name: Yangzhou, CN
  latitude_deg: 32.39722
  longitude_deg: 119.43583
  altitude_m: 0.0
  release_time: '2026-04-14T13:45:00Z'
  due_time: '2026-04-14T15:15:00Z'
  required_duration_s: 30
  required_sensor_type: visible
  weight: 5.0
- task_id: task_0012
  name: background_0123
  latitude_deg: -84.128098
  longitude_deg: 121.129318
  altitude_m: 0.0
  release_time: '2026-04-14T12:15:00Z'
  due_time: '2026-04-14T12:55:00Z'
  required_duration_s: 90
  required_sensor_type: visible
  weight: 1.5
- task_id: task_0013
  name: background_0162
  latitude_deg: 5.360752
  longitude_deg: 44.222433
  altitude_m: 0.0
  release_time: '2026-04-14T16:55:00Z'
  due_time: '2026-04-14T17:55:00Z'
  required_duration_s: 55
  required_sensor_type: visible
  weight: 1.0
- task_id: task_0014
  name: Baku, AZ
  latitude_deg: 40.37767
  longitude_deg: 49.89201
  altitude_m: 0.0
  release_time: '2026-04-14T12:17:30Z'
  due_time: '2026-04-14T12:32:30Z'
  required_duration_s: 65
  required_sensor_type: visible
  weight: 5.0
- task_id: task_0015
  name: background_0044
  latitude_deg: -82.101325
  longitude_deg: -36.065841
  altitude_m: 0.0
  release_time: '2026-04-14T17:15:00Z'
  due_time: '2026-04-14T17:45:00Z'
  required_duration_s: 55
  required_sensor_type: visible
  weight: 1.0
- task_id: task_0016
  name: Hamilton, CA
  latitude_deg: 43.25011
  longitude_deg: -79.84963
  altitude_m: 0.0
  release_time: '2026-04-14T17:20:00Z'
  due_time: '2026-04-14T17:50:00Z'
  required_duration_s: 45
  required_sensor_type: visible
  weight: 5.0
- task_id: task_0017
  name: "C\xF3rdoba, AR"
  latitude_deg: -31.40648
  longitude_deg: -64.18853
  altitude_m: 0.0
  release_time: '2026-04-14T12:00:00Z'
  due_time: '2026-04-14T13:30:00Z'
  required_duration_s: 85
  required_sensor_type: visible
  weight: 5.0
- task_id: task_0018
  name: Chiclayo, PE
  latitude_deg: -6.77008
  longitude_deg: -79.85495
  altitude_m: 0.0
  release_time: '2026-04-14T12:10:00Z'
  due_time: '2026-04-14T12:50:00Z'
  required_duration_s: 80
  required_sensor_type: visible
  weight: 5.0
- task_id: task_0019
  name: Reynosa, MX
  latitude_deg: 26.08005
  longitude_deg: -98.28456
  altitude_m: 0.0
  release_time: '2026-04-14T17:30:00Z'
  due_time: '2026-04-14T18:10:00Z'
  required_duration_s: 15
  required_sensor_type: visible
  weight: 3.0
- task_id: task_0020
  name: Surabaya, ID
  latitude_deg: -7.24917
  longitude_deg: 112.75083
  altitude_m: 0.0
  release_time: '2026-04-14T14:30:00Z'
  due_time: '2026-04-14T15:00:00Z'
  required_duration_s: 30
  required_sensor_type: visible
  weight: 3.0
- task_id: task_0021
  name: Recife, BR
  latitude_deg: -8.05389
  longitude_deg: -34.88111
  altitude_m: 0.0
  release_time: '2026-04-14T19:52:30Z'
  due_time: '2026-04-14T20:07:30Z'
  required_duration_s: 25
  required_sensor_type: visible
  weight: 3.0
- task_id: task_0022
  name: Antananarivo, MG
  latitude_deg: -18.91368
  longitude_deg: 47.53613
  altitude_m: 0.0
  release_time: '2026-04-14T20:00:00Z'
  due_time: '2026-04-14T20:30:00Z'
  required_duration_s: 25
  required_sensor_type: visible
  weight: 5.0
- task_id: task_0023
  name: background_0079
  latitude_deg: 52.918897
  longitude_deg: -92.215105
  altitude_m: 0.0
  release_time: '2026-04-14T12:22:30Z'
  due_time: '2026-04-14T12:37:30Z'
  required_duration_s: 65
  required_sensor_type: visible
  weight: 2.0
- task_id: task_0024
  name: background_0051
  latitude_deg: 25.60962
  longitude_deg: -100.439773
  altitude_m: 0.0
  release_time: '2026-04-14T19:35:00Z'
  due_time: '2026-04-14T19:55:00Z'
  required_duration_s: 45
  required_sensor_type: visible
  weight: 1.5
- task_id: task_0025
  name: background_0173
  latitude_deg: -18.476056
  longitude_deg: -60.089786
  altitude_m: 0.0
  release_time: '2026-04-14T21:50:25Z'
  due_time: '2026-04-14T23:50:25Z'
  required_duration_s: 20
  required_sensor_type: visible
  weight: 2.0
- task_id: task_0026
  name: Quito, EC
  latitude_deg: -0.22985
  longitude_deg: -78.52495
  altitude_m: 0.0
  release_time: '2026-04-14T19:09:55Z'
  due_time: '2026-04-14T20:09:55Z'
  required_duration_s: 15
  required_sensor_type: infrared
  weight: 4.0
- task_id: task_0027
  name: "Lom\xE9, TG"
  latitude_deg: 6.12874
  longitude_deg: 1.22154
  altitude_m: 0.0
  release_time: '2026-04-14T12:12:30Z'
  due_time: '2026-04-14T12:27:30Z'
  required_duration_s: 50
  required_sensor_type: visible
  weight: 5.0
- task_id: task_0028
  name: background_0148
  latitude_deg: 56.406483
  longitude_deg: 76.14101
  altitude_m: 0.0
  release_time: '2026-04-14T19:43:25Z'
  due_time: '2026-04-14T21:13:25Z'
  required_duration_s: 55
  required_sensor_type: visible
  weight: 1.0
- task_id: task_0029
  name: "Monter\xEDa, CO"
  latitude_deg: 8.75081
  longitude_deg: -75.87823
  altitude_m: 0.0
  release_time: '2026-04-14T17:33:25Z'
  due_time: '2026-04-14T18:33:25Z'
  required_duration_s: 20
  required_sensor_type: visible
  weight: 4.0
- task_id: task_0030
  name: Incheon, KR
  latitude_deg: 37.45646
  longitude_deg: 126.70515
  altitude_m: 0.0
  release_time: '2026-04-14T14:35:00Z'
  due_time: '2026-04-14T14:55:00Z'
  required_duration_s: 70
  required_sensor_type: visible
  weight: 5.0
- task_id: task_0031
  name: "Medell\xEDn, CO"
  latitude_deg: 6.245
  longitude_deg: -75.57151
  altitude_m: 0.0
  release_time: '2026-04-14T14:20:00Z'
  due_time: '2026-04-14T14:40:00Z'
  required_duration_s: 80
  required_sensor_type: visible
  weight: 4.0
- task_id: task_0032
  name: Hefei, CN
  latitude_deg: 31.86389
  longitude_deg: 117.28083
  altitude_m: 0.0
  release_time: '2026-04-14T14:27:30Z'
  due_time: '2026-04-14T14:42:30Z'
  required_duration_s: 70
  required_sensor_type: visible
  weight: 3.0
- task_id: task_0033
  name: Nashik, IN
  latitude_deg: 19.99727
  longitude_deg: 73.79096
  altitude_m: 0.0
  release_time: '2026-04-14T12:17:30Z'
  due_time: '2026-04-14T12:32:30Z'
  required_duration_s: 30
  required_sensor_type: infrared
  weight: 3.0
- task_id: task_0034
  name: Toluca, MX
  latitude_deg: 19.28786
  longitude_deg: -99.65324
  altitude_m: 0.0
  release_time: '2026-04-14T14:30:00Z'
  due_time: '2026-04-14T14:50:00Z'
  required_duration_s: 30
  required_sensor_type: visible
  weight: 5.0
- task_id: task_0035
  name: background_0187
  latitude_deg: 54.783704
  longitude_deg: 76.407298
  altitude_m: 0.0
  release_time: '2026-04-14T14:20:00Z'
  due_time: '2026-04-14T15:20:00Z'
  required_duration_s: 85
  required_sensor_type: visible
  weight: 1.0
- task_id: task_0036
  name: Shijiazhuang, CN
  latitude_deg: 38.04139
  longitude_deg: 114.47861
  altitude_m: 0.0
  release_time: '2026-04-14T20:00:00Z'
  due_time: '2026-04-14T20:30:00Z'
  required_duration_s: 75
  required_sensor_type: visible
  weight: 5.0
- task_id: task_0037
  name: background_0116
  latitude_deg: 26.145875
  longitude_deg: 62.264199
  altitude_m: 0.0
  release_time: '2026-04-14T12:20:00Z'
  due_time: '2026-04-14T12:40:00Z'
  required_duration_s: 60
  required_sensor_type: visible
  weight: 1.5
- task_id: task_0038
  name: Adana, TR
  latitude_deg: 36.98615
  longitude_deg: 35.32531
  altitude_m: 0.0
  release_time: '2026-04-14T20:02:30Z'
  due_time: '2026-04-14T20:17:30Z'
  required_duration_s: 20
  required_sensor_type: visible
  weight: 4.0
- task_id: task_0039
  name: background_0096
  latitude_deg: 47.73499
  longitude_deg: 7.263795
  altitude_m: 0.0
  release_time: '2026-04-14T21:22:25Z'
  due_time: '2026-04-14T22:52:25Z'
  required_duration_s: 30
  required_sensor_type: visible
  weight: 1.0
- task_id: task_0040
  name: "Bogot\xE1, CO"
  latitude_deg: 4.60971
  longitude_deg: -74.08175
  altitude_m: 0.0
  release_time: '2026-04-14T19:37:30Z'
  due_time: '2026-04-14T19:52:30Z'
  required_duration_s: 15
  required_sensor_type: visible
  weight: 5.0
- task_id: task_0041
  name: background_0167
  latitude_deg: 15.981051
  longitude_deg: 12.181382
  altitude_m: 0.0
  release_time: '2026-04-14T19:25:00Z'
  due_time: '2026-04-14T20:25:00Z'
  required_duration_s: 45
  required_sensor_type: visible
  weight: 2.0
- task_id: task_0042
  name: background_0174
  latitude_deg: 11.365262
  longitude_deg: 105.158283
  altitude_m: 0.0
  release_time: '2026-04-14T22:22:25Z'
  due_time: '2026-04-14T23:52:25Z'
  required_duration_s: 20
  required_sensor_type: infrared
  weight: 1.0
- task_id: task_0043
  name: Guadalajara, MX
  latitude_deg: 20.67738
  longitude_deg: -103.34749
  altitude_m: 0.0
  release_time: '2026-04-14T17:00:00Z'
  due_time: '2026-04-14T18:00:00Z'
  required_duration_s: 20
  required_sensor_type: visible
  weight: 3.0
- task_id: task_0044
  name: background_0198
  latitude_deg: -22.610614
  longitude_deg: 27.643115
  altitude_m: 0.0
  release_time: '2026-04-14T15:42:55Z'
  due_time: '2026-04-14T16:12:55Z'
  required_duration_s: 60
  required_sensor_type: visible
  weight: 1.5
- task_id: task_0045
  name: Tehran, IR
  latitude_deg: 35.69439
  longitude_deg: 51.42151
  altitude_m: 0.0
  release_time: '2026-04-14T17:20:00Z'
  due_time: '2026-04-14T18:00:00Z'
  required_duration_s: 45
  required_sensor_type: visible
  weight: 4.0
- task_id: task_0046
  name: Sanaa, YE
  latitude_deg: 15.35452
  longitude_deg: 44.20646
  altitude_m: 0.0
  release_time: '2026-04-14T17:47:30Z'
  due_time: '2026-04-14T18:17:30Z'
  required_duration_s: 75
  required_sensor_type: visible
  weight: 3.0
- task_id: task_0047
  name: background_0180
  latitude_deg: 39.897168
  longitude_deg: 105.080358
  altitude_m: 0.0
  release_time: '2026-04-14T14:40:00Z'
  due_time: '2026-04-14T15:10:00Z'
  required_duration_s: 90
  required_sensor_type: infrared
  weight: 1.0
- task_id: task_0048
  name: background_0037
  latitude_deg: -71.108097
  longitude_deg: -62.070266
  altitude_m: 0.0
  release_time: '2026-04-14T17:35:00Z'
  due_time: '2026-04-14T17:55:00Z'
  required_duration_s: 55
  required_sensor_type: infrared
  weight: 1.5
- task_id: task_0049
  name: "\xDCr\xFCmqi, CN"
  latitude_deg: 43.80096
  longitude_deg: 87.60046
  altitude_m: 0.0
  release_time: '2026-04-14T12:05:00Z'
  due_time: '2026-04-14T12:45:00Z'
  required_duration_s: 55
  required_sensor_type: visible
  weight: 4.0
- task_id: task_0050
  name: Depok, ID
  latitude_deg: -6.4
  longitude_deg: 106.81861
  altitude_m: 0.0
  release_time: '2026-04-14T23:00:00Z'
  due_time: '2026-04-15T00:00:00Z'
  required_duration_s: 65
  required_sensor_type: visible
  weight: 4.0
- task_id: task_0051
  name: Fukuoka, JP
  latitude_deg: 33.6
  longitude_deg: 130.41667
  altitude_m: 0.0
  release_time: '2026-04-14T13:50:00Z'
  due_time: '2026-04-14T15:20:00Z'
  required_duration_s: 15
  required_sensor_type: visible
  weight: 5.0
- task_id: task_0052
  name: Lima, PE
  latitude_deg: -12.04318
  longitude_deg: -77.02824
  altitude_m: 0.0
  release_time: '2026-04-14T12:25:00Z'
  due_time: '2026-04-14T12:45:00Z'
  required_duration_s: 55
  required_sensor_type: visible
  weight: 3.0
- task_id: task_0053
  name: Barranquilla, CO
  latitude_deg: 10.96854
  longitude_deg: -74.78132
  altitude_m: 0.0
  release_time: '2026-04-14T19:40:00Z'
  due_time: '2026-04-14T20:10:00Z'
  required_duration_s: 60
  required_sensor_type: infrared
  weight: 4.0
- task_id: task_0054
  name: San Pedro Sula, HN
  latitude_deg: 15.50585
  longitude_deg: -88.02588
  altitude_m: 0.0
  release_time: '2026-04-14T20:02:10Z'
  due_time: '2026-04-14T21:02:10Z'
  required_duration_s: 70
  required_sensor_type: visible
  weight: 5.0
- task_id: task_0055
  name: background_0008
  latitude_deg: 14.665782
  longitude_deg: 109.014134
  altitude_m: 0.0
  release_time: '2026-04-14T12:10:00Z'
  due_time: '2026-04-14T12:50:00Z'
  required_duration_s: 30
  required_sensor_type: visible
  weight: 1.5
- task_id: task_0056
  name: Kuala Lumpur, MY
  latitude_deg: 3.1412
  longitude_deg: 101.68653
  altitude_m: 0.0
  release_time: '2026-04-14T14:45:00Z'
  due_time: '2026-04-14T15:05:00Z'
  required_duration_s: 90
  required_sensor_type: visible
  weight: 5.0
- task_id: task_0057
  name: Basrah, IQ
  latitude_deg: 30.50852
  longitude_deg: 47.7804
  altitude_m: 0.0
  release_time: '2026-04-14T12:15:00Z'
  due_time: '2026-04-14T12:45:00Z'
  required_duration_s: 45
  required_sensor_type: visible
  weight: 3.0
- task_id: task_0058
  name: background_0020
  latitude_deg: 7.139161
  longitude_deg: -3.308483
  altitude_m: 0.0
  release_time: '2026-04-14T14:45:00Z'
  due_time: '2026-04-14T15:05:00Z'
  required_duration_s: 80
  required_sensor_type: visible
  weight: 1.5
- task_id: task_0059
  name: Saint Petersburg, RU
  latitude_deg: 59.93863
  longitude_deg: 30.31413
  altitude_m: 0.0
  release_time: '2026-04-14T19:17:10Z'
  due_time: '2026-04-14T20:17:10Z'
  required_duration_s: 90
  required_sensor_type: visible
  weight: 3.0
- task_id: task_0060
  name: background_0055
  latitude_deg: -21.503182
  longitude_deg: 122.586263
  altitude_m: 0.0
  release_time: '2026-04-14T14:20:00Z'
  due_time: '2026-04-14T15:00:00Z'
  required_duration_s: 75
  required_sensor_type: visible
  weight: 1.5
- task_id: task_0061
  name: background_0024
  latitude_deg: 60.77882
  longitude_deg: 137.007218
  altitude_m: 0.0
  release_time: '2026-04-14T22:50:15Z'
  due_time: '2026-04-14T23:20:15Z'
  required_duration_s: 40
  required_sensor_type: visible
  weight: 2.0
- task_id: task_0062
  name: Chicago, US
  latitude_deg: 41.85003
  longitude_deg: -87.65005
  altitude_m: 0.0
  release_time: '2026-04-14T16:55:00Z'
  due_time: '2026-04-14T17:55:00Z'
  required_duration_s: 90
  required_sensor_type: visible
  weight: 4.0
- task_id: task_0063
  name: Gorakhpur, IN
  latitude_deg: 29.44768
  longitude_deg: 75.67206
  altitude_m: 0.0
  release_time: '2026-04-14T14:20:00Z'
  due_time: '2026-04-14T14:50:00Z'
  required_duration_s: 30
  required_sensor_type: visible
  weight: 3.0
- task_id: task_0064
  name: Jamshedpur, IN
  latitude_deg: 22.80278
  longitude_deg: 86.18545
  altitude_m: 0.0
  release_time: '2026-04-14T14:15:00Z'
  due_time: '2026-04-14T14:55:00Z'
  required_duration_s: 80
  required_sensor_type: visible
  weight: 4.0
- task_id: task_0065
  name: Feira de Santana, BR
  latitude_deg: -12.26667
  longitude_deg: -38.96667
  altitude_m: 0.0
  release_time: '2026-04-14T16:55:00Z'
  due_time: '2026-04-14T18:25:00Z'
  required_duration_s: 55
  required_sensor_type: visible
  weight: 3.0
- task_id: task_0066
  name: Riyadh, SA
  latitude_deg: 24.68773
  longitude_deg: 46.72185
  altitude_m: 0.0
  release_time: '2026-04-14T12:15:00Z'
  due_time: '2026-04-14T12:55:00Z'
  required_duration_s: 40
  required_sensor_type: visible
  weight: 5.0
- task_id: task_0067
  name: background_0147
  latitude_deg: -16.186576
  longitude_deg: 133.747592
  altitude_m: 0.0
  release_time: '2026-04-14T16:11:35Z'
  due_time: '2026-04-14T16:41:35Z'
  required_duration_s: 70
  required_sensor_type: visible
  weight: 1.0
- task_id: task_0068
  name: Louisville, US
  latitude_deg: 38.25424
  longitude_deg: -85.75941
  altitude_m: 0.0
  release_time: '2026-04-14T17:20:00Z'
  due_time: '2026-04-14T18:20:00Z'
  required_duration_s: 35
  required_sensor_type: infrared
  weight: 4.0
- task_id: task_0069
  name: Baltimore, US
  latitude_deg: 39.29038
  longitude_deg: -76.61219
  altitude_m: 0.0
  release_time: '2026-04-14T17:15:00Z'
  due_time: '2026-04-14T17:45:00Z'
  required_duration_s: 35
  required_sensor_type: visible
  weight: 4.0
- task_id: task_0070
  name: Kathmandu, NP
  latitude_deg: 27.70169
  longitude_deg: 85.3206
  altitude_m: 0.0
  release_time: '2026-04-14T12:15:00Z'
  due_time: '2026-04-14T13:15:00Z'
  required_duration_s: 70
  required_sensor_type: visible
  weight: 4.0
- task_id: task_0071
  name: background_0061
  latitude_deg: -17.169016
  longitude_deg: 132.564714
  altitude_m: 0.0
  release_time: '2026-04-14T14:00:00Z'
  due_time: '2026-04-14T15:00:00Z'
  required_duration_s: 80
  required_sensor_type: visible
  weight: 1.5
- task_id: task_0072
  name: Shenyang, CN
  latitude_deg: 41.79222
  longitude_deg: 123.43278
  altitude_m: 0.0
  release_time: '2026-04-14T17:00:00Z'
  due_time: '2026-04-14T18:00:00Z'
  required_duration_s: 20
  required_sensor_type: infrared
  weight: 5.0
- task_id: task_0073
  name: background_0184
  latitude_deg: -50.744604
  longitude_deg: -71.506299
  altitude_m: 0.0
  release_time: '2026-04-14T17:00:00Z'
  due_time: '2026-04-14T18:00:00Z'
  required_duration_s: 70
  required_sensor_type: visible
  weight: 1.5
- task_id: task_0074
  name: background_0026
  latitude_deg: 44.151535
  longitude_deg: 116.833877
  altitude_m: 0.0
  release_time: '2026-04-14T17:10:00Z'
  due_time: '2026-04-14T18:40:00Z'
  required_duration_s: 75
  required_sensor_type: visible
  weight: 1.0
- task_id: task_0075
  name: Nanchong, CN
  latitude_deg: 30.79508
  longitude_deg: 106.08473
  altitude_m: 0.0
  release_time: '2026-04-14T17:45:00Z'
  due_time: '2026-04-14T18:05:00Z'
  required_duration_s: 70
  required_sensor_type: visible
  weight: 5.0
- task_id: task_0076
  name: background_0141
  latitude_deg: 22.401273
  longitude_deg: 76.360992
  altitude_m: 0.0
  release_time: '2026-04-14T21:33:55Z'
  due_time: '2026-04-14T22:33:55Z'
  required_duration_s: 15
  required_sensor_type: visible
  weight: 2.0
- task_id: task_0077
  name: background_0073
  latitude_deg: 42.292326
  longitude_deg: -81.628136
  altitude_m: 0.0
  release_time: '2026-04-14T12:00:00Z'
  due_time: '2026-04-14T13:00:00Z'
  required_duration_s: 30
  required_sensor_type: visible
  weight: 1.0
- task_id: task_0078
  name: background_0136
  latitude_deg: 15.96753
  longitude_deg: -90.123299
  altitude_m: 0.0
  release_time: '2026-04-14T14:45:00Z'
  due_time: '2026-04-14T15:05:00Z'
  required_duration_s: 75
  required_sensor_type: visible
  weight: 1.5
- task_id: task_0079
  name: background_0130
  latitude_deg: 49.212338
  longitude_deg: 126.939371
  altitude_m: 0.0
  release_time: '2026-04-14T14:47:30Z'
  due_time: '2026-04-14T15:02:30Z'
  required_duration_s: 85
  required_sensor_type: visible
  weight: 1.5
- task_id: task_0080
  name: Chattogram, BD
  latitude_deg: 22.3384
  longitude_deg: 91.83168
  altitude_m: 0.0
  release_time: '2026-04-14T13:50:00Z'
  due_time: '2026-04-14T15:20:00Z'
  required_duration_s: 20
  required_sensor_type: visible
  weight: 5.0
- task_id: task_0081
  name: Tirunelveli, IN
  latitude_deg: 8.72742
  longitude_deg: 77.6838
  altitude_m: 0.0
  release_time: '2026-04-14T13:18:20Z'
  due_time: '2026-04-14T15:18:20Z'
  required_duration_s: 55
  required_sensor_type: infrared
  weight: 3.0
- task_id: task_0082
  name: Bekasi, ID
  latitude_deg: -6.2349
  longitude_deg: 106.9896
  altitude_m: 0.0
  release_time: '2026-04-14T13:14:25Z'
  due_time: '2026-04-14T14:44:25Z'
  required_duration_s: 70
  required_sensor_type: visible
  weight: 3.0
- task_id: task_0083
  name: Kyiv, UA
  latitude_deg: 50.45466
  longitude_deg: 30.5238
  altitude_m: 0.0
  release_time: '2026-04-14T19:25:00Z'
  due_time: '2026-04-14T20:05:00Z'
  required_duration_s: 60
  required_sensor_type: visible
  weight: 3.0
- task_id: task_0084
  name: background_0157
  latitude_deg: 33.848089
  longitude_deg: 84.233832
  altitude_m: 0.0
  release_time: '2026-04-14T19:45:00Z'
  due_time: '2026-04-14T20:45:00Z'
  required_duration_s: 90
  required_sensor_type: visible
  weight: 1.0
- task_id: task_0085
  name: Busan, KR
  latitude_deg: 35.10168
  longitude_deg: 129.03004
  altitude_m: 0.0
  release_time: '2026-04-14T12:00:00Z'
  due_time: '2026-04-14T13:00:00Z'
  required_duration_s: 50
  required_sensor_type: visible
  weight: 5.0
- task_id: task_0086
  name: Changsha, CN
  latitude_deg: 28.19874
  longitude_deg: 112.97087
  altitude_m: 0.0
  release_time: '2026-04-14T13:50:00Z'
  due_time: '2026-04-14T15:20:00Z'
  required_duration_s: 55
  required_sensor_type: infrared
  weight: 3.0
- task_id: task_0087
  name: Port Harcourt, NG
  latitude_deg: 4.77742
  longitude_deg: 7.0134
  altitude_m: 0.0
  release_time: '2026-04-14T20:19:15Z'
  due_time: '2026-04-14T22:19:15Z'
  required_duration_s: 90
  required_sensor_type: infrared
  weight: 4.0
- task_id: task_0088
  name: Jiangyin, CN
  latitude_deg: 31.91102
  longitude_deg: 120.26302
  altitude_m: 0.0
  release_time: '2026-04-14T17:45:00Z'
  due_time: '2026-04-14T18:05:00Z'
  required_duration_s: 20
  required_sensor_type: visible
  weight: 5.0
- task_id: task_0089
  name: background_0014
  latitude_deg: 23.251425
  longitude_deg: 28.762885
  altitude_m: 0.0
  release_time: '2026-04-14T17:25:00Z'
  due_time: '2026-04-14T17:45:00Z'
  required_duration_s: 90
  required_sensor_type: visible
  weight: 1.5
- task_id: task_0090
  name: background_0030
  latitude_deg: -5.79313
  longitude_deg: 19.255637
  altitude_m: 0.0
  release_time: '2026-04-14T12:00:00Z'
  due_time: '2026-04-14T13:00:00Z'
  required_duration_s: 80
  required_sensor_type: visible
  weight: 1.5
- task_id: task_0091
  name: Barcelona, VE
  latitude_deg: 10.1384
  longitude_deg: -64.68769
  altitude_m: 0.0
  release_time: '2026-04-14T12:00:00Z'
  due_time: '2026-04-14T13:30:00Z'
  required_duration_s: 70
  required_sensor_type: infrared
  weight: 4.0
- task_id: task_0092
  name: Sydney, AU
  latitude_deg: -33.86785
  longitude_deg: 151.20732
  altitude_m: 0.0
  release_time: '2026-04-14T12:00:00Z'
  due_time: '2026-04-14T14:00:00Z'
  required_duration_s: 50
  required_sensor_type: visible
  weight: 3.0
- task_id: task_0093
  name: Ahmedabad, IN
  latitude_deg: 23.02579
  longitude_deg: 72.58727
  altitude_m: 0.0
  release_time: '2026-04-14T13:45:00Z'
  due_time: '2026-04-14T15:15:00Z'
  required_duration_s: 85
  required_sensor_type: visible
  weight: 4.0
- task_id: task_0094
  name: Stockholm, SE
  latitude_deg: 59.32938
  longitude_deg: 18.06871
  altitude_m: 0.0
  release_time: '2026-04-14T17:17:30Z'
  due_time: '2026-04-14T17:32:30Z'
  required_duration_s: 65
  required_sensor_type: infrared
  weight: 5.0
- task_id: task_0095
  name: background_0121
  latitude_deg: 29.652569
  longitude_deg: 53.39207
  altitude_m: 0.0
  release_time: '2026-04-14T12:00:00Z'
  due_time: '2026-04-14T13:30:00Z'
  required_duration_s: 25
  required_sensor_type: visible
  weight: 1.0
- task_id: task_0096
  name: Phoenix, US
  latitude_deg: 33.44838
  longitude_deg: -112.07404
  altitude_m: 0.0
  release_time: '2026-04-14T14:22:30Z'
  due_time: '2026-04-14T14:37:30Z'
  required_duration_s: 80
  required_sensor_type: infrared
  weight: 4.0
- task_id: task_0097
  name: "Canc\xFAn, MX"
  latitude_deg: 21.17429
  longitude_deg: -86.84656
  altitude_m: 0.0
  release_time: '2026-04-14T19:55:00Z'
  due_time: '2026-04-14T20:15:00Z'
  required_duration_s: 60
  required_sensor_type: visible
  weight: 4.0
- task_id: task_0098
  name: background_0127
  latitude_deg: 64.491023
  longitude_deg: 80.850553
  altitude_m: 0.0
  release_time: '2026-04-14T20:06:05Z'
  due_time: '2026-04-14T21:06:05Z'
  required_duration_s: 50
  required_sensor_type: visible
  weight: 1.0
- task_id: task_0099
  name: Teresina, BR
  latitude_deg: -5.08917
  longitude_deg: -42.80194
  altitude_m: 0.0
  release_time: '2026-04-14T18:33:50Z'
  due_time: '2026-04-14T20:33:50Z'
  required_duration_s: 85
  required_sensor_type: visible
  weight: 3.0
- task_id: task_0100
  name: background_0029
  latitude_deg: 35.221489
  longitude_deg: 2.171587
  altitude_m: 0.0
  release_time: '2026-04-14T18:10:25Z'
  due_time: '2026-04-14T20:10:25Z'
  required_duration_s: 90
  required_sensor_type: infrared
  weight: 1.0
- task_id: task_0101
  name: Tijuana, MX
  latitude_deg: 32.5027
  longitude_deg: -117.00371
  altitude_m: 0.0
  release_time: '2026-04-14T17:52:45Z'
  due_time: '2026-04-14T19:52:45Z'
  required_duration_s: 90
  required_sensor_type: visible
  weight: 3.0
- task_id: task_0102
  name: background_0050
  latitude_deg: 39.909369
  longitude_deg: 61.325202
  altitude_m: 0.0
  release_time: '2026-04-14T12:00:00Z'
  due_time: '2026-04-14T13:30:00Z'
  required_duration_s: 50
  required_sensor_type: infrared
  weight: 2.0
- task_id: task_0103
  name: Santo Domingo de los Colorados, EC
  latitude_deg: -0.25368
  longitude_deg: -79.17628
  altitude_m: 0.0
  release_time: '2026-04-14T18:26:15Z'
  due_time: '2026-04-14T20:26:15Z'
  required_duration_s: 75
  required_sensor_type: visible
  weight: 3.0
- task_id: task_0104
  name: background_0139
  latitude_deg: -33.589502
  longitude_deg: 119.196097
  altitude_m: 0.0
  release_time: '2026-04-14T19:40:00Z'
  due_time: '2026-04-14T20:10:00Z'
  required_duration_s: 30
  required_sensor_type: visible
  weight: 1.5
- task_id: task_0105
  name: background_0011
  latitude_deg: 12.804354
  longitude_deg: 76.284262
  altitude_m: 0.0
  release_time: '2026-04-14T16:45:00Z'
  due_time: '2026-04-14T18:15:00Z'
  required_duration_s: 50
  required_sensor_type: visible
  weight: 1.0
- task_id: task_0106
  name: Barquisimeto, VE
  latitude_deg: 10.0647
  longitude_deg: -69.35703
  altitude_m: 0.0
  release_time: '2026-04-14T21:59:45Z'
  due_time: '2026-04-14T22:29:45Z'
  required_duration_s: 20
  required_sensor_type: visible
  weight: 3.0
- task_id: task_0107
  name: Tangshan, CN
  latitude_deg: 39.64381
  longitude_deg: 118.18319
  altitude_m: 0.0
  release_time: '2026-04-14T19:15:00Z'
  due_time: '2026-04-14T20:15:00Z'
  required_duration_s: 80
  required_sensor_type: visible
  weight: 3.0
- task_id: task_0108
  name: background_0129
  latitude_deg: 50.824139
  longitude_deg: 142.67269
  altitude_m: 0.0
  release_time: '2026-04-14T17:15:00Z'
  due_time: '2026-04-14T17:55:00Z'
  required_duration_s: 50
  required_sensor_type: infrared
  weight: 1.0
- task_id: task_0109
  name: Tuxtla, MX
  latitude_deg: 16.75357
  longitude_deg: -93.11578
  altitude_m: 0.0
  release_time: '2026-04-14T12:25:00Z'
  due_time: '2026-04-14T12:55:00Z'
  required_duration_s: 85
  required_sensor_type: visible
  weight: 4.0
- task_id: task_0110
  name: Bursa, TR
  latitude_deg: 40.19559
  longitude_deg: 29.06013
  altitude_m: 0.0
  release_time: '2026-04-14T19:40:00Z'
  due_time: '2026-04-14T20:00:00Z'
  required_duration_s: 90
  required_sensor_type: visible
  weight: 4.0
- task_id: task_0111
  name: background_0052
  latitude_deg: 24.531241
  longitude_deg: 121.046348
  altitude_m: 0.0
  release_time: '2026-04-14T19:40:00Z'
  due_time: '2026-04-14T20:20:00Z'
  required_duration_s: 70
  required_sensor_type: visible
  weight: 2.0
- task_id: task_0112
  name: Ciudad Guayana, VE
  latitude_deg: 8.35122
  longitude_deg: -62.64102
  altitude_m: 0.0
  release_time: '2026-04-14T15:14:35Z'
  due_time: '2026-04-14T16:44:35Z'
  required_duration_s: 70
  required_sensor_type: visible
  weight: 3.0
- task_id: task_0113
  name: Ecatepec de Morelos, MX
  latitude_deg: 19.60492
  longitude_deg: -99.06064
  altitude_m: 0.0
  release_time: '2026-04-14T14:30:00Z'
  due_time: '2026-04-14T14:50:00Z'
  required_duration_s: 20
  required_sensor_type: visible
  weight: 5.0
- task_id: task_0114
  name: background_0149
  latitude_deg: -78.246071
  longitude_deg: 83.096953
  altitude_m: 0.0
  release_time: '2026-04-14T14:12:05Z'
  due_time: '2026-04-14T15:42:05Z'
  required_duration_s: 40
  required_sensor_type: infrared
  weight: 1.0
- task_id: task_0115
  name: background_0049
  latitude_deg: -12.033261
  longitude_deg: 13.885857
  altitude_m: 0.0
  release_time: '2026-04-14T19:15:00Z'
  due_time: '2026-04-14T20:45:00Z'
  required_duration_s: 70
  required_sensor_type: visible
  weight: 1.5
- task_id: task_0116
  name: Qinzhou, CN
  latitude_deg: 21.98247
  longitude_deg: 108.65061
  altitude_m: 0.0
  release_time: '2026-04-14T17:35:00Z'
  due_time: '2026-04-14T17:55:00Z'
  required_duration_s: 55
  required_sensor_type: visible
  weight: 3.0
- task_id: task_0117
  name: background_0145
  latitude_deg: 39.910629
  longitude_deg: 141.297031
  altitude_m: 0.0
  release_time: '2026-04-14T16:55:00Z'
  due_time: '2026-04-14T18:25:00Z'
  required_duration_s: 40
  required_sensor_type: visible
  weight: 2.0
- task_id: task_0118
  name: Yinchuan, CN
  latitude_deg: 38.46806
  longitude_deg: 106.27306
  altitude_m: 0.0
  release_time: '2026-04-14T17:15:00Z'
  due_time: '2026-04-14T17:55:00Z'
  required_duration_s: 55
  required_sensor_type: visible
  weight: 4.0
- task_id: task_0119
  name: background_0054
  latitude_deg: 28.120385
  longitude_deg: 99.837178
  altitude_m: 0.0
  release_time: '2026-04-14T14:12:00Z'
  due_time: '2026-04-14T14:42:00Z'
  required_duration_s: 70
  required_sensor_type: visible
  weight: 2.0
- task_id: task_0120
  name: "Culiac\xE1n, MX"
  latitude_deg: 24.80209
  longitude_deg: -107.39421
  altitude_m: 0.0
  release_time: '2026-04-14T18:58:45Z'
  due_time: '2026-04-14T20:28:45Z'
  required_duration_s: 75
  required_sensor_type: infrared
  weight: 3.0
- task_id: task_0121
  name: background_0089
  latitude_deg: 45.255789
  longitude_deg: 57.131349
  altitude_m: 0.0
  release_time: '2026-04-14T14:15:00Z'
  due_time: '2026-04-14T14:45:00Z'
  required_duration_s: 30
  required_sensor_type: infrared
  weight: 1.0
- task_id: task_0122
  name: background_0062
  latitude_deg: 5.14583
  longitude_deg: 95.417408
  altitude_m: 0.0
  release_time: '2026-04-14T19:15:00Z'
  due_time: '2026-04-14T20:45:00Z'
  required_duration_s: 80
  required_sensor_type: visible
  weight: 1.0
- task_id: task_0123
  name: background_0131
  latitude_deg: 46.633921
  longitude_deg: 90.674498
  altitude_m: 0.0
  release_time: '2026-04-14T19:40:00Z'
  due_time: '2026-04-14T20:40:00Z'
  required_duration_s: 85
  required_sensor_type: visible
  weight: 2.0
- task_id: task_0124
  name: Bengaluru, IN
  latitude_deg: 12.97194
  longitude_deg: 77.59369
  altitude_m: 0.0
  release_time: '2026-04-14T15:54:25Z'
  due_time: '2026-04-14T16:54:25Z'
  required_duration_s: 30
  required_sensor_type: infrared
  weight: 5.0
- task_id: task_0125
  name: background_0016
  latitude_deg: 63.698005
  longitude_deg: -111.211077
  altitude_m: 0.0
  release_time: '2026-04-14T14:25:00Z'
  due_time: '2026-04-14T14:45:00Z'
  required_duration_s: 25
  required_sensor_type: visible
  weight: 1.5
- task_id: task_0126
  name: "S\xE3o Jos\xE9 dos Campos, BR"
  latitude_deg: -23.17944
  longitude_deg: -45.88694
  altitude_m: 0.0
  release_time: '2026-04-14T16:50:00Z'
  due_time: '2026-04-14T18:20:00Z'
  required_duration_s: 30
  required_sensor_type: visible
  weight: 4.0
- task_id: task_0127
  name: "S\xE3o Bernardo do Campo, BR"
  latitude_deg: -23.69389
  longitude_deg: -46.565
  altitude_m: 0.0
  release_time: '2026-04-14T17:47:30Z'
  due_time: '2026-04-14T18:02:30Z'
  required_duration_s: 35
  required_sensor_type: visible
  weight: 5.0
- task_id: task_0128
  name: background_0068
  latitude_deg: 62.410139
  longitude_deg: 84.612717
  altitude_m: 0.0
  release_time: '2026-04-14T14:20:00Z'
  due_time: '2026-04-14T15:00:00Z'
  required_duration_s: 70
  required_sensor_type: visible
  weight: 1.0
- task_id: task_0129
  name: Rabat, MA
  latitude_deg: 34.01325
  longitude_deg: -6.83255
  altitude_m: 0.0
  release_time: '2026-04-14T18:06:10Z'
  due_time: '2026-04-14T19:36:10Z'
  required_duration_s: 30
  required_sensor_type: infrared
  weight: 5.0
- task_id: task_0130
  name: Boston, US
  latitude_deg: 42.35843
  longitude_deg: -71.05977
  altitude_m: 0.0
  release_time: '2026-04-14T14:35:00Z'
  due_time: '2026-04-14T14:55:00Z'
  required_duration_s: 60
  required_sensor_type: visible
  weight: 4.0
- task_id: task_0131
  name: Shantou, CN
  latitude_deg: 23.35489
  longitude_deg: 116.67876
  altitude_m: 0.0
  release_time: '2026-04-14T19:57:30Z'
  due_time: '2026-04-14T20:12:30Z'
  required_duration_s: 50
  required_sensor_type: infrared
  weight: 5.0
- task_id: task_0132
  name: Curitiba, BR
  latitude_deg: -25.42778
  longitude_deg: -49.27306
  altitude_m: 0.0
  release_time: '2026-04-14T19:50:00Z'
  due_time: '2026-04-14T20:30:00Z'
  required_duration_s: 35
  required_sensor_type: visible
  weight: 5.0
- task_id: task_0133
  name: Mosul, IQ
  latitude_deg: 36.335
  longitude_deg: 43.11889
  altitude_m: 0.0
  release_time: '2026-04-14T14:40:00Z'
  due_time: '2026-04-14T15:00:00Z'
  required_duration_s: 25
  required_sensor_type: visible
  weight: 3.0
- task_id: task_0134
  name: background_0060
  latitude_deg: 53.192494
  longitude_deg: 135.708238
  altitude_m: 0.0
  release_time: '2026-04-14T12:35:00Z'
  due_time: '2026-04-14T12:55:00Z'
  required_duration_s: 55
  required_sensor_type: infrared
  weight: 1.5
- task_id: task_0135
  name: New South Memphis, US
  latitude_deg: 35.08676
  longitude_deg: -90.05676
  altitude_m: 0.0
  release_time: '2026-04-14T20:07:30Z'
  due_time: '2026-04-14T20:22:30Z'
  required_duration_s: 50
  required_sensor_type: visible
  weight: 5.0
- task_id: task_0136
  name: background_0119
  latitude_deg: -73.769764
  longitude_deg: -71.998764
  altitude_m: 0.0
  release_time: '2026-04-14T12:43:40Z'
  due_time: '2026-04-14T13:43:40Z'
  required_duration_s: 75
  required_sensor_type: visible
  weight: 1.0
- task_id: task_0137
  name: Tokyo, JP
  latitude_deg: 35.6895
  longitude_deg: 139.69171
  altitude_m: 0.0
  release_time: '2026-04-14T19:40:00Z'
  due_time: '2026-04-14T20:40:00Z'
  required_duration_s: 55
  required_sensor_type: visible
  weight: 3.0
- task_id: task_0138
  name: "Santiago de Quer\xE9taro, MX"
  latitude_deg: 20.58806
  longitude_deg: -100.38806
  altitude_m: 0.0
  release_time: '2026-04-14T20:01:00Z'
  due_time: '2026-04-14T22:01:00Z'
  required_duration_s: 25
  required_sensor_type: visible
  weight: 3.0
- task_id: task_0139
  name: Berlin, DE
  latitude_deg: 52.52437
  longitude_deg: 13.41053
  altitude_m: 0.0
  release_time: '2026-04-14T14:20:00Z'
  due_time: '2026-04-14T15:20:00Z'
  required_duration_s: 80
  required_sensor_type: infrared
  weight: 5.0
- task_id: task_0140
  name: background_0192
  latitude_deg: 45.484442
  longitude_deg: -68.225262
  altitude_m: 0.0
  release_time: '2026-04-14T17:17:30Z'
  due_time: '2026-04-14T17:32:30Z'
  required_duration_s: 80
  required_sensor_type: visible
  weight: 1.5
- task_id: task_0141
  name: background_0032
  latitude_deg: 55.283584
  longitude_deg: 156.475013
  altitude_m: 0.0
  release_time: '2026-04-14T17:30:00Z'
  due_time: '2026-04-14T17:50:00Z'
  required_duration_s: 15
  required_sensor_type: visible
  weight: 1.0
- task_id: task_0142
  name: background_0112
  latitude_deg: 2.73613
  longitude_deg: 34.341603
  altitude_m: 0.0
  release_time: '2026-04-14T19:55:00Z'
  due_time: '2026-04-14T20:25:00Z'
  required_duration_s: 50
  required_sensor_type: infrared
  weight: 1.5
- task_id: task_0143
  name: Montes Claros, BR
  latitude_deg: -16.735
  longitude_deg: -43.86167
  altitude_m: 0.0
  release_time: '2026-04-14T14:20:00Z'
  due_time: '2026-04-14T15:00:00Z'
  required_duration_s: 20
  required_sensor_type: visible
  weight: 4.0
- task_id: task_0144
  name: Pyongyang, KP
  latitude_deg: 39.03385
  longitude_deg: 125.75432
  altitude_m: 0.0
  release_time: '2026-04-14T17:22:30Z'
  due_time: '2026-04-14T17:37:30Z'
  required_duration_s: 30
  required_sensor_type: visible
  weight: 3.0
- task_id: task_0145
  name: Ordos, CN
  latitude_deg: 39.6086
  longitude_deg: 109.78157
  altitude_m: 0.0
  release_time: '2026-04-14T19:35:00Z'
  due_time: '2026-04-14T19:55:00Z'
  required_duration_s: 50
  required_sensor_type: visible
  weight: 5.0
- task_id: task_0146
  name: background_0009
  latitude_deg: -8.608536
  longitude_deg: -57.875516
  altitude_m: 0.0
  release_time: '2026-04-14T15:52:30Z'
  due_time: '2026-04-14T16:52:30Z'
  required_duration_s: 25
  required_sensor_type: visible
  weight: 1.0
- task_id: task_0147
  name: Lahore, PK
  latitude_deg: 31.558
  longitude_deg: 74.35071
  altitude_m: 0.0
  release_time: '2026-04-14T16:20:50Z'
  due_time: '2026-04-14T18:20:50Z'
  required_duration_s: 60
  required_sensor_type: visible
  weight: 5.0
- task_id: task_0148
  name: background_0155
  latitude_deg: 9.074423
  longitude_deg: 99.31355
  altitude_m: 0.0
  release_time: '2026-04-14T22:30:00Z'
  due_time: '2026-04-15T00:00:00Z'
  required_duration_s: 60
  required_sensor_type: visible
  weight: 2.0
- task_id: task_0149
  name: background_0117
  latitude_deg: 33.712676
  longitude_deg: 70.451451
  altitude_m: 0.0
  release_time: '2026-04-14T21:53:55Z'
  due_time: '2026-04-14T22:23:55Z'
  required_duration_s: 70
  required_sensor_type: visible
  weight: 1.0
- task_id: task_0150
  name: "Macei\xF3, BR"
  latitude_deg: -9.66583
  longitude_deg: -35.73528
  altitude_m: 0.0
  release_time: '2026-04-14T12:22:30Z'
  due_time: '2026-04-14T12:37:30Z'
  required_duration_s: 50
  required_sensor_type: visible
  weight: 5.0
- task_id: task_0151
  name: background_0140
  latitude_deg: 46.07415
  longitude_deg: 111.047051
  altitude_m: 0.0
  release_time: '2026-04-14T19:20:00Z'
  due_time: '2026-04-14T20:20:00Z'
  required_duration_s: 60
  required_sensor_type: visible
  weight: 1.0
- task_id: task_0152
  name: background_0070
  latitude_deg: -2.520505
  longitude_deg: -65.432055
  altitude_m: 0.0
  release_time: '2026-04-14T14:23:20Z'
  due_time: '2026-04-14T14:53:20Z'
  required_duration_s: 15
  required_sensor_type: visible
  weight: 2.0
- task_id: task_0153
  name: background_0041
  latitude_deg: -78.2764
  longitude_deg: 13.662558
  altitude_m: 0.0
  release_time: '2026-04-14T14:25:00Z'
  due_time: '2026-04-14T14:55:00Z'
  required_duration_s: 35
  required_sensor_type: visible
  weight: 1.5
- task_id: task_0154
  name: background_0087
  latitude_deg: -34.973876
  longitude_deg: 139.778165
  altitude_m: 0.0
  release_time: '2026-04-14T22:30:00Z'
  due_time: '2026-04-15T00:00:00Z'
  required_duration_s: 15
  required_sensor_type: visible
  weight: 1.0
- task_id: task_0155
  name: background_0001
  latitude_deg: 36.618052
  longitude_deg: -104.256802
  altitude_m: 0.0
  release_time: '2026-04-14T21:01:45Z'
  due_time: '2026-04-14T21:31:45Z'
  required_duration_s: 40
  required_sensor_type: visible
  weight: 1.0
- task_id: task_0156
  name: Santiago de los Caballeros, DO
  latitude_deg: 19.45036
  longitude_deg: -70.69085
  altitude_m: 0.0
  release_time: '2026-04-14T19:40:00Z'
  due_time: '2026-04-14T20:10:00Z'
  required_duration_s: 80
  required_sensor_type: infrared
  weight: 5.0
- task_id: task_0157
  name: Surat, IN
  latitude_deg: 21.19594
  longitude_deg: 72.83023
  altitude_m: 0.0
  release_time: '2026-04-14T21:22:45Z'
  due_time: '2026-04-14T23:22:45Z'
  required_duration_s: 30
  required_sensor_type: visible
  weight: 4.0
- task_id: task_0158
  name: Ibadan, NG
  latitude_deg: 7.37756
  longitude_deg: 3.90591
  altitude_m: 0.0
  release_time: '2026-04-14T12:00:00Z'
  due_time: '2026-04-14T13:00:00Z'
  required_duration_s: 70
  required_sensor_type: visible
  weight: 3.0
- task_id: task_0159
  name: Bandung, ID
  latitude_deg: -6.92222
  longitude_deg: 107.60694
  altitude_m: 0.0
  release_time: '2026-04-14T15:57:10Z'
  due_time: '2026-04-14T17:27:10Z'
  required_duration_s: 55
  required_sensor_type: visible
  weight: 3.0
- task_id: task_0160
  name: background_0153
  latitude_deg: -26.415429
  longitude_deg: 139.028059
  altitude_m: 0.0
  release_time: '2026-04-14T14:40:00Z'
  due_time: '2026-04-14T15:00:00Z'
  required_duration_s: 85
  required_sensor_type: visible
  weight: 2.0
- task_id: task_0161
  name: background_0085
  latitude_deg: 1.654802
  longitude_deg: -75.619454
  altitude_m: 0.0
  release_time: '2026-04-14T14:30:00Z'
  due_time: '2026-04-14T14:50:00Z'
  required_duration_s: 85
  required_sensor_type: visible
  weight: 2.0
- task_id: task_0162
  name: "Qu\xE9bec, CA"
  latitude_deg: 46.81228
  longitude_deg: -71.21454
  altitude_m: 0.0
  release_time: '2026-04-14T19:01:10Z'
  due_time: '2026-04-14T19:31:10Z'
  required_duration_s: 20
  required_sensor_type: visible
  weight: 3.0
- task_id: task_0163
  name: background_0188
  latitude_deg: -71.161929
  longitude_deg: 99.649331
  altitude_m: 0.0
  release_time: '2026-04-14T12:00:00Z'
  due_time: '2026-04-14T14:00:00Z'
  required_duration_s: 40
  required_sensor_type: visible
  weight: 1.5
- task_id: task_0164
  name: Haikou, CN
  latitude_deg: 20.03421
  longitude_deg: 110.34651
  altitude_m: 0.0
  release_time: '2026-04-14T12:22:30Z'
  due_time: '2026-04-14T12:37:30Z'
  required_duration_s: 85
  required_sensor_type: visible
  weight: 5.0
- task_id: task_0165
  name: Wanzhou, CN
  latitude_deg: 30.76451
  longitude_deg: 108.39586
  altitude_m: 0.0
  release_time: '2026-04-14T12:00:00Z'
  due_time: '2026-04-14T13:30:00Z'
  required_duration_s: 45
  required_sensor_type: visible
  weight: 5.0
- task_id: task_0166
  name: background_0194
  latitude_deg: 0.387265
  longitude_deg: -52.495603
  altitude_m: 0.0
  release_time: '2026-04-14T19:55:00Z'
  due_time: '2026-04-14T20:35:00Z'
  required_duration_s: 25
  required_sensor_type: infrared
  weight: 1.5
- task_id: task_0167
  name: Changshu, CN
  latitude_deg: 31.64615
  longitude_deg: 120.74221
  altitude_m: 0.0
  release_time: '2026-04-14T17:39:30Z'
  due_time: '2026-04-14T19:39:30Z'
  required_duration_s: 80
  required_sensor_type: infrared
  weight: 4.0
- task_id: task_0168
  name: Hong Kong, HK
  latitude_deg: 22.27832
  longitude_deg: 114.17469
  altitude_m: 0.0
  release_time: '2026-04-14T14:46:35Z'
  due_time: '2026-04-14T16:46:35Z'
  required_duration_s: 70
  required_sensor_type: visible
  weight: 4.0
- task_id: task_0169
  name: Harbin, CN
  latitude_deg: 45.75
  longitude_deg: 126.65
  altitude_m: 0.0
  release_time: '2026-04-14T14:34:15Z'
  due_time: '2026-04-14T15:04:15Z'
  required_duration_s: 50
  required_sensor_type: infrared
  weight: 3.0
- task_id: task_0170
  name: background_0101
  latitude_deg: 75.76241
  longitude_deg: -114.423739
  altitude_m: 0.0
  release_time: '2026-04-14T14:45:00Z'
  due_time: '2026-04-14T15:05:00Z'
  required_duration_s: 75
  required_sensor_type: infrared
  weight: 2.0
- task_id: task_0171
  name: background_0151
  latitude_deg: -18.046198
  longitude_deg: 143.250159
  altitude_m: 0.0
  release_time: '2026-04-14T12:25:00Z'
  due_time: '2026-04-14T12:45:00Z'
  required_duration_s: 70
  required_sensor_type: infrared
  weight: 1.5
- task_id: task_0172
  name: background_0104
  latitude_deg: -2.007698
  longitude_deg: -79.103821
  altitude_m: 0.0
  release_time: '2026-04-14T20:31:55Z'
  due_time: '2026-04-14T21:01:55Z'
  required_duration_s: 65
  required_sensor_type: visible
  weight: 1.5
- task_id: task_0173
  name: background_0165
  latitude_deg: 40.197957
  longitude_deg: 110.579278
  altitude_m: 0.0
  release_time: '2026-04-14T19:30:00Z'
  due_time: '2026-04-14T20:10:00Z'
  required_duration_s: 60
  required_sensor_type: visible
  weight: 2.0
- task_id: task_0174
  name: background_0018
  latitude_deg: -20.173739
  longitude_deg: -52.904658
  altitude_m: 0.0
  release_time: '2026-04-14T19:37:30Z'
  due_time: '2026-04-14T19:52:30Z'
  required_duration_s: 30
  required_sensor_type: infrared
  weight: 1.0
- task_id: task_0175
  name: Abidjan, CI
  latitude_deg: 5.35444
  longitude_deg: -4.00167
  altitude_m: 0.0
  release_time: '2026-04-14T12:20:00Z'
  due_time: '2026-04-14T12:40:00Z'
  required_duration_s: 50
  required_sensor_type: visible
  weight: 4.0
- task_id: task_0176
  name: Changchun, CN
  latitude_deg: 43.88
  longitude_deg: 125.32278
  altitude_m: 0.0
  release_time: '2026-04-14T19:40:00Z'
  due_time: '2026-04-14T20:40:00Z'
  required_duration_s: 35
  required_sensor_type: visible
  weight: 3.0
- task_id: task_0177
  name: Shiyan, CN
  latitude_deg: 32.6475
  longitude_deg: 110.77806
  altitude_m: 0.0
  release_time: '2026-04-14T17:17:30Z'
  due_time: '2026-04-14T17:32:30Z'
  required_duration_s: 30
  required_sensor_type: visible
  weight: 3.0
- task_id: task_0178
  name: background_0124
  latitude_deg: 27.009897
  longitude_deg: 38.159299
  altitude_m: 0.0
  release_time: '2026-04-14T19:30:00Z'
  due_time: '2026-04-14T21:00:00Z'
  required_duration_s: 60
  required_sensor_type: visible
  weight: 2.0
- task_id: task_0179
  name: Las Vegas, US
  latitude_deg: 36.17497
  longitude_deg: -115.13722
  altitude_m: 0.0
  release_time: '2026-04-14T14:05:00Z'
  due_time: '2026-04-14T14:45:00Z'
  required_duration_s: 65
  required_sensor_type: visible
  weight: 3.0
- task_id: task_0180
  name: Osasco, BR
  latitude_deg: -23.5325
  longitude_deg: -46.79167
  altitude_m: 0.0
  release_time: '2026-04-14T12:10:00Z'
  due_time: '2026-04-14T13:10:00Z'
  required_duration_s: 40
  required_sensor_type: infrared
  weight: 5.0
- task_id: task_0181
  name: background_0150
  latitude_deg: 64.626842
  longitude_deg: -51.443127
  altitude_m: 0.0
  release_time: '2026-04-14T19:16:00Z'
  due_time: '2026-04-14T20:46:00Z'
  required_duration_s: 35
  required_sensor_type: infrared
  weight: 2.0
- task_id: task_0182
  name: Jinan, CN
  latitude_deg: 36.66833
  longitude_deg: 116.99722
  altitude_m: 0.0
  release_time: '2026-04-14T17:00:00Z'
  due_time: '2026-04-14T18:00:00Z'
  required_duration_s: 45
  required_sensor_type: visible
  weight: 4.0
- task_id: task_0183
  name: background_0152
  latitude_deg: 7.602465
  longitude_deg: 7.403323
  altitude_m: 0.0
  release_time: '2026-04-14T14:25:00Z'
  due_time: '2026-04-14T14:45:00Z'
  required_duration_s: 30
  required_sensor_type: visible
  weight: 2.0
- task_id: task_0184
  name: background_0045
  latitude_deg: -85.147751
  longitude_deg: 144.50054
  altitude_m: 0.0
  release_time: '2026-04-14T14:47:30Z'
  due_time: '2026-04-14T15:02:30Z'
  required_duration_s: 15
  required_sensor_type: infrared
  weight: 1.5
- task_id: task_0185
  name: Mianyang, CN
  latitude_deg: 31.46784
  longitude_deg: 104.68168
  altitude_m: 0.0
  release_time: '2026-04-14T22:06:30Z'
  due_time: '2026-04-14T22:36:30Z'
  required_duration_s: 45
  required_sensor_type: visible
  weight: 3.0
- task_id: task_0186
  name: Chaozhou, CN
  latitude_deg: 23.65396
  longitude_deg: 116.62262
  altitude_m: 0.0
  release_time: '2026-04-14T14:15:00Z'
  due_time: '2026-04-14T14:35:00Z'
  required_duration_s: 70
  required_sensor_type: visible
  weight: 5.0
- task_id: task_0187
  name: Nashville, US
  latitude_deg: 36.16589
  longitude_deg: -86.78444
  altitude_m: 0.0
  release_time: '2026-04-14T19:43:55Z'
  due_time: '2026-04-14T20:43:55Z'
  required_duration_s: 20
  required_sensor_type: visible
  weight: 4.0
- task_id: task_0188
  name: Lianyungang, CN
  latitude_deg: 34.59845
  longitude_deg: 119.21556
  altitude_m: 0.0
  release_time: '2026-04-14T21:53:55Z'
  due_time: '2026-04-14T22:23:55Z'
  required_duration_s: 35
  required_sensor_type: infrared
  weight: 4.0
- task_id: task_0189
  name: background_0164
  latitude_deg: 45.194864
  longitude_deg: 46.682311
  altitude_m: 0.0
  release_time: '2026-04-14T12:00:00Z'
  due_time: '2026-04-14T13:00:00Z'
  required_duration_s: 15
  required_sensor_type: infrared
  weight: 2.0
- task_id: task_0190
  name: background_0019
  latitude_deg: -37.422167
  longitude_deg: -65.254873
  altitude_m: 0.0
  release_time: '2026-04-14T14:47:30Z'
  due_time: '2026-04-14T15:02:30Z'
  required_duration_s: 15
  required_sensor_type: visible
  weight: 1.0
- task_id: task_0191
  name: background_0092
  latitude_deg: -76.342767
  longitude_deg: -129.95515
  altitude_m: 0.0
  release_time: '2026-04-14T15:37:25Z'
  due_time: '2026-04-14T17:07:25Z'
  required_duration_s: 85
  required_sensor_type: infrared
  weight: 1.0
- task_id: task_0192
  name: background_0142
  latitude_deg: -25.106777
  longitude_deg: 28.718811
  altitude_m: 0.0
  release_time: '2026-04-14T20:23:25Z'
  due_time: '2026-04-14T22:23:25Z'
  required_duration_s: 85
  required_sensor_type: visible
  weight: 2.0
- task_id: task_0193
  name: background_0170
  latitude_deg: -4.910352
  longitude_deg: -60.648764
  altitude_m: 0.0
  release_time: '2026-04-14T14:20:00Z'
  due_time: '2026-04-14T15:20:00Z'
  required_duration_s: 35
  required_sensor_type: visible
  weight: 2.0
- task_id: task_0194
  name: background_0100
  latitude_deg: -24.808571
  longitude_deg: -53.933859
  altitude_m: 0.0
  release_time: '2026-04-14T19:15:00Z'
  due_time: '2026-04-14T20:15:00Z'
  required_duration_s: 75
  required_sensor_type: visible
  weight: 1.0
- task_id: task_0195
  name: Manizales, CO
  latitude_deg: 5.0668
  longitude_deg: -75.50684
  altitude_m: 0.0
  release_time: '2026-04-14T19:30:05Z'
  due_time: '2026-04-14T21:30:05Z'
  required_duration_s: 50
  required_sensor_type: visible
  weight: 4.0
- task_id: task_0196
  name: Liupanshui, CN
  latitude_deg: 26.59444
  longitude_deg: 104.83333
  altitude_m: 0.0
  release_time: '2026-04-14T14:05:00Z'
  due_time: '2026-04-14T14:45:00Z'
  required_duration_s: 30
  required_sensor_type: visible
  weight: 4.0
- task_id: task_0197
  name: Yunfu, CN
  latitude_deg: 22.92787
  longitude_deg: 112.03809
  altitude_m: 0.0
  release_time: '2026-04-14T16:58:10Z'
  due_time: '2026-04-14T18:28:10Z'
  required_duration_s: 55
  required_sensor_type: visible
  weight: 3.0
- task_id: task_0198
  name: Trujillo, PE
  latitude_deg: -8.11599
  longitude_deg: -79.02998
  altitude_m: 0.0
  release_time: '2026-04-14T20:00:00Z'
  due_time: '2026-04-14T20:30:00Z'
  required_duration_s: 55
  required_sensor_type: visible
  weight: 5.0
- task_id: task_0199
  name: background_0166
  latitude_deg: -79.453865
  longitude_deg: 78.731451
  altitude_m: 0.0
  release_time: '2026-04-14T22:27:00Z'
  due_time: '2026-04-14T22:57:00Z'
  required_duration_s: 20
  required_sensor_type: visible
  weight: 2.0
- task_id: task_0200
  name: background_0083
  latitude_deg: 39.447427
  longitude_deg: 122.005519
  altitude_m: 0.0
  release_time: '2026-04-14T19:37:30Z'
  due_time: '2026-04-14T19:52:30Z'
  required_duration_s: 55
  required_sensor_type: visible
  weight: 1.5
- task_id: task_0201
  name: Lubumbashi, CD
  latitude_deg: -11.66089
  longitude_deg: 27.47938
  altitude_m: 0.0
  release_time: '2026-04-14T14:00:00Z'
  due_time: '2026-04-14T15:30:00Z'
  required_duration_s: 80
  required_sensor_type: infrared
  weight: 5.0
- task_id: task_0202
  name: Pereira, CO
  latitude_deg: 4.81428
  longitude_deg: -75.69488
  altitude_m: 0.0
  release_time: '2026-04-14T19:35:00Z'
  due_time: '2026-04-14T20:35:00Z'
  required_duration_s: 75
  required_sensor_type: infrared
  weight: 4.0
- task_id: task_0203
  name: background_0135
  latitude_deg: 53.556814
  longitude_deg: 103.806215
  altitude_m: 0.0
  release_time: '2026-04-14T13:45:00Z'
  due_time: '2026-04-14T15:15:00Z'
  required_duration_s: 20
  required_sensor_type: infrared
  weight: 1.5
- task_id: task_0204
  name: Pretoria, ZA
  latitude_deg: -25.74486
  longitude_deg: 28.18783
  altitude_m: 0.0
  release_time: '2026-04-14T14:05:00Z'
  due_time: '2026-04-14T15:35:00Z'
  required_duration_s: 80
  required_sensor_type: visible
  weight: 3.0
- task_id: task_0205
  name: Novosibirsk, RU
  latitude_deg: 55.02259
  longitude_deg: 82.93175
  altitude_m: 0.0
  release_time: '2026-04-14T12:00:00Z'
  due_time: '2026-04-14T13:00:00Z'
  required_duration_s: 35
  required_sensor_type: visible
  weight: 5.0
- task_id: task_0206
  name: Baghdad, IQ
  latitude_deg: 33.34058
  longitude_deg: 44.40088
  altitude_m: 0.0
  release_time: '2026-04-14T14:25:00Z'
  due_time: '2026-04-14T15:25:00Z'
  required_duration_s: 70
  required_sensor_type: visible
  weight: 4.0
- task_id: task_0207
  name: Karachi, PK
  latitude_deg: 24.8608
  longitude_deg: 67.0104
  altitude_m: 0.0
  release_time: '2026-04-14T14:31:30Z'
  due_time: '2026-04-14T15:01:30Z'
  required_duration_s: 25
  required_sensor_type: visible
  weight: 3.0
- task_id: task_0208
  name: Nanjing, CN
  latitude_deg: 32.06167
  longitude_deg: 118.77778
  altitude_m: 0.0
  release_time: '2026-04-14T12:32:30Z'
  due_time: '2026-04-14T12:47:30Z'
  required_duration_s: 40
  required_sensor_type: infrared
  weight: 3.0
- task_id: task_0209
  name: Seattle, US
  latitude_deg: 47.60621
  longitude_deg: -122.33207
  altitude_m: 0.0
  release_time: '2026-04-14T15:53:30Z'
  due_time: '2026-04-14T17:23:30Z'
  required_duration_s: 85
  required_sensor_type: visible
  weight: 5.0
- task_id: task_0210
  name: Seoul, KR
  latitude_deg: 37.566
  longitude_deg: 126.9784
  altitude_m: 0.0
  release_time: '2026-04-14T17:05:00Z'
  due_time: '2026-04-14T17:45:00Z'
  required_duration_s: 50
  required_sensor_type: visible
  weight: 5.0
- task_id: task_0211
  name: Zhuhai, CN
  latitude_deg: 22.27694
  longitude_deg: 113.56778
  altitude_m: 0.0
  release_time: '2026-04-14T12:37:30Z'
  due_time: '2026-04-14T12:52:30Z'
  required_duration_s: 55
  required_sensor_type: infrared
  weight: 3.0
- task_id: task_0212
  name: background_0081
  latitude_deg: 40.100623
  longitude_deg: 122.046257
  altitude_m: 0.0
  release_time: '2026-04-14T18:19:10Z'
  due_time: '2026-04-14T18:49:10Z'
  required_duration_s: 35
  required_sensor_type: visible
  weight: 2.0
- task_id: task_0213
  name: Taizhou, CN
  latitude_deg: 32.49069
  longitude_deg: 119.90812
  altitude_m: 0.0
  release_time: '2026-04-14T12:15:00Z'
  due_time: '2026-04-14T12:35:00Z'
  required_duration_s: 90
  required_sensor_type: visible
  weight: 5.0
- task_id: task_0214
  name: Tashkent, UZ
  latitude_deg: 41.26465
  longitude_deg: 69.21627
  altitude_m: 0.0
  release_time: '2026-04-14T14:35:00Z'
  due_time: '2026-04-14T15:15:00Z'
  required_duration_s: 20
  required_sensor_type: visible
  weight: 5.0
- task_id: task_0215
  name: Taiyuan, CN
  latitude_deg: 37.86944
  longitude_deg: 112.56028
  altitude_m: 0.0
  release_time: '2026-04-14T14:15:00Z'
  due_time: '2026-04-14T14:45:00Z'
  required_duration_s: 15
  required_sensor_type: infrared
  weight: 5.0
- task_id: task_0216
  name: background_0168
  latitude_deg: 34.097539
  longitude_deg: -111.475725
  altitude_m: 0.0
  release_time: '2026-04-14T12:20:00Z'
  due_time: '2026-04-14T12:50:00Z'
  required_duration_s: 45
  required_sensor_type: visible
  weight: 1.5
- task_id: task_0217
  name: Kallakurichi, IN
  latitude_deg: 11.73379
  longitude_deg: 78.95925
  altitude_m: 0.0
  release_time: '2026-04-14T14:10:00Z'
  due_time: '2026-04-14T15:10:00Z'
  required_duration_s: 65
  required_sensor_type: visible
  weight: 5.0
- task_id: task_0218
  name: Weifang, CN
  latitude_deg: 36.71
  longitude_deg: 119.10194
  altitude_m: 0.0
  release_time: '2026-04-14T17:05:00Z'
  due_time: '2026-04-14T18:35:00Z'
  required_duration_s: 45
  required_sensor_type: visible
  weight: 5.0
- task_id: task_0219
  name: background_0078
  latitude_deg: 64.003523
  longitude_deg: -51.689796
  altitude_m: 0.0
  release_time: '2026-04-14T14:25:00Z'
  due_time: '2026-04-14T14:55:00Z'
  required_duration_s: 50
  required_sensor_type: visible
  weight: 2.0
- task_id: task_0220
  name: background_0072
  latitude_deg: -85.031881
  longitude_deg: -120.841413
  altitude_m: 0.0
  release_time: '2026-04-14T17:25:00Z'
  due_time: '2026-04-14T17:45:00Z'
  required_duration_s: 50
  required_sensor_type: infrared
  weight: 1.5
- task_id: task_0221
  name: "Ibagu\xE9, CO"
  latitude_deg: 4.43573
  longitude_deg: -75.20289
  altitude_m: 0.0
  release_time: '2026-04-14T17:25:00Z'
  due_time: '2026-04-14T17:55:00Z'
  required_duration_s: 15
  required_sensor_type: visible
  weight: 3.0
- task_id: task_0222
  name: background_0088
  latitude_deg: 58.921498
  longitude_deg: 121.315666
  altitude_m: 0.0
  release_time: '2026-04-14T21:18:00Z'
  due_time: '2026-04-14T23:18:00Z'
  required_duration_s: 90
  required_sensor_type: visible
  weight: 1.5
- task_id: task_0223
  name: Melbourne, AU
  latitude_deg: -37.814
  longitude_deg: 144.96332
  altitude_m: 0.0
  release_time: '2026-04-14T12:18:25Z'
  due_time: '2026-04-14T14:18:25Z'
  required_duration_s: 70
  required_sensor_type: visible
  weight: 5.0
- task_id: task_0224
  name: Guayaquil, EC
  latitude_deg: -2.19616
  longitude_deg: -79.88621
  altitude_m: 0.0
  release_time: '2026-04-14T12:20:00Z'
  due_time: '2026-04-14T13:00:00Z'
  required_duration_s: 20
  required_sensor_type: visible
  weight: 5.0
- task_id: task_0225
  name: background_0185
  latitude_deg: -87.367595
  longitude_deg: 62.781393
  altitude_m: 0.0
  release_time: '2026-04-14T19:15:00Z'
  due_time: '2026-04-14T20:45:00Z'
  required_duration_s: 15
  required_sensor_type: visible
  weight: 2.0
- task_id: task_0226
  name: background_0040
  latitude_deg: -6.356322
  longitude_deg: -39.146409
  altitude_m: 0.0
  release_time: '2026-04-14T12:43:25Z'
  due_time: '2026-04-14T14:13:25Z'
  required_duration_s: 85
  required_sensor_type: visible
  weight: 1.5
- task_id: task_0227
  name: background_0059
  latitude_deg: 36.984714
  longitude_deg: 98.411075
  altitude_m: 0.0
  release_time: '2026-04-14T12:57:45Z'
  due_time: '2026-04-14T14:57:45Z'
  required_duration_s: 60
  required_sensor_type: visible
  weight: 1.5
- task_id: task_0228
  name: background_0102
  latitude_deg: 44.96072
  longitude_deg: -86.65447
  altitude_m: 0.0
  release_time: '2026-04-14T17:10:00Z'
  due_time: '2026-04-14T17:50:00Z'
  required_duration_s: 45
  required_sensor_type: visible
  weight: 2.0
- task_id: task_0229
  name: Hanoi, VN
  latitude_deg: 21.0245
  longitude_deg: 105.84117
  altitude_m: 0.0
  release_time: '2026-04-14T12:45:00Z'
  due_time: '2026-04-14T14:15:00Z'
  required_duration_s: 15
  required_sensor_type: visible
  weight: 4.0
- task_id: task_0230
  name: "San Luis Potos\xED, MX"
  latitude_deg: 22.15234
  longitude_deg: -100.97135
  altitude_m: 0.0
  release_time: '2026-04-14T12:15:00Z'
  due_time: '2026-04-14T12:35:00Z'
  required_duration_s: 50
  required_sensor_type: visible
  weight: 3.0
- task_id: task_0231
  name: "\u0130zmir, TR"
  latitude_deg: 38.41273
  longitude_deg: 27.13838
  altitude_m: 0.0
  release_time: '2026-04-14T14:15:00Z'
  due_time: '2026-04-14T14:55:00Z'
  required_duration_s: 65
  required_sensor_type: visible
  weight: 3.0
- task_id: task_0232
  name: background_0013
  latitude_deg: -37.656229
  longitude_deg: -62.745734
  altitude_m: 0.0
  release_time: '2026-04-14T22:17:20Z'
  due_time: '2026-04-14T23:17:20Z'
  required_duration_s: 45
  required_sensor_type: visible
  weight: 1.5
- task_id: task_0233
  name: background_0107
  latitude_deg: -24.113321
  longitude_deg: 140.812429
  altitude_m: 0.0
  release_time: '2026-04-14T17:40:00Z'
  due_time: '2026-04-14T18:00:00Z'
  required_duration_s: 35
  required_sensor_type: infrared
  weight: 1.0
- task_id: task_0234
  name: background_0077
  latitude_deg: -80.877466
  longitude_deg: -144.304894
  altitude_m: 0.0
  release_time: '2026-04-14T17:20:00Z'
  due_time: '2026-04-14T17:40:00Z'
  required_duration_s: 90
  required_sensor_type: visible
  weight: 1.5
- task_id: task_0235
  name: Londrina, BR
  latitude_deg: -23.31028
  longitude_deg: -51.16278
  altitude_m: 0.0
  release_time: '2026-04-14T16:20:45Z'
  due_time: '2026-04-14T17:50:45Z'
  required_duration_s: 85
  required_sensor_type: infrared
  weight: 5.0
- task_id: task_0236
  name: background_0181
  latitude_deg: -17.070605
  longitude_deg: 25.659446
  altitude_m: 0.0
  release_time: '2026-04-14T14:15:00Z'
  due_time: '2026-04-14T15:15:00Z'
  required_duration_s: 25
  required_sensor_type: visible
  weight: 1.5
- task_id: task_0237
  name: background_0065
  latitude_deg: 36.390198
  longitude_deg: 118.879597
  altitude_m: 0.0
  release_time: '2026-04-14T12:12:30Z'
  due_time: '2026-04-14T12:27:30Z'
  required_duration_s: 60
  required_sensor_type: visible
  weight: 2.0
- task_id: task_0238
  name: Mississauga, CA
  latitude_deg: 43.5789
  longitude_deg: -79.6583
  altitude_m: 0.0
  release_time: '2026-04-14T12:00:00Z'
  due_time: '2026-04-14T13:30:00Z'
  required_duration_s: 85
  required_sensor_type: visible
  weight: 5.0
- task_id: task_0239
  name: background_0090
  latitude_deg: 38.238352
  longitude_deg: -76.7142
  altitude_m: 0.0
  release_time: '2026-04-14T19:40:00Z'
  due_time: '2026-04-14T20:20:00Z'
  required_duration_s: 65
  required_sensor_type: visible
  weight: 1.0
- task_id: task_0240
  name: Dalian, CN
  latitude_deg: 38.91222
  longitude_deg: 121.60222
  altitude_m: 0.0
  release_time: '2026-04-14T19:30:00Z'
  due_time: '2026-04-14T20:30:00Z'
  required_duration_s: 80
  required_sensor_type: visible
  weight: 5.0
- task_id: task_0241
  name: background_0058
  latitude_deg: 41.329423
  longitude_deg: -5.136555
  altitude_m: 0.0
  release_time: '2026-04-14T19:35:00Z'
  due_time: '2026-04-14T19:55:00Z'
  required_duration_s: 60
  required_sensor_type: infrared
  weight: 2.0
- task_id: task_0242
  name: Guatemala City, GT
  latitude_deg: 14.64072
  longitude_deg: -90.51327
  altitude_m: 0.0
  release_time: '2026-04-14T12:00:00Z'
  due_time: '2026-04-14T13:00:00Z'
  required_duration_s: 70
  required_sensor_type: visible
  weight: 3.0
- task_id: task_0243
  name: "S\xE3o Jos\xE9 do Rio Preto, BR"
  latitude_deg: -20.81972
  longitude_deg: -49.37944
  altitude_m: 0.0
  release_time: '2026-04-14T19:35:00Z'
  due_time: '2026-04-14T20:35:00Z'
  required_duration_s: 90
  required_sensor_type: visible
  weight: 5.0
- task_id: task_0244
  name: San Francisco, US
  latitude_deg: 37.77493
  longitude_deg: -122.41942
  altitude_m: 0.0
  release_time: '2026-04-14T18:01:10Z'
  due_time: '2026-04-14T20:01:10Z'
  required_duration_s: 20
  required_sensor_type: visible
  weight: 3.0
- task_id: task_0245
  name: background_0175
  latitude_deg: 17.430974
  longitude_deg: -96.829065
  altitude_m: 0.0
  release_time: '2026-04-14T17:10:00Z'
  due_time: '2026-04-14T17:50:00Z'
  required_duration_s: 85
  required_sensor_type: visible
  weight: 1.0
- task_id: task_0246
  name: background_0200
  latitude_deg: 57.97285
  longitude_deg: -125.907888
  altitude_m: 0.0
  release_time: '2026-04-14T19:08:25Z'
  due_time: '2026-04-14T20:08:25Z'
  required_duration_s: 60
  required_sensor_type: visible
  weight: 1.0
- task_id: task_0247
  name: Albuquerque, US
  latitude_deg: 35.08449
  longitude_deg: -106.65114
  altitude_m: 0.0
  release_time: '2026-04-14T13:55:00Z'
  due_time: '2026-04-14T15:25:00Z'
  required_duration_s: 60
  required_sensor_type: visible
  weight: 3.0
- task_id: task_0248
  name: Nagpur, IN
  latitude_deg: 21.14631
  longitude_deg: 79.08491
  altitude_m: 0.0
  release_time: '2026-04-14T12:00:00Z'
  due_time: '2026-04-14T12:40:00Z'
  required_duration_s: 45
  required_sensor_type: visible
  weight: 4.0
- task_id: task_0249
  name: Indianapolis, US
  latitude_deg: 39.76838
  longitude_deg: -86.15804
  altitude_m: 0.0
  release_time: '2026-04-14T12:27:30Z'
  due_time: '2026-04-14T12:42:30Z'
  required_duration_s: 90
  required_sensor_type: visible
  weight: 3.0
- task_id: task_0250
  name: Onitsha, NG
  latitude_deg: 6.14978
  longitude_deg: 6.78569
  altitude_m: 0.0
  release_time: '2026-04-14T12:07:30Z'
  due_time: '2026-04-14T12:22:30Z'
  required_duration_s: 50
  required_sensor_type: visible
  weight: 4.0
- task_id: task_0251
  name: Suzhou, CN
  latitude_deg: 33.63611
  longitude_deg: 116.97889
  altitude_m: 0.0
  release_time: '2026-04-14T17:10:00Z'
  due_time: '2026-04-14T17:50:00Z'
  required_duration_s: 50
  required_sensor_type: visible
  weight: 3.0
- task_id: task_0252
  name: Monrovia, LR
  latitude_deg: 6.30054
  longitude_deg: -10.7969
  altitude_m: 0.0
  release_time: '2026-04-14T12:00:00Z'
  due_time: '2026-04-14T13:30:00Z'
  required_duration_s: 25
  required_sensor_type: visible
  weight: 3.0
- task_id: task_0253
  name: background_0031
  latitude_deg: 61.406605
  longitude_deg: -132.110107
  altitude_m: 0.0
  release_time: '2026-04-14T19:40:00Z'
  due_time: '2026-04-14T20:40:00Z'
  required_duration_s: 85
  required_sensor_type: visible
  weight: 1.0
- task_id: task_0254
  name: Tainan, TW
  latitude_deg: 22.99083
  longitude_deg: 120.21333
  altitude_m: 0.0
  release_time: '2026-04-14T19:55:00Z'
  due_time: '2026-04-14T20:25:00Z'
  required_duration_s: 90
  required_sensor_type: visible
  weight: 3.0
- task_id: task_0255
  name: Fresno, US
  latitude_deg: 36.74773
  longitude_deg: -119.77237
  altitude_m: 0.0
  release_time: '2026-04-14T17:42:30Z'
  due_time: '2026-04-14T17:57:30Z'
  required_duration_s: 35
  required_sensor_type: visible
  weight: 3.0
- task_id: task_0256
  name: Santa Cruz de la Sierra, BO
  latitude_deg: -17.78629
  longitude_deg: -63.18117
  altitude_m: 0.0
  release_time: '2026-04-14T22:00:00Z'
  due_time: '2026-04-15T00:00:00Z'
  required_duration_s: 50
  required_sensor_type: visible
  weight: 5.0
- task_id: task_0257
  name: background_0067
  latitude_deg: -83.136272
  longitude_deg: -36.338311
  altitude_m: 0.0
  release_time: '2026-04-14T21:04:55Z'
  due_time: '2026-04-14T21:34:55Z'
  required_duration_s: 35
  required_sensor_type: visible
  weight: 2.0
- task_id: task_0258
  name: Fuyang, CN
  latitude_deg: 32.9
  longitude_deg: 115.81667
  altitude_m: 0.0
  release_time: '2026-04-14T12:00:00Z'
  due_time: '2026-04-14T13:30:00Z'
  required_duration_s: 80
  required_sensor_type: infrared
  weight: 5.0
- task_id: task_0259
  name: Puente Alto, CL
  latitude_deg: -33.61169
  longitude_deg: -70.57577
  altitude_m: 0.0
  release_time: '2026-04-14T12:37:30Z'
  due_time: '2026-04-14T12:52:30Z'
  required_duration_s: 65
  required_sensor_type: visible
  weight: 5.0
- task_id: task_0260
  name: background_0114
  latitude_deg: 58.922739
  longitude_deg: -131.566952
  altitude_m: 0.0
  release_time: '2026-04-14T17:20:00Z'
  due_time: '2026-04-14T17:40:00Z'
  required_duration_s: 70
  required_sensor_type: visible
  weight: 1.0
- task_id: task_0261
  name: Multan, PK
  latitude_deg: 30.19679
  longitude_deg: 71.47824
  altitude_m: 0.0
  release_time: '2026-04-14T12:05:00Z'
  due_time: '2026-04-14T12:45:00Z'
  required_duration_s: 75
  required_sensor_type: visible
  weight: 5.0
- task_id: task_0262
  name: Kumasi, GH
  latitude_deg: 6.68848
  longitude_deg: -1.62443
  altitude_m: 0.0
  release_time: '2026-04-14T12:05:00Z'
  due_time: '2026-04-14T12:35:00Z'
  required_duration_s: 40
  required_sensor_type: visible
  weight: 4.0
- task_id: task_0263
  name: background_0125
  latitude_deg: 61.65447
  longitude_deg: 80.309236
  altitude_m: 0.0
  release_time: '2026-04-14T18:35:10Z'
  due_time: '2026-04-14T19:35:10Z'
  required_duration_s: 40
  required_sensor_type: visible
  weight: 1.5
- task_id: task_0264
  name: San Antonio, US
  latitude_deg: 29.42412
  longitude_deg: -98.49363
  altitude_m: 0.0
  release_time: '2026-04-14T12:21:50Z'
  due_time: '2026-04-14T14:21:50Z'
  required_duration_s: 60
  required_sensor_type: visible
  weight: 4.0
- task_id: task_0265
  name: Santos, BR
  latitude_deg: -23.96083
  longitude_deg: -46.33361
  altitude_m: 0.0
  release_time: '2026-04-14T14:25:00Z'
  due_time: '2026-04-14T15:25:00Z'
  required_duration_s: 25
  required_sensor_type: visible
  weight: 5.0
- task_id: task_0266
  name: Oklahoma City, US
  latitude_deg: 35.46756
  longitude_deg: -97.51643
  altitude_m: 0.0
  release_time: '2026-04-14T14:25:00Z'
  due_time: '2026-04-14T14:45:00Z'
  required_duration_s: 65
  required_sensor_type: visible
  weight: 5.0
- task_id: task_0267
  name: Winnipeg, CA
  latitude_deg: 49.8844
  longitude_deg: -97.14704
  altitude_m: 0.0
  release_time: '2026-04-14T14:15:00Z'
  due_time: '2026-04-14T15:15:00Z'
  required_duration_s: 40
  required_sensor_type: visible
  weight: 5.0
- task_id: task_0268
  name: Xining, CN
  latitude_deg: 36.62554
  longitude_deg: 101.75739
  altitude_m: 0.0
  release_time: '2026-04-14T14:00:00Z'
  due_time: '2026-04-14T15:00:00Z'
  required_duration_s: 70
  required_sensor_type: visible
  weight: 5.0
- task_id: task_0269
  name: "Jundia\xED, BR"
  latitude_deg: -23.18639
  longitude_deg: -46.88417
  altitude_m: 0.0
  release_time: '2026-04-14T16:50:00Z'
  due_time: '2026-04-14T18:20:00Z'
  required_duration_s: 35
  required_sensor_type: visible
  weight: 4.0
- task_id: task_0270
  name: Guarulhos, BR
  latitude_deg: -23.46278
  longitude_deg: -46.53333
  altitude_m: 0.0
  release_time: '2026-04-14T12:15:00Z'
  due_time: '2026-04-14T13:15:00Z'
  required_duration_s: 65
  required_sensor_type: infrared
  weight: 5.0
- task_id: task_0271
  name: "Bi\xEAn H\xF2a, VN"
  latitude_deg: 10.94469
  longitude_deg: 106.82432
  altitude_m: 0.0
  release_time: '2026-04-14T17:25:00Z'
  due_time: '2026-04-14T18:05:00Z'
  required_duration_s: 50
  required_sensor_type: visible
  weight: 3.0
- task_id: task_0272
  name: background_0075
  latitude_deg: -14.079305
  longitude_deg: -69.873369
  altitude_m: 0.0
  release_time: '2026-04-14T20:12:35Z'
  due_time: '2026-04-14T22:12:35Z'
  required_duration_s: 40
  required_sensor_type: visible
  weight: 1.0
- task_id: task_0273
  name: background_0128
  latitude_deg: -37.386111
  longitude_deg: -58.198071
  altitude_m: 0.0
  release_time: '2026-04-14T12:00:00Z'
  due_time: '2026-04-14T13:30:00Z'
  required_duration_s: 15
  required_sensor_type: visible
  weight: 1.5
- task_id: task_0274
  name: Wuzhong, CN
  latitude_deg: 37.9867
  longitude_deg: 106.201
  altitude_m: 0.0
  release_time: '2026-04-14T20:05:00Z'
  due_time: '2026-04-14T20:25:00Z'
  required_duration_s: 65
  required_sensor_type: visible
  weight: 5.0
- task_id: task_0275
  name: background_0156
  latitude_deg: -42.843847
  longitude_deg: 146.91956
  altitude_m: 0.0
  release_time: '2026-04-14T12:32:30Z'
  due_time: '2026-04-14T14:32:30Z'
  required_duration_s: 30
  required_sensor_type: visible
  weight: 2.0
- task_id: task_0276
  name: Tegucigalpa, HN
  latitude_deg: 14.0818
  longitude_deg: -87.20681
  altitude_m: 0.0
  release_time: '2026-04-14T12:00:00Z'
  due_time: '2026-04-14T13:00:00Z'
  required_duration_s: 55
  required_sensor_type: visible
  weight: 5.0
- task_id: task_0277
  name: Salvador, BR
  latitude_deg: -12.97563
  longitude_deg: -38.49096
  altitude_m: 0.0
  release_time: '2026-04-14T13:55:00Z'
  due_time: '2026-04-14T14:55:00Z'
  required_duration_s: 15
  required_sensor_type: visible
  weight: 4.0
- task_id: task_0278
  name: background_0154
  latitude_deg: -86.993434
  longitude_deg: -31.170717
  altitude_m: 0.0
  release_time: '2026-04-14T19:45:00Z'
  due_time: '2026-04-14T20:05:00Z'
  required_duration_s: 40
  required_sensor_type: visible
  weight: 2.0
- task_id: task_0279
  name: Los Angeles, US
  latitude_deg: 34.05223
  longitude_deg: -118.24368
  altitude_m: 0.0
  release_time: '2026-04-14T12:55:45Z'
  due_time: '2026-04-14T13:55:45Z'
  required_duration_s: 45
  required_sensor_type: visible
  weight: 4.0
- task_id: task_0280
  name: Tucson, US
  latitude_deg: 32.22174
  longitude_deg: -110.92648
  altitude_m: 0.0
  release_time: '2026-04-14T12:35:00Z'
  due_time: '2026-04-14T12:55:00Z'
  required_duration_s: 85
  required_sensor_type: infrared
  weight: 4.0
- task_id: task_0281
  name: Accra, GH
  latitude_deg: 5.55602
  longitude_deg: -0.1969
  altitude_m: 0.0
  release_time: '2026-04-14T19:40:00Z'
  due_time: '2026-04-14T20:10:00Z'
  required_duration_s: 45
  required_sensor_type: visible
  weight: 4.0
- task_id: task_0282
  name: Bucharest, RO
  latitude_deg: 44.43225
  longitude_deg: 26.10626
  altitude_m: 0.0
  release_time: '2026-04-14T14:44:55Z'
  due_time: '2026-04-14T15:14:55Z'
  required_duration_s: 55
  required_sensor_type: visible
  weight: 5.0
- task_id: task_0283
  name: Linyi, CN
  latitude_deg: 35.06306
  longitude_deg: 118.34278
  altitude_m: 0.0
  release_time: '2026-04-14T19:25:00Z'
  due_time: '2026-04-14T20:25:00Z'
  required_duration_s: 65
  required_sensor_type: infrared
  weight: 5.0
- task_id: task_0284
  name: background_0106
  latitude_deg: 6.510468
  longitude_deg: 2.871354
  altitude_m: 0.0
  release_time: '2026-04-14T19:20:00Z'
  due_time: '2026-04-14T20:20:00Z'
  required_duration_s: 30
  required_sensor_type: visible
  weight: 1.5
- task_id: task_0285
  name: Huizhou, CN
  latitude_deg: 23.11147
  longitude_deg: 114.41523
  altitude_m: 0.0
  release_time: '2026-04-14T22:42:15Z'
  due_time: '2026-04-14T23:12:15Z'
  required_duration_s: 90
  required_sensor_type: visible
  weight: 5.0
- task_id: task_0286
  name: background_0122
  latitude_deg: 35.554408
  longitude_deg: -0.986326
  altitude_m: 0.0
  release_time: '2026-04-14T14:00:00Z'
  due_time: '2026-04-14T15:00:00Z'
  required_duration_s: 25
  required_sensor_type: visible
  weight: 2.0
- task_id: task_0287
  name: Puebla, MX
  latitude_deg: 19.04778
  longitude_deg: -98.20723
  altitude_m: 0.0
  release_time: '2026-04-14T12:00:00Z'
  due_time: '2026-04-14T13:30:00Z'
  required_duration_s: 20
  required_sensor_type: visible
  weight: 5.0
- task_id: task_0288
  name: background_0043
  latitude_deg: 67.479041
  longitude_deg: 87.160649
  altitude_m: 0.0
  release_time: '2026-04-14T18:57:25Z'
  due_time: '2026-04-14T19:27:25Z'
  required_duration_s: 55
  required_sensor_type: visible
  weight: 2.0
- task_id: task_0289
  name: Barcelona, ES
  latitude_deg: 41.38879
  longitude_deg: 2.15899
  altitude_m: 0.0
  release_time: '2026-04-14T19:55:00Z'
  due_time: '2026-04-14T20:15:00Z'
  required_duration_s: 30
  required_sensor_type: visible
  weight: 5.0
- task_id: task_0290
  name: La Paz, BO
  latitude_deg: -16.5
  longitude_deg: -68.15
  altitude_m: 0.0
  release_time: '2026-04-14T12:32:30Z'
  due_time: '2026-04-14T12:47:30Z'
  required_duration_s: 65
  required_sensor_type: visible
  weight: 3.0
- task_id: task_0291
  name: background_0115
  latitude_deg: 13.80678
  longitude_deg: 20.324433
  altitude_m: 0.0
  release_time: '2026-04-14T19:42:30Z'
  due_time: '2026-04-14T19:57:30Z'
  required_duration_s: 90
  required_sensor_type: visible
  weight: 1.5
- task_id: task_0292
  name: Buenos Aires, AR
  latitude_deg: -34.61315
  longitude_deg: -58.37723
  altitude_m: 0.0
  release_time: '2026-04-14T17:25:00Z'
  due_time: '2026-04-14T18:05:00Z'
  required_duration_s: 75
  required_sensor_type: visible
  weight: 3.0
- task_id: task_0293
  name: Morelia, MX
  latitude_deg: 19.70078
  longitude_deg: -101.18443
  altitude_m: 0.0
  release_time: '2026-04-14T17:00:00Z'
  due_time: '2026-04-14T18:00:00Z'
  required_duration_s: 60
  required_sensor_type: infrared
  weight: 5.0
- task_id: task_0294
  name: background_0118
  latitude_deg: 56.744523
  longitude_deg: 91.74748
  altitude_m: 0.0
  release_time: '2026-04-14T12:00:00Z'
  due_time: '2026-04-14T13:00:00Z'
  required_duration_s: 65
  required_sensor_type: visible
  weight: 1.5
- task_id: task_0295
  name: Bhopal, IN
  latitude_deg: 23.25469
  longitude_deg: 77.40289
  altitude_m: 0.0
  release_time: '2026-04-14T19:45:00Z'
  due_time: '2026-04-14T20:25:00Z'
  required_duration_s: 30
  required_sensor_type: infrared
  weight: 5.0
- task_id: task_0296
  name: Singapore, SG
  latitude_deg: 1.28967
  longitude_deg: 103.85007
  altitude_m: 0.0
  release_time: '2026-04-14T12:10:00Z'
  due_time: '2026-04-14T12:40:00Z'
  required_duration_s: 65
  required_sensor_type: visible
  weight: 3.0
- task_id: task_0297
  name: Algiers, DZ
  latitude_deg: 36.73225
  longitude_deg: 3.08746
  altitude_m: 0.0
  release_time: '2026-04-14T15:35:15Z'
  due_time: '2026-04-14T17:35:15Z'
  required_duration_s: 50
  required_sensor_type: infrared
  weight: 3.0
- task_id: task_0298
  name: Jaipur, IN
  latitude_deg: 26.91962
  longitude_deg: 75.78781
  altitude_m: 0.0
  release_time: '2026-04-14T12:05:00Z'
  due_time: '2026-04-14T12:25:00Z'
  required_duration_s: 55
  required_sensor_type: visible
  weight: 5.0
- task_id: task_0299
  name: Juiz de Fora, BR
  latitude_deg: -21.76417
  longitude_deg: -43.35028
  altitude_m: 0.0
  release_time: '2026-04-14T19:48:15Z'
  due_time: '2026-04-14T20:18:15Z'
  required_duration_s: 60
  required_sensor_type: visible
  weight: 3.0
- task_id: task_0300
  name: Columbus, US
  latitude_deg: 39.96118
  longitude_deg: -82.99879
  altitude_m: 0.0
  release_time: '2026-04-14T20:42:35Z'
  due_time: '2026-04-14T22:12:35Z'
  required_duration_s: 55
  required_sensor_type: visible
  weight: 3.0
- task_id: task_0301
  name: background_0080
  latitude_deg: -77.354399
  longitude_deg: 1.416429
  altitude_m: 0.0
  release_time: '2026-04-14T17:35:00Z'
  due_time: '2026-04-14T17:55:00Z'
  required_duration_s: 75
  required_sensor_type: visible
  weight: 1.0
- task_id: task_0302
  name: background_0071
  latitude_deg: 60.827871
  longitude_deg: -155.286915
  altitude_m: 0.0
  release_time: '2026-04-14T19:47:30Z'
  due_time: '2026-04-14T20:02:30Z'
  required_duration_s: 30
  required_sensor_type: infrared
  weight: 2.0
- task_id: task_0303
  name: background_0103
  latitude_deg: 36.804702
  longitude_deg: 107.557865
  altitude_m: 0.0
  release_time: '2026-04-14T17:30:00Z'
  due_time: '2026-04-14T18:10:00Z'
  required_duration_s: 85
  required_sensor_type: visible
  weight: 1.5
- task_id: task_0304
  name: background_0094
  latitude_deg: 33.758373
  longitude_deg: 116.240636
  altitude_m: 0.0
  release_time: '2026-04-14T12:12:30Z'
  due_time: '2026-04-14T12:27:30Z'
  required_duration_s: 70
  required_sensor_type: visible
  weight: 1.0
- task_id: task_0305
  name: Dallas, US
  latitude_deg: 32.78306
  longitude_deg: -96.80667
  altitude_m: 0.0
  release_time: '2026-04-14T16:08:30Z'
  due_time: '2026-04-14T16:38:30Z'
  required_duration_s: 70
  required_sensor_type: visible
  weight: 5.0
- task_id: task_0306
  name: "M\xE9rida, MX"
  latitude_deg: 20.967
  longitude_deg: -89.62318
  altitude_m: 0.0
  release_time: '2026-04-14T20:07:30Z'
  due_time: '2026-04-14T20:22:30Z'
  required_duration_s: 90
  required_sensor_type: infrared
  weight: 5.0
- task_id: task_0307
  name: background_0171
  latitude_deg: 56.590532
  longitude_deg: 115.066551
  altitude_m: 0.0
  release_time: '2026-04-14T20:05:00Z'
  due_time: '2026-04-14T20:25:00Z'
  required_duration_s: 60
  required_sensor_type: infrared
  weight: 1.5
- task_id: task_0308
  name: background_0199
  latitude_deg: -5.62042
  longitude_deg: 154.790986
  altitude_m: 0.0
  release_time: '2026-04-14T20:02:30Z'
  due_time: '2026-04-14T20:17:30Z'
  required_duration_s: 30
  required_sensor_type: visible
  weight: 2.0
- task_id: task_0309
  name: Baoding, CN
  latitude_deg: 38.87288
  longitude_deg: 115.46246
  altitude_m: 0.0
  release_time: '2026-04-14T17:15:00Z'
  due_time: '2026-04-14T18:15:00Z'
  required_duration_s: 20
  required_sensor_type: visible
  weight: 4.0
- task_id: task_0310
  name: Shaoxing, CN
  latitude_deg: 30.00237
  longitude_deg: 120.57864
  altitude_m: 0.0
  release_time: '2026-04-14T19:45:00Z'
  due_time: '2026-04-14T20:25:00Z'
  required_duration_s: 15
  required_sensor_type: visible
  weight: 3.0
- task_id: task_0311
  name: Gujranwala, PK
  latitude_deg: 32.15567
  longitude_deg: 74.18705
  altitude_m: 0.0
  release_time: '2026-04-14T14:10:00Z'
  due_time: '2026-04-14T14:40:00Z'
  required_duration_s: 65
  required_sensor_type: visible
  weight: 4.0
- task_id: task_0312
  name: "Yaound\xE9, CM"
  latitude_deg: 3.86667
  longitude_deg: 11.51667
  altitude_m: 0.0
  release_time: '2026-04-14T14:05:00Z'
  due_time: '2026-04-14T14:45:00Z'
  required_duration_s: 90
  required_sensor_type: infrared
  weight: 4.0
- task_id: task_0313
  name: Nanyang, CN
  latitude_deg: 33.00524
  longitude_deg: 112.54659
  altitude_m: 0.0
  release_time: '2026-04-14T17:15:00Z'
  due_time: '2026-04-14T17:45:00Z'
  required_duration_s: 60
  required_sensor_type: visible
  weight: 4.0
- task_id: task_0314
  name: background_0012
  latitude_deg: 63.511996
  longitude_deg: -157.450213
  altitude_m: 0.0
  release_time: '2026-04-14T17:30:00Z'
  due_time: '2026-04-14T18:00:00Z'
  required_duration_s: 20
  required_sensor_type: visible
  weight: 1.0
- task_id: task_0315
  name: background_0002
  latitude_deg: 35.395587
  longitude_deg: 111.362521
  altitude_m: 0.0
  release_time: '2026-04-14T18:47:50Z'
  due_time: '2026-04-14T20:47:50Z'
  required_duration_s: 85
  required_sensor_type: visible
  weight: 1.5
- task_id: task_0316
  name: Caloocan, PH
  latitude_deg: 14.64953
  longitude_deg: 120.96788
  altitude_m: 0.0
  release_time: '2026-04-14T14:15:00Z'
  due_time: '2026-04-14T14:45:00Z'
  required_duration_s: 55
  required_sensor_type: visible
  weight: 3.0
- task_id: task_0317
  name: Jieyang, CN
  latitude_deg: 23.5418
  longitude_deg: 116.36581
  altitude_m: 0.0
  release_time: '2026-04-14T13:07:25Z'
  due_time: '2026-04-14T13:37:25Z'
  required_duration_s: 60
  required_sensor_type: visible
  weight: 3.0
- task_id: task_0318
  name: background_0064
  latitude_deg: 38.49525
  longitude_deg: 43.618116
  altitude_m: 0.0
  release_time: '2026-04-14T15:24:10Z'
  due_time: '2026-04-14T17:24:10Z'
  required_duration_s: 20
  required_sensor_type: visible
  weight: 1.5
- task_id: task_0319
  name: background_0191
  latitude_deg: 32.089315
  longitude_deg: -91.193757
  altitude_m: 0.0
  release_time: '2026-04-14T18:20:35Z'
  due_time: '2026-04-14T19:20:35Z'
  required_duration_s: 60
  required_sensor_type: visible
  weight: 2.0
- task_id: task_0320
  name: Lusaka, ZM
  latitude_deg: -15.40669
  longitude_deg: 28.28713
  altitude_m: 0.0
  release_time: '2026-04-14T19:15:00Z'
  due_time: '2026-04-14T20:15:00Z'
  required_duration_s: 15
  required_sensor_type: infrared
  weight: 3.0
- task_id: task_0321
  name: "Asunci\xF3n, PY"
  latitude_deg: -25.28646
  longitude_deg: -57.647
  altitude_m: 0.0
  release_time: '2026-04-14T14:25:00Z'
  due_time: '2026-04-14T14:55:00Z'
  required_duration_s: 70
  required_sensor_type: visible
  weight: 4.0
- task_id: task_0322
  name: Cuenca, EC
  latitude_deg: -2.8953
  longitude_deg: -78.9963
  altitude_m: 0.0
  release_time: '2026-04-14T19:35:20Z'
  due_time: '2026-04-14T21:35:20Z'
  required_duration_s: 20
  required_sensor_type: visible
  weight: 4.0
- task_id: task_0323
  name: "Nova Igua\xE7u, BR"
  latitude_deg: -22.75917
  longitude_deg: -43.45111
  altitude_m: 0.0
  release_time: '2026-04-14T15:03:10Z'
  due_time: '2026-04-14T15:33:10Z'
  required_duration_s: 90
  required_sensor_type: visible
  weight: 4.0
- task_id: task_0324
  name: background_0028
  latitude_deg: -29.59421
  longitude_deg: 152.3924
  altitude_m: 0.0
  release_time: '2026-04-14T12:00:00Z'
  due_time: '2026-04-14T13:30:00Z'
  required_duration_s: 55
  required_sensor_type: visible
  weight: 1.5
- task_id: task_0325
  name: background_0046
  latitude_deg: 56.954523
  longitude_deg: 35.865755
  altitude_m: 0.0
  release_time: '2026-04-14T19:55:00Z'
  due_time: '2026-04-14T20:15:00Z'
  required_duration_s: 20
  required_sensor_type: infrared
  weight: 2.0
- task_id: task_0326
  name: background_0137
  latitude_deg: 42.924262
  longitude_deg: 140.845394
  altitude_m: 0.0
  release_time: '2026-04-14T14:22:30Z'
  due_time: '2026-04-14T14:37:30Z'
  required_duration_s: 75
  required_sensor_type: visible
  weight: 1.5
- task_id: task_0327
  name: background_0034
  latitude_deg: 72.616517
  longitude_deg: -49.476571
  altitude_m: 0.0
  release_time: '2026-04-14T12:35:00Z'
  due_time: '2026-04-14T12:55:00Z'
  required_duration_s: 25
  required_sensor_type: visible
  weight: 1.5
- task_id: task_0328
  name: Wuhu, CN
  latitude_deg: 31.35259
  longitude_deg: 118.42947
  altitude_m: 0.0
  release_time: '2026-04-14T12:27:30Z'
  due_time: '2026-04-14T12:42:30Z'
  required_duration_s: 50
  required_sensor_type: visible
  weight: 5.0
- task_id: task_0329
  name: Dazhou, CN
  latitude_deg: 31.2106
  longitude_deg: 107.46308
  altitude_m: 0.0
  release_time: '2026-04-14T12:00:00Z'
  due_time: '2026-04-14T13:00:00Z'
  required_duration_s: 55
  required_sensor_type: visible
  weight: 3.0
- task_id: task_0330
  name: background_0017
  latitude_deg: -1.042373
  longitude_deg: -49.465308
  altitude_m: 0.0
  release_time: '2026-04-14T19:25:00Z'
  due_time: '2026-04-14T20:05:00Z'
  required_duration_s: 75
  required_sensor_type: visible
  weight: 2.0
- task_id: task_0331
  name: Delhi, IN
  latitude_deg: 28.65195
  longitude_deg: 77.23149
  altitude_m: 0.0
  release_time: '2026-04-14T12:00:00Z'
  due_time: '2026-04-14T14:00:00Z'
  required_duration_s: 75
  required_sensor_type: infrared
  weight: 5.0
- task_id: task_0332
  name: background_0063
  latitude_deg: 10.676377
  longitude_deg: 32.261857
  altitude_m: 0.0
  release_time: '2026-04-14T19:45:00Z'
  due_time: '2026-04-14T20:15:00Z'
  required_duration_s: 50
  required_sensor_type: visible
  weight: 1.5
- task_id: task_0333
  name: Baoshan, CN
  latitude_deg: 31.40845
  longitude_deg: 121.48956
  altitude_m: 0.0
  release_time: '2026-04-14T17:10:00Z'
  due_time: '2026-04-14T18:40:00Z'
  required_duration_s: 75
  required_sensor_type: visible
  weight: 3.0
- task_id: task_0334
  name: background_0021
  latitude_deg: 55.735633
  longitude_deg: -76.735179
  altitude_m: 0.0
  release_time: '2026-04-14T12:00:00Z'
  due_time: '2026-04-14T13:00:00Z'
  required_duration_s: 15
  required_sensor_type: visible
  weight: 2.0
- task_id: task_0335
  name: Jeddah, SA
  latitude_deg: 21.49012
  longitude_deg: 39.18624
  altitude_m: 0.0
  release_time: '2026-04-14T12:15:00Z'
  due_time: '2026-04-14T12:35:00Z'
  required_duration_s: 15
  required_sensor_type: visible
  weight: 5.0
- task_id: task_0336
  name: Mogadishu, SO
  latitude_deg: 2.03711
  longitude_deg: 45.34375
  altitude_m: 0.0
  release_time: '2026-04-14T23:00:00Z'
  due_time: '2026-04-15T00:00:00Z'
  required_duration_s: 20
  required_sensor_type: visible
  weight: 5.0
- task_id: task_0337
  name: Sharjah, AE
  latitude_deg: 25.3342
  longitude_deg: 55.41221
  altitude_m: 0.0
  release_time: '2026-04-14T19:40:00Z'
  due_time: '2026-04-14T20:00:00Z'
  required_duration_s: 15
  required_sensor_type: infrared
  weight: 3.0
- task_id: task_0338
  name: Vancouver, CA
  latitude_deg: 49.24966
  longitude_deg: -123.11934
  altitude_m: 0.0
  release_time: '2026-04-14T19:47:30Z'
  due_time: '2026-04-14T20:02:30Z'
  required_duration_s: 90
  required_sensor_type: infrared
  weight: 5.0
- task_id: task_0339
  name: Jilin, CN
  latitude_deg: 43.84652
  longitude_deg: 126.5608
  altitude_m: 0.0
  release_time: '2026-04-14T12:37:30Z'
  due_time: '2026-04-14T12:52:30Z'
  required_duration_s: 15
  required_sensor_type: visible
  weight: 5.0
- task_id: task_0340
  name: background_0179
  latitude_deg: -6.723904
  longitude_deg: -39.452912
  altitude_m: 0.0
  release_time: '2026-04-14T17:00:00Z'
  due_time: '2026-04-14T18:00:00Z'
  required_duration_s: 20
  required_sensor_type: visible
  weight: 2.0
- task_id: task_0341
  name: Valencia, VE
  latitude_deg: 10.16153
  longitude_deg: -68.00044
  altitude_m: 0.0
  release_time: '2026-04-14T17:10:00Z'
  due_time: '2026-04-14T18:40:00Z'
  required_duration_s: 50
  required_sensor_type: visible
  weight: 3.0
- task_id: task_0342
  name: background_0176
  latitude_deg: 58.738649
  longitude_deg: 24.893187
  altitude_m: 0.0
  release_time: '2026-04-14T15:06:00Z'
  due_time: '2026-04-14T16:06:00Z'
  required_duration_s: 55
  required_sensor_type: visible
  weight: 1.0
- task_id: task_0343
  name: Songjiang, CN
  latitude_deg: 31.03443
  longitude_deg: 121.22326
  altitude_m: 0.0
  release_time: '2026-04-14T19:40:00Z'
  due_time: '2026-04-14T20:40:00Z'
  required_duration_s: 50
  required_sensor_type: infrared
  weight: 3.0
- task_id: task_0344
  name: Kampala, UG
  latitude_deg: 0.31628
  longitude_deg: 32.58219
  altitude_m: 0.0
  release_time: '2026-04-14T14:35:00Z'
  due_time: '2026-04-14T15:05:00Z'
  required_duration_s: 35
  required_sensor_type: visible
  weight: 3.0
- task_id: task_0345
  name: Nairobi, KE
  latitude_deg: -1.28333
  longitude_deg: 36.81667
  altitude_m: 0.0
  release_time: '2026-04-14T17:35:00Z'
  due_time: '2026-04-14T18:15:00Z'
  required_duration_s: 65
  required_sensor_type: visible
  weight: 3.0
- task_id: task_0346
  name: Santo Domingo, DO
  latitude_deg: 18.47186
  longitude_deg: -69.89232
  altitude_m: 0.0
  release_time: '2026-04-14T17:10:00Z'
  due_time: '2026-04-14T18:10:00Z'
  required_duration_s: 60
  required_sensor_type: infrared
  weight: 4.0
- task_id: task_0347
  name: background_0161
  latitude_deg: 17.240723
  longitude_deg: -100.835545
  altitude_m: 0.0
  release_time: '2026-04-14T17:16:40Z'
  due_time: '2026-04-14T18:46:40Z'
  required_duration_s: 65
  required_sensor_type: visible
  weight: 1.0
- task_id: task_0348
  name: "R\u0101jkot, IN"
  latitude_deg: 22.29161
  longitude_deg: 70.79322
  altitude_m: 0.0
  release_time: '2026-04-14T12:05:00Z'
  due_time: '2026-04-14T12:45:00Z'
  required_duration_s: 35
  required_sensor_type: visible
  weight: 3.0
- task_id: task_0349
  name: Santa Marta, CO
  latitude_deg: 11.23855
  longitude_deg: -74.19427
  altitude_m: 0.0
  release_time: '2026-04-14T12:35:00Z'
  due_time: '2026-04-14T12:55:00Z'
  required_duration_s: 25
  required_sensor_type: visible
  weight: 3.0
- task_id: task_0350
  name: background_0082
  latitude_deg: 34.248754
  longitude_deg: 56.738075
  altitude_m: 0.0
  release_time: '2026-04-14T19:30:00Z'
  due_time: '2026-04-14T20:30:00Z'
  required_duration_s: 30
  required_sensor_type: visible
  weight: 1.0
- task_id: task_0351
  name: "Xi\u2019an, CN"
  latitude_deg: 34.25833
  longitude_deg: 108.92861
  altitude_m: 0.0
  release_time: '2026-04-14T16:49:55Z'
  due_time: '2026-04-14T17:19:55Z'
  required_duration_s: 60
  required_sensor_type: visible
  weight: 3.0
- task_id: task_0352
  name: Budapest, HU
  latitude_deg: 47.49835
  longitude_deg: 19.04045
  altitude_m: 0.0
  release_time: '2026-04-14T19:45:00Z'
  due_time: '2026-04-14T20:25:00Z'
  required_duration_s: 65
  required_sensor_type: visible
  weight: 5.0
- task_id: task_0353
  name: Bamako, ML
  latitude_deg: 12.60915
  longitude_deg: -7.97522
  altitude_m: 0.0
  release_time: '2026-04-14T22:44:15Z'
  due_time: '2026-04-14T23:44:15Z'
  required_duration_s: 85
  required_sensor_type: visible
  weight: 5.0
- task_id: task_0354
  name: Dar es Salaam, TZ
  latitude_deg: -6.82349
  longitude_deg: 39.26951
  altitude_m: 0.0
  release_time: '2026-04-14T14:31:15Z'
  due_time: '2026-04-14T15:31:15Z'
  required_duration_s: 90
  required_sensor_type: visible
  weight: 5.0
- task_id: task_0355
  name: background_0163
  latitude_deg: 2.189153
  longitude_deg: 103.0856
  altitude_m: 0.0
  release_time: '2026-04-14T19:45:00Z'
  due_time: '2026-04-14T20:05:00Z'
  required_duration_s: 75
  required_sensor_type: visible
  weight: 1.5
- task_id: task_0356
  name: background_0033
  latitude_deg: -2.974392
  longitude_deg: -57.325208
  altitude_m: 0.0
  release_time: '2026-04-14T19:35:00Z'
  due_time: '2026-04-14T20:05:00Z'
  required_duration_s: 35
  required_sensor_type: visible
  weight: 1.0
- task_id: task_0357
  name: background_0159
  latitude_deg: 64.654788
  longitude_deg: -68.160553
  altitude_m: 0.0
  release_time: '2026-04-14T19:25:00Z'
  due_time: '2026-04-14T20:55:00Z'
  required_duration_s: 55
  required_sensor_type: visible
  weight: 1.5
- task_id: task_0358
  name: Zunyi, CN
  latitude_deg: 27.68667
  longitude_deg: 106.90722
  altitude_m: 0.0
  release_time: '2026-04-14T12:00:00Z'
  due_time: '2026-04-14T13:30:00Z'
  required_duration_s: 60
  required_sensor_type: visible
  weight: 3.0
- task_id: task_0359
  name: background_0076
  latitude_deg: 34.761411
  longitude_deg: -4.419787
  altitude_m: 0.0
  release_time: '2026-04-14T20:00:00Z'
  due_time: '2026-04-14T20:30:00Z'
  required_duration_s: 45
  required_sensor_type: infrared
  weight: 1.0
- task_id: task_0360
  name: Bangkok, TH
  latitude_deg: 13.75398
  longitude_deg: 100.50144
  altitude_m: 0.0
  release_time: '2026-04-14T14:10:00Z'
  due_time: '2026-04-14T14:50:00Z'
  required_duration_s: 75
  required_sensor_type: visible
  weight: 3.0
- task_id: task_0361
  name: Paris, FR
  latitude_deg: 48.85341
  longitude_deg: 2.3488
  altitude_m: 0.0
  release_time: '2026-04-14T19:00:00Z'
  due_time: '2026-04-14T20:30:00Z'
  required_duration_s: 50
  required_sensor_type: visible
  weight: 3.0
- task_id: task_0362
  name: background_0048
  latitude_deg: 10.565155
  longitude_deg: 27.198471
  altitude_m: 0.0
  release_time: '2026-04-14T19:19:15Z'
  due_time: '2026-04-14T20:49:15Z'
  required_duration_s: 65
  required_sensor_type: infrared
  weight: 1.5
- task_id: task_0363
  name: background_0093
  latitude_deg: 35.461616
  longitude_deg: -98.768428
  altitude_m: 0.0
  release_time: '2026-04-14T14:30:00Z'
  due_time: '2026-04-14T15:00:00Z'
  required_duration_s: 80
  required_sensor_type: visible
  weight: 1.0
- task_id: task_0364
  name: Montevideo, UY
  latitude_deg: -34.90328
  longitude_deg: -56.18816
  altitude_m: 0.0
  release_time: '2026-04-14T12:00:00Z'
  due_time: '2026-04-14T13:00:00Z'
  required_duration_s: 75
  required_sensor_type: visible
  weight: 3.0
- task_id: task_0365
  name: Calgary, CA
  latitude_deg: 51.05011
  longitude_deg: -114.08529
  altitude_m: 0.0
  release_time: '2026-04-14T16:50:00Z'
  due_time: '2026-04-14T18:20:00Z'
  required_duration_s: 25
  required_sensor_type: visible
  weight: 3.0
- task_id: task_0366
  name: Maracaibo, VE
  latitude_deg: 10.64232
  longitude_deg: -71.61089
  altitude_m: 0.0
  release_time: '2026-04-14T17:05:00Z'
  due_time: '2026-04-14T17:45:00Z'
  required_duration_s: 45
  required_sensor_type: visible
  weight: 4.0
- task_id: task_0367
  name: background_0138
  latitude_deg: -19.357431
  longitude_deg: -47.275307
  altitude_m: 0.0
  release_time: '2026-04-14T19:15:00Z'
  due_time: '2026-04-14T20:15:00Z'
  required_duration_s: 75
  required_sensor_type: visible
  weight: 2.0
- task_id: task_0368
  name: Charlotte, US
  latitude_deg: 35.22709
  longitude_deg: -80.84313
  altitude_m: 0.0
  release_time: '2026-04-14T19:40:00Z'
  due_time: '2026-04-14T20:10:00Z'
  required_duration_s: 30
  required_sensor_type: visible
  weight: 4.0
- task_id: task_0369
  name: Nanchang, CN
  latitude_deg: 28.68396
  longitude_deg: 115.85306
  altitude_m: 0.0
  release_time: '2026-04-14T19:30:00Z'
  due_time: '2026-04-14T20:30:00Z'
  required_duration_s: 50
  required_sensor_type: visible
  weight: 3.0
- task_id: task_0370
  name: Agra, IN
  latitude_deg: 27.18333
  longitude_deg: 78.01667
  altitude_m: 0.0
  release_time: '2026-04-14T17:05:00Z'
  due_time: '2026-04-14T18:35:00Z'
  required_duration_s: 85
  required_sensor_type: visible
  weight: 5.0
- task_id: task_0371
  name: "Acapulco de Ju\xE1rez, MX"
  latitude_deg: 16.84942
  longitude_deg: -99.90891
  altitude_m: 0.0
  release_time: '2026-04-14T18:42:45Z'
  due_time: '2026-04-14T20:42:45Z'
  required_duration_s: 35
  required_sensor_type: visible
  weight: 5.0
- task_id: task_0372
  name: Brazzaville, CG
  latitude_deg: -4.26613
  longitude_deg: 15.28318
  altitude_m: 0.0
  release_time: '2026-04-14T14:39:15Z'
  due_time: '2026-04-14T15:09:15Z'
  required_duration_s: 15
  required_sensor_type: visible
  weight: 5.0
- task_id: task_0373
  name: Hangzhou, CN
  latitude_deg: 30.29365
  longitude_deg: 120.16142
  altitude_m: 0.0
  release_time: '2026-04-14T19:16:55Z'
  due_time: '2026-04-14T20:16:55Z'
  required_duration_s: 45
  required_sensor_type: visible
  weight: 3.0
- task_id: task_0374
  name: background_0158
  latitude_deg: 30.563494
  longitude_deg: 50.707385
  altitude_m: 0.0
  release_time: '2026-04-14T16:55:00Z'
  due_time: '2026-04-14T18:25:00Z'
  required_duration_s: 85
  required_sensor_type: visible
  weight: 1.0
- task_id: task_0375
  name: background_0010
  latitude_deg: 35.032992
  longitude_deg: 41.231797
  altitude_m: 0.0
  release_time: '2026-04-14T12:22:30Z'
  due_time: '2026-04-14T12:37:30Z'
  required_duration_s: 20
  required_sensor_type: infrared
  weight: 1.5
- task_id: task_0376
  name: background_0007
  latitude_deg: -14.226171
  longitude_deg: -39.116951
  altitude_m: 0.0
  release_time: '2026-04-14T21:36:45Z'
  due_time: '2026-04-14T23:06:45Z'
  required_duration_s: 75
  required_sensor_type: visible
  weight: 1.0
- task_id: task_0377
  name: Cartagena, CO
  latitude_deg: 10.39817
  longitude_deg: -75.49328
  altitude_m: 0.0
  release_time: '2026-04-14T12:17:30Z'
  due_time: '2026-04-14T12:32:30Z'
  required_duration_s: 35
  required_sensor_type: visible
  weight: 3.0
- task_id: task_0378
  name: Addis Ababa, ET
  latitude_deg: 9.02497
  longitude_deg: 38.74689
  altitude_m: 0.0
  release_time: '2026-04-14T12:17:30Z'
  due_time: '2026-04-14T12:32:30Z'
  required_duration_s: 30
  required_sensor_type: infrared
  weight: 5.0
- task_id: task_0379
  name: background_0003
  latitude_deg: 56.230042
  longitude_deg: 120.028892
  altitude_m: 0.0
  release_time: '2026-04-14T12:20:00Z'
  due_time: '2026-04-14T12:50:00Z'
  required_duration_s: 80
  required_sensor_type: visible
  weight: 1.0
- task_id: task_0380
  name: Salta, AR
  latitude_deg: -24.80645
  longitude_deg: -65.41999
  altitude_m: 0.0
  release_time: '2026-04-14T17:32:30Z'
  due_time: '2026-04-14T17:47:30Z'
  required_duration_s: 85
  required_sensor_type: visible
  weight: 5.0
- task_id: task_0381
  name: Hohhot, CN
  latitude_deg: 40.81056
  longitude_deg: 111.65222
  altitude_m: 0.0
  release_time: '2026-04-14T19:25:00Z'
  due_time: '2026-04-14T20:55:00Z'
  required_duration_s: 60
  required_sensor_type: visible
  weight: 4.0
- task_id: task_0382
  name: Davao, PH
  latitude_deg: 7.07306
  longitude_deg: 125.61278
  altitude_m: 0.0
  release_time: '2026-04-14T18:03:40Z'
  due_time: '2026-04-14T19:33:40Z'
  required_duration_s: 80
  required_sensor_type: visible
  weight: 3.0
- task_id: task_0383
  name: Rawalpindi, PK
  latitude_deg: 33.59733
  longitude_deg: 73.0479
  altitude_m: 0.0
  release_time: '2026-04-14T20:51:40Z'
  due_time: '2026-04-14T21:51:40Z'
  required_duration_s: 70
  required_sensor_type: visible
  weight: 3.0
- task_id: task_0384
  name: "Bel\xE9m, BR"
  latitude_deg: -1.45583
  longitude_deg: -48.50444
  altitude_m: 0.0
  release_time: '2026-04-14T16:55:00Z'
  due_time: '2026-04-14T18:25:00Z'
  required_duration_s: 40
  required_sensor_type: visible
  weight: 4.0
- task_id: task_0385
  name: background_0047
