tasks:
- task_id: task_0001
  name: background_0028
  latitude_deg: -80.09371
  longitude_deg: 113.73503
  altitude_m: 0.0
  release_time: '2026-04-14T17:12:30Z'
  due_time: '2026-04-14T17:28:30Z'
  required_duration_s: 55
  required_sensor_type: infrared
  weight: 1.0
- task_id: task_0002
  name: Kampala, UG
  latitude_deg: 0.31628
  longitude_deg: 32.58219
  altitude_m: 0.0
  release_time: '2026-04-14T12:00:00Z'
  due_time: '2026-04-14T12:34:00Z'
  required_duration_s: 65
  required_sensor_type: visible
  weight: 3.0
- task_id: task_0003
  name: Hyderabad, IN
  latitude_deg: 17.38405
  longitude_deg: 78.45636
  altitude_m: 0.0
  release_time: '2026-04-14T22:13:30Z'
  due_time: '2026-04-14T22:35:30Z'
  required_duration_s: 50
  required_sensor_type: visible
  weight: 4.0
- task_id: task_0004
  name: Casablanca, MA
  latitude_deg: 33.58831
  longitude_deg: -7.61138
  altitude_m: 0.0
  release_time: '2026-04-14T22:16:00Z'
  due_time: '2026-04-14T22:41:30Z'
  required_duration_s: 20
  required_sensor_type: infrared
  weight: 3.0
- task_id: task_0005
  name: Mumbai, IN
  latitude_deg: 19.07283
  longitude_deg: 72.88261
  altitude_m: 0.0
  release_time: '2026-04-14T14:17:30Z'
  due_time: '2026-04-14T15:33:30Z'
  required_duration_s: 20
  required_sensor_type: visible
  weight: 3.0
- task_id: task_0006
  name: background_0138
  latitude_deg: 25.394527
  longitude_deg: -111.853739
  altitude_m: 0.0
  release_time: '2026-04-14T16:19:00Z'
  due_time: '2026-04-14T16:40:30Z'
  required_duration_s: 75
  required_sensor_type: visible
  weight: 2.0
- task_id: task_0007
  name: background_0016
  latitude_deg: 46.874664
  longitude_deg: 120.397761
  altitude_m: 0.0
  release_time: '2026-04-14T16:20:30Z'
  due_time: '2026-04-14T16:47:00Z'
  required_duration_s: 45
  required_sensor_type: visible
  weight: 1.5
- task_id: task_0008
  name: Madurai, IN
  latitude_deg: 9.919
  longitude_deg: 78.11953
  altitude_m: 0.0
  release_time: '2026-04-14T22:05:30Z'
  due_time: '2026-04-14T23:22:30Z'
  required_duration_s: 15
  required_sensor_type: visible
  weight: 4.0
- task_id: task_0009
  name: Rosario, AR
  latitude_deg: -32.94682
  longitude_deg: -60.63932
  altitude_m: 0.0
  release_time: '2026-04-14T13:33:00Z'
  due_time: '2026-04-14T13:59:30Z'
  required_duration_s: 75
  required_sensor_type: visible
  weight: 3.0
- task_id: task_0010
  name: background_0139
  latitude_deg: -9.171122
  longitude_deg: 19.065132
  altitude_m: 0.0
  release_time: '2026-04-14T19:57:00Z'
  due_time: '2026-04-14T20:23:30Z'
  required_duration_s: 20
  required_sensor_type: visible
  weight: 1.0
- task_id: task_0011
  name: "Macei\xF3, BR"
  latitude_deg: -9.66583
  longitude_deg: -35.73528
  altitude_m: 0.0
  release_time: '2026-04-14T23:46:00Z'
  due_time: '2026-04-14T23:57:30Z'
  required_duration_s: 90
  required_sensor_type: visible
  weight: 3.0
- task_id: task_0012
  name: background_0076
  latitude_deg: 60.827778
  longitude_deg: 54.473394
  altitude_m: 0.0
  release_time: '2026-04-14T13:12:30Z'
  due_time: '2026-04-14T13:34:00Z'
  required_duration_s: 55
  required_sensor_type: visible
  weight: 1.0
- task_id: task_0013
  name: San Diego, US
  latitude_deg: 32.71571
  longitude_deg: -117.16472
  altitude_m: 0.0
  release_time: '2026-04-14T21:57:00Z'
  due_time: '2026-04-14T22:23:30Z'
  required_duration_s: 50
  required_sensor_type: visible
  weight: 4.0
- task_id: task_0014
  name: background_0075
  latitude_deg: -6.856536
  longitude_deg: 110.081561
  altitude_m: 0.0
  release_time: '2026-04-14T16:35:00Z'
  due_time: '2026-04-14T17:01:30Z'
  required_duration_s: 55
  required_sensor_type: visible
  weight: 1.0
- task_id: task_0015
  name: "Ribeir\xE3o Preto, BR"
  latitude_deg: -21.1775
  longitude_deg: -47.81028
  altitude_m: 0.0
  release_time: '2026-04-14T17:27:30Z'
  due_time: '2026-04-14T17:44:00Z'
  required_duration_s: 25
  required_sensor_type: visible
  weight: 5.0
- task_id: task_0016
  name: Kaohsiung, TW
  latitude_deg: 22.61626
  longitude_deg: 120.31333
  altitude_m: 0.0
  release_time: '2026-04-14T18:05:00Z'
  due_time: '2026-04-14T18:26:30Z'
  required_duration_s: 45
  required_sensor_type: visible
  weight: 5.0
- task_id: task_0017
  name: background_0092
  latitude_deg: 24.931558
  longitude_deg: 0.801199
  altitude_m: 0.0
  release_time: '2026-04-14T14:46:00Z'
  due_time: '2026-04-14T15:18:00Z'
  required_duration_s: 70
  required_sensor_type: visible
  weight: 1.5
- task_id: task_0018
  name: Yunfu, CN
  latitude_deg: 22.92787
  longitude_deg: 112.03809
  altitude_m: 0.0
  release_time: '2026-04-14T19:11:30Z'
  due_time: '2026-04-14T19:38:00Z'
  required_duration_s: 25
  required_sensor_type: visible
  weight: 5.0
- task_id: task_0019
  name: Tuxtla, MX
  latitude_deg: 16.75357
  longitude_deg: -93.11578
  altitude_m: 0.0
  release_time: '2026-04-14T12:02:30Z'
  due_time: '2026-04-14T12:18:30Z'
  required_duration_s: 15
  required_sensor_type: visible
  weight: 4.0
- task_id: task_0020
  name: Bamako, ML
  latitude_deg: 12.60915
  longitude_deg: -7.97522
  altitude_m: 0.0
  release_time: '2026-04-14T12:33:30Z'
  due_time: '2026-04-14T12:54:30Z'
  required_duration_s: 40
  required_sensor_type: visible
  weight: 3.0
- task_id: task_0021
  name: "Al Maw\u015Fil al Jad\u012Bdah, IQ"
  latitude_deg: 36.33271
  longitude_deg: 43.10555
  altitude_m: 0.0
  release_time: '2026-04-14T14:38:00Z'
  due_time: '2026-04-14T14:59:00Z'
  required_duration_s: 50
  required_sensor_type: visible
  weight: 5.0
- task_id: task_0022
  name: Tangerang, ID
  latitude_deg: -6.17806
  longitude_deg: 106.63
  altitude_m: 0.0
  release_time: '2026-04-14T12:46:00Z'
  due_time: '2026-04-14T12:58:00Z'
  required_duration_s: 25
  required_sensor_type: visible
  weight: 5.0
- task_id: task_0023
  name: background_0016
  latitude_deg: 3.192157
  longitude_deg: -66.99883
  altitude_m: 0.0
  release_time: '2026-04-14T14:23:00Z'
  due_time: '2026-04-14T15:09:30Z'
  required_duration_s: 85
  required_sensor_type: infrared
  weight: 1.5
- task_id: task_0024
  name: background_0107
  latitude_deg: -0.002689
  longitude_deg: 21.067091
  altitude_m: 0.0
  release_time: '2026-04-14T19:53:30Z'
  due_time: '2026-04-14T20:30:00Z'
  required_duration_s: 35
  required_sensor_type: visible
  weight: 1.5
- task_id: task_0025
  name: Erbil, IQ
  latitude_deg: 36.19117
  longitude_deg: 44.00943
  altitude_m: 0.0
  release_time: '2026-04-14T17:26:00Z'
  due_time: '2026-04-14T18:22:00Z'
  required_duration_s: 50
  required_sensor_type: visible
  weight: 4.0
- task_id: task_0026
  name: Ankara, TR
  latitude_deg: 39.91987
  longitude_deg: 32.85427
  altitude_m: 0.0
  release_time: '2026-04-14T19:40:30Z'
  due_time: '2026-04-14T20:02:30Z'
  required_duration_s: 80
  required_sensor_type: visible
  weight: 5.0
- task_id: task_0027
  name: Harare, ZW
  latitude_deg: -17.82772
  longitude_deg: 31.05337
  altitude_m: 0.0
  release_time: '2026-04-14T15:33:00Z'
  due_time: '2026-04-14T16:24:30Z'
  required_duration_s: 85
  required_sensor_type: infrared
  weight: 5.0
- task_id: task_0028
  name: Salvador, BR
  latitude_deg: -12.97563
  longitude_deg: -38.49096
  altitude_m: 0.0
  release_time: '2026-04-14T12:38:00Z'
  due_time: '2026-04-14T12:54:00Z'
  required_duration_s: 55
  required_sensor_type: infrared
  weight: 3.0
- task_id: task_0029
  name: Charlotte, US
  latitude_deg: 35.22709
  longitude_deg: -80.84313
  altitude_m: 0.0
  release_time: '2026-04-14T15:20:30Z'
  due_time: '2026-04-14T15:47:00Z'
  required_duration_s: 70
  required_sensor_type: visible
  weight: 4.0
- task_id: task_0030
  name: Rio de Janeiro, BR
  latitude_deg: -22.90642
  longitude_deg: -43.18223
  altitude_m: 0.0
  release_time: '2026-04-14T12:03:00Z'
  due_time: '2026-04-14T12:14:30Z'
  required_duration_s: 40
  required_sensor_type: visible
  weight: 4.0
- task_id: task_0031
  name: "C\xF3rdoba, AR"
  latitude_deg: -31.40648
  longitude_deg: -64.18853
  altitude_m: 0.0
  release_time: '2026-04-14T14:26:00Z'
  due_time: '2026-04-14T15:02:30Z'
  required_duration_s: 75
  required_sensor_type: visible
  weight: 5.0
- task_id: task_0032
  name: Minhang, CN
  latitude_deg: 31.10881
  longitude_deg: 121.37471
  altitude_m: 0.0
  release_time: '2026-04-14T16:20:00Z'
  due_time: '2026-04-14T16:41:00Z'
  required_duration_s: 20
  required_sensor_type: visible
  weight: 4.0
- task_id: task_0033
  name: Ciudad Guayana, VE
  latitude_deg: 8.35122
  longitude_deg: -62.64102
  altitude_m: 0.0
  release_time: '2026-04-14T21:16:00Z'
  due_time: '2026-04-14T21:37:00Z'
  required_duration_s: 40
  required_sensor_type: visible
  weight: 3.0
- task_id: task_0034
  name: Nairobi, KE
  latitude_deg: -1.28333
  longitude_deg: 36.81667
  altitude_m: 0.0
  release_time: '2026-04-14T14:44:00Z'
  due_time: '2026-04-14T15:10:30Z'
  required_duration_s: 90
  required_sensor_type: visible
  weight: 5.0
- task_id: task_0035
  name: Boston, US
  latitude_deg: 42.35843
  longitude_deg: -71.05977
  altitude_m: 0.0
  release_time: '2026-04-14T14:31:30Z'
  due_time: '2026-04-14T15:33:30Z'
  required_duration_s: 35
  required_sensor_type: visible
  weight: 5.0
- task_id: task_0036
  name: background_0033
  latitude_deg: 44.384338
  longitude_deg: 114.050995
  altitude_m: 0.0
  release_time: '2026-04-14T18:56:00Z'
  due_time: '2026-04-14T19:37:30Z'
  required_duration_s: 65
  required_sensor_type: visible
  weight: 2.0
- task_id: task_0037
  name: Faisalabad, PK
  latitude_deg: 31.41554
  longitude_deg: 73.08969
  altitude_m: 0.0
  release_time: '2026-04-14T15:28:00Z'
  due_time: '2026-04-14T16:29:00Z'
  required_duration_s: 55
  required_sensor_type: visible
  weight: 5.0
- task_id: task_0038
  name: Wuzhong, CN
  latitude_deg: 37.9867
  longitude_deg: 106.201
  altitude_m: 0.0
  release_time: '2026-04-14T14:00:00Z'
  due_time: '2026-04-14T14:26:00Z'
  required_duration_s: 55
  required_sensor_type: visible
  weight: 3.0
- task_id: task_0039
  name: background_0086
  latitude_deg: 24.120243
  longitude_deg: 44.950195
  altitude_m: 0.0
  release_time: '2026-04-14T14:29:30Z'
  due_time: '2026-04-14T15:06:00Z'
  required_duration_s: 55
  required_sensor_type: visible
  weight: 1.5
- task_id: task_0040
  name: Wuhan, CN
  latitude_deg: 30.58333
  longitude_deg: 114.26667
  altitude_m: 0.0
  release_time: '2026-04-14T14:35:30Z'
  due_time: '2026-04-14T15:02:00Z'
  required_duration_s: 90
  required_sensor_type: visible
  weight: 5.0
- task_id: task_0041
  name: background_0114
  latitude_deg: 53.988954
  longitude_deg: 136.81121
  altitude_m: 0.0
  release_time: '2026-04-14T12:11:30Z'
  due_time: '2026-04-14T12:38:30Z'
  required_duration_s: 90
  required_sensor_type: visible
  weight: 1.5
- task_id: task_0042
  name: background_0132
  latitude_deg: 26.970517
  longitude_deg: 49.211814
  altitude_m: 0.0
  release_time: '2026-04-14T18:10:00Z'
  due_time: '2026-04-14T20:11:30Z'
  required_duration_s: 75
  required_sensor_type: visible
  weight: 1.0
- task_id: task_0043
  name: Recife, BR
  latitude_deg: -8.05389
  longitude_deg: -34.88111
  altitude_m: 0.0
  release_time: '2026-04-14T16:50:30Z'
  due_time: '2026-04-14T17:12:00Z'
  required_duration_s: 60
  required_sensor_type: visible
  weight: 4.0
- task_id: task_0044
  name: background_0155
  latitude_deg: -6.498107
  longitude_deg: 24.667527
  altitude_m: 0.0
  release_time: '2026-04-14T20:27:30Z'
  due_time: '2026-04-14T21:49:00Z'
  required_duration_s: 80
  required_sensor_type: visible
  weight: 1.5
- task_id: task_0045
  name: Yokohama, JP
  latitude_deg: 35.43333
  longitude_deg: 139.65
  altitude_m: 0.0
  release_time: '2026-04-14T12:17:00Z'
  due_time: '2026-04-14T12:43:30Z'
  required_duration_s: 45
  required_sensor_type: infrared
  weight: 3.0
- task_id: task_0046
  name: Perth, AU
  latitude_deg: -31.95224
  longitude_deg: 115.8614
  altitude_m: 0.0
  release_time: '2026-04-14T12:28:00Z'
  due_time: '2026-04-14T13:00:30Z'
  required_duration_s: 85
  required_sensor_type: visible
  weight: 5.0
- task_id: task_0047
  name: background_0042
  latitude_deg: 43.658932
  longitude_deg: 98.454531
  altitude_m: 0.0
  release_time: '2026-04-14T12:49:30Z'
  due_time: '2026-04-14T13:12:00Z'
  required_duration_s: 60
  required_sensor_type: visible
  weight: 2.0
- task_id: task_0048
  name: Tianjin, CN
  latitude_deg: 39.14222
  longitude_deg: 117.17667
  altitude_m: 0.0
  release_time: '2026-04-14T13:48:30Z'
  due_time: '2026-04-14T14:35:00Z'
  required_duration_s: 25
  required_sensor_type: infrared
  weight: 3.0
- task_id: task_0049
  name: "Al Ba\u015Frah al Qad\u012Bmah, IQ"
  latitude_deg: 30.50316
  longitude_deg: 47.81507
  altitude_m: 0.0
  release_time: '2026-04-14T14:16:30Z'
  due_time: '2026-04-14T14:43:00Z'
  required_duration_s: 20
  required_sensor_type: infrared
  weight: 4.0
- task_id: task_0050
  name: Rawalpindi, PK
  latitude_deg: 33.59733
  longitude_deg: 73.0479
  altitude_m: 0.0
  release_time: '2026-04-14T15:01:30Z'
  due_time: '2026-04-14T15:37:00Z'
  required_duration_s: 20
  required_sensor_type: visible
  weight: 3.0
- task_id: task_0051
  name: background_0101
  latitude_deg: 2.446832
  longitude_deg: -74.387879
  altitude_m: 0.0
  release_time: '2026-04-14T15:12:00Z'
  due_time: '2026-04-14T15:38:30Z'
  required_duration_s: 90
  required_sensor_type: visible
  weight: 1.0
- task_id: task_0052
  name: Bekasi, ID
  latitude_deg: -6.2349
  longitude_deg: 106.9896
  altitude_m: 0.0
  release_time: '2026-04-14T19:10:00Z'
  due_time: '2026-04-14T19:50:30Z'
  required_duration_s: 30
  required_sensor_type: visible
  weight: 5.0
- task_id: task_0053
  name: background_0072
  latitude_deg: 15.190632
  longitude_deg: 24.589303
  altitude_m: 0.0
  release_time: '2026-04-14T20:19:30Z'
  due_time: '2026-04-14T21:01:00Z'
  required_duration_s: 90
  required_sensor_type: infrared
  weight: 1.0
- task_id: task_0054
  name: Ludhiana, IN
  latitude_deg: 30.91204
  longitude_deg: 75.85379
  altitude_m: 0.0
  release_time: '2026-04-14T16:51:30Z'
  due_time: '2026-04-14T17:19:00Z'
  required_duration_s: 85
  required_sensor_type: visible
  weight: 5.0
- task_id: task_0055
  name: Monrovia, LR
  latitude_deg: 6.30054
  longitude_deg: -10.7969
  altitude_m: 0.0
  release_time: '2026-04-14T22:04:30Z'
  due_time: '2026-04-14T22:41:00Z'
  required_duration_s: 65
  required_sensor_type: visible
  weight: 3.0
- task_id: task_0056
  name: background_0146
  latitude_deg: -47.781045
  longitude_deg: -71.071791
  altitude_m: 0.0
  release_time: '2026-04-14T16:54:00Z'
  due_time: '2026-04-14T17:30:30Z'
  required_duration_s: 30
  required_sensor_type: visible
  weight: 1.0
- task_id: task_0057
  name: Osaka, JP
  latitude_deg: 34.69379
  longitude_deg: 135.50107
  altitude_m: 0.0
  release_time: '2026-04-14T17:27:00Z'
  due_time: '2026-04-14T18:03:00Z'
  required_duration_s: 35
  required_sensor_type: visible
  weight: 5.0
- task_id: task_0058
  name: Arequipa, PE
  latitude_deg: -16.39899
  longitude_deg: -71.53747
  altitude_m: 0.0
  release_time: '2026-04-14T14:38:30Z'
  due_time: '2026-04-14T15:05:00Z'
  required_duration_s: 45
  required_sensor_type: infrared
  weight: 4.0
- task_id: task_0059
  name: Mashhad, IR
  latitude_deg: 36.29807
  longitude_deg: 59.60567
  altitude_m: 0.0
  release_time: '2026-04-14T17:51:00Z'
  due_time: '2026-04-14T18:12:30Z'
  required_duration_s: 65
  required_sensor_type: visible
  weight: 3.0
- task_id: task_0060
  name: Baghdad, IQ
  latitude_deg: 33.34058
  longitude_deg: 44.40088
  altitude_m: 0.0
  release_time: '2026-04-14T18:54:00Z'
  due_time: '2026-04-14T19:15:30Z'
  required_duration_s: 70
  required_sensor_type: infrared
  weight: 3.0
- task_id: task_0061
  name: Davao, PH
  latitude_deg: 7.07306
  longitude_deg: 125.61278
  altitude_m: 0.0
  release_time: '2026-04-14T12:30:30Z'
  due_time: '2026-04-14T13:41:30Z'
  required_duration_s: 40
  required_sensor_type: infrared
  weight: 5.0
- task_id: task_0062
  name: background_0071
  latitude_deg: -71.098019
  longitude_deg: 54.738547
  altitude_m: 0.0
  release_time: '2026-04-14T19:35:00Z'
  due_time: '2026-04-14T20:46:30Z'
  required_duration_s: 50
  required_sensor_type: infrared
  weight: 1.5
- task_id: task_0063
  name: Brampton, CA
  latitude_deg: 43.68341
  longitude_deg: -79.76633
  altitude_m: 0.0
  release_time: '2026-04-14T15:35:00Z'
  due_time: '2026-04-14T16:56:30Z'
  required_duration_s: 80
  required_sensor_type: visible
  weight: 4.0
- task_id: task_0064
  name: background_0161
  latitude_deg: 28.01952
  longitude_deg: 37.475516
  altitude_m: 0.0
  release_time: '2026-04-14T18:33:30Z'
  due_time: '2026-04-14T18:50:00Z'
  required_duration_s: 15
  required_sensor_type: visible
  weight: 1.0
- task_id: task_0065
  name: Bangkok, TH
  latitude_deg: 13.75398
  longitude_deg: 100.50144
  altitude_m: 0.0
  release_time: '2026-04-14T14:44:30Z'
  due_time: '2026-04-14T15:06:00Z'
  required_duration_s: 25
  required_sensor_type: visible
  weight: 3.0
- task_id: task_0066
  name: background_0032
  latitude_deg: 50.280977
  longitude_deg: 79.672151
  altitude_m: 0.0
  release_time: '2026-04-14T15:24:30Z'
  due_time: '2026-04-14T15:46:00Z'
  required_duration_s: 80
  required_sensor_type: visible
  weight: 2.0
- task_id: task_0067
  name: Ottawa, CA
  latitude_deg: 45.41117
  longitude_deg: -75.69812
  altitude_m: 0.0
  release_time: '2026-04-14T13:20:00Z'
  due_time: '2026-04-14T13:42:00Z'
  required_duration_s: 70
  required_sensor_type: visible
  weight: 4.0
- task_id: task_0068
  name: background_0012
  latitude_deg: 58.707528
  longitude_deg: 159.729655
  altitude_m: 0.0
  release_time: '2026-04-14T23:07:30Z'
  due_time: '2026-04-15T00:00:00Z'
  required_duration_s: 65
  required_sensor_type: visible
  weight: 1.5
- task_id: task_0069
  name: Houston, US
  latitude_deg: 29.76328
  longitude_deg: -95.36327
  altitude_m: 0.0
  release_time: '2026-04-14T16:51:00Z'
  due_time: '2026-04-14T17:17:30Z'
  required_duration_s: 80
  required_sensor_type: visible
  weight: 5.0
- task_id: task_0070
  name: background_0009
  latitude_deg: -29.106093
  longitude_deg: 139.410968
  altitude_m: 0.0
  release_time: '2026-04-14T20:16:30Z'
  due_time: '2026-04-14T20:42:30Z'
  required_duration_s: 45
  required_sensor_type: visible
  weight: 1.5
- task_id: task_0071
  name: Novosibirsk, RU
  latitude_deg: 55.02259
  longitude_deg: 82.93175
  altitude_m: 0.0
  release_time: '2026-04-14T17:20:00Z'
  due_time: '2026-04-14T17:41:30Z'
  required_duration_s: 35
  required_sensor_type: visible
  weight: 5.0
- task_id: task_0072
  name: Taipei, TW
  latitude_deg: 25.05306
  longitude_deg: 121.52639
  altitude_m: 0.0
  release_time: '2026-04-14T13:14:00Z'
  due_time: '2026-04-14T13:45:30Z'
  required_duration_s: 70
  required_sensor_type: visible
  weight: 3.0
- task_id: task_0073
  name: background_0128
  latitude_deg: -6.881715
  longitude_deg: 16.468633
  altitude_m: 0.0
  release_time: '2026-04-14T16:09:30Z'
  due_time: '2026-04-14T16:31:00Z'
  required_duration_s: 15
  required_sensor_type: visible
  weight: 1.0
- task_id: task_0074
  name: background_0009
  latitude_deg: -8.406785
  longitude_deg: 118.542024
  altitude_m: 0.0
  release_time: '2026-04-14T21:55:00Z'
  due_time: '2026-04-14T22:11:30Z'
  required_duration_s: 45
  required_sensor_type: infrared
  weight: 2.0
- task_id: task_0075
  name: Soweto, ZA
  latitude_deg: -26.26781
  longitude_deg: 27.85849
  altitude_m: 0.0
  release_time: '2026-04-14T20:57:00Z'
  due_time: '2026-04-14T21:13:30Z'
  required_duration_s: 70
  required_sensor_type: visible
  weight: 4.0
- task_id: task_0076
  name: background_0010
  latitude_deg: 52.556027
  longitude_deg: 11.28545
  altitude_m: 0.0
  release_time: '2026-04-14T16:14:30Z'
  due_time: '2026-04-14T16:41:00Z'
  required_duration_s: 30
  required_sensor_type: visible
  weight: 2.0
- task_id: task_0077
  name: background_0022
  latitude_deg: 3.818448
  longitude_deg: -55.078742
  altitude_m: 0.0
  release_time: '2026-04-14T15:35:30Z'
  due_time: '2026-04-14T16:02:00Z'
  required_duration_s: 35
  required_sensor_type: visible
  weight: 1.0
- task_id: task_0078
  name: background_0133
  latitude_deg: -73.175431
  longitude_deg: 115.665596
  altitude_m: 0.0
  release_time: '2026-04-14T20:33:30Z'
  due_time: '2026-04-14T21:05:00Z'
  required_duration_s: 85
  required_sensor_type: visible
  weight: 1.5
- task_id: task_0079
  name: background_0046
  latitude_deg: -80.523336
  longitude_deg: 64.668268
  altitude_m: 0.0
  release_time: '2026-04-14T15:14:00Z'
  due_time: '2026-04-14T15:36:00Z'
  required_duration_s: 50
  required_sensor_type: visible
  weight: 1.5
- task_id: task_0080
  name: Tashkent, UZ
  latitude_deg: 41.26465
  longitude_deg: 69.21627
  altitude_m: 0.0
  release_time: '2026-04-14T14:30:00Z'
  due_time: '2026-04-14T15:06:30Z'
  required_duration_s: 40
  required_sensor_type: visible
  weight: 3.0
- task_id: task_0081
  name: background_0036
  latitude_deg: -9.916774
  longitude_deg: 25.015818
  altitude_m: 0.0
  release_time: '2026-04-14T16:13:00Z'
  due_time: '2026-04-14T16:34:00Z'
  required_duration_s: 40
  required_sensor_type: visible
  weight: 1.0
- task_id: task_0082
  name: Yangon, MM
  latitude_deg: 16.80528
  longitude_deg: 96.15611
  altitude_m: 0.0
  release_time: '2026-04-14T15:10:00Z'
  due_time: '2026-04-14T16:11:30Z'
  required_duration_s: 60
  required_sensor_type: visible
  weight: 3.0
- task_id: task_0083
  name: background_0067
  latitude_deg: -13.690745
  longitude_deg: -51.061988
  altitude_m: 0.0
  release_time: '2026-04-14T15:36:00Z'
  due_time: '2026-04-14T16:02:00Z'
  required_duration_s: 35
  required_sensor_type: visible
  weight: 2.0
- task_id: task_0084
  name: background_0068
  latitude_deg: -77.556027
  longitude_deg: 17.273791
  altitude_m: 0.0
  release_time: '2026-04-14T17:49:00Z'
  due_time: '2026-04-14T18:10:30Z'
  required_duration_s: 50
  required_sensor_type: visible
  weight: 1.5
- task_id: task_0085
  name: background_0131
  latitude_deg: -79.602423
  longitude_deg: 100.026701
  altitude_m: 0.0
  release_time: '2026-04-14T17:02:30Z'
  due_time: '2026-04-14T17:19:00Z'
  required_duration_s: 70
  required_sensor_type: visible
  weight: 1.5
- task_id: task_0086
  name: Vienna, AT
  latitude_deg: 48.20849
  longitude_deg: 16.37208
  altitude_m: 0.0
  release_time: '2026-04-14T20:39:00Z'
  due_time: '2026-04-14T21:05:00Z'
  required_duration_s: 30
  required_sensor_type: infrared
  weight: 3.0
- task_id: task_0087
  name: background_0110
  latitude_deg: -22.375115
  longitude_deg: 130.396826
  altitude_m: 0.0
  release_time: '2026-04-14T12:56:00Z'
  due_time: '2026-04-14T13:17:30Z'
  required_duration_s: 90
  required_sensor_type: visible
  weight: 2.0
- task_id: task_0088
  name: Manaus, BR
  latitude_deg: -3.10194
  longitude_deg: -60.025
  altitude_m: 0.0
  release_time: '2026-04-14T20:58:00Z'
  due_time: '2026-04-14T21:34:00Z'
  required_duration_s: 50
  required_sensor_type: visible
  weight: 3.0
- task_id: task_0089
  name: Xining, CN
  latitude_deg: 36.62554
  longitude_deg: 101.75739
  altitude_m: 0.0
  release_time: '2026-04-14T12:42:30Z'
  due_time: '2026-04-14T14:05:00Z'
  required_duration_s: 80
  required_sensor_type: visible
  weight: 5.0
- task_id: task_0090
  name: Tijuana, MX
  latitude_deg: 32.5027
  longitude_deg: -117.00371
  altitude_m: 0.0
  release_time: '2026-04-14T18:29:30Z'
  due_time: '2026-04-14T18:51:30Z'
  required_duration_s: 85
  required_sensor_type: visible
  weight: 3.0
- task_id: task_0091
  name: background_0024
  latitude_deg: 67.126179
  longitude_deg: 50.072951
  altitude_m: 0.0
  release_time: '2026-04-14T17:18:00Z'
  due_time: '2026-04-14T17:39:30Z'
  required_duration_s: 35
  required_sensor_type: infrared
  weight: 1.0
- task_id: task_0092
  name: background_0091
  latitude_deg: -0.557612
  longitude_deg: 32.305534
  altitude_m: 0.0
  release_time: '2026-04-14T12:02:00Z'
  due_time: '2026-04-14T12:23:30Z'
  required_duration_s: 65
  required_sensor_type: visible
  weight: 1.5
- task_id: task_0093
  name: background_0098
  latitude_deg: -27.10565
  longitude_deg: 23.979794
  altitude_m: 0.0
  release_time: '2026-04-14T19:52:00Z'
  due_time: '2026-04-14T20:33:30Z'
  required_duration_s: 15
  required_sensor_type: visible
  weight: 2.0
- task_id: task_0094
  name: Soacha, CO
  latitude_deg: 4.57937
  longitude_deg: -74.21682
  altitude_m: 0.0
  release_time: '2026-04-14T22:29:00Z'
  due_time: '2026-04-14T23:30:00Z'
  required_duration_s: 45
  required_sensor_type: infrared
  weight: 4.0
- task_id: task_0095
  name: background_0045
  latitude_deg: 41.30066
  longitude_deg: -83.974442
  altitude_m: 0.0
  release_time: '2026-04-14T16:03:30Z'
  due_time: '2026-04-14T16:45:00Z'
  required_duration_s: 65
  required_sensor_type: infrared
  weight: 1.5
- task_id: task_0096
  name: background_0004
  latitude_deg: 51.498283
  longitude_deg: 47.372608
  altitude_m: 0.0
  release_time: '2026-04-14T17:24:00Z'
  due_time: '2026-04-14T18:45:30Z'
  required_duration_s: 90
  required_sensor_type: visible
  weight: 2.0
- task_id: task_0097
  name: Wuxi, CN
  latitude_deg: 31.56887
  longitude_deg: 120.28857
  altitude_m: 0.0
  release_time: '2026-04-14T16:14:30Z'
  due_time: '2026-04-14T16:51:00Z'
  required_duration_s: 85
  required_sensor_type: visible
  weight: 5.0
- task_id: task_0098
  name: Riyadh, SA
  latitude_deg: 24.68773
  longitude_deg: 46.72185
  altitude_m: 0.0
  release_time: '2026-04-14T21:13:30Z'
  due_time: '2026-04-14T21:34:30Z'
  required_duration_s: 30
  required_sensor_type: visible
  weight: 4.0
- task_id: task_0099
  name: Campos dos Goytacazes, BR
  latitude_deg: -21.75227
  longitude_deg: -41.33044
  altitude_m: 0.0
  release_time: '2026-04-14T12:03:00Z'
  due_time: '2026-04-14T12:24:00Z'
  required_duration_s: 25
  required_sensor_type: visible
  weight: 4.0
- task_id: task_0100
  name: background_0041
  latitude_deg: 19.85007
  longitude_deg: 103.686603
  altitude_m: 0.0
  release_time: '2026-04-14T15:18:00Z'
  due_time: '2026-04-14T15:35:00Z'
  required_duration_s: 75
  required_sensor_type: visible
  weight: 2.0
- task_id: task_0101
  name: background_0054
  latitude_deg: -9.854659
  longitude_deg: -63.362117
  altitude_m: 0.0
  release_time: '2026-04-14T14:14:30Z'
  due_time: '2026-04-14T14:42:00Z'
  required_duration_s: 15
  required_sensor_type: visible
  weight: 2.0
- task_id: task_0102
  name: background_0115
  latitude_deg: 64.175151
  longitude_deg: 104.983333
  altitude_m: 0.0
  release_time: '2026-04-14T14:17:00Z'
  due_time: '2026-04-14T14:38:00Z'
  required_duration_s: 60
  required_sensor_type: visible
  weight: 1.5
- task_id: task_0103
  name: Ibadan, NG
  latitude_deg: 7.37756
  longitude_deg: 3.90591
  altitude_m: 0.0
  release_time: '2026-04-14T21:07:00Z'
  due_time: '2026-04-14T22:29:30Z'
  required_duration_s: 15
  required_sensor_type: visible
  weight: 3.0
- task_id: task_0104
  name: background_0023
  latitude_deg: -21.95235
  longitude_deg: 147.653418
  altitude_m: 0.0
  release_time: '2026-04-14T17:13:00Z'
  due_time: '2026-04-14T17:45:00Z'
  required_duration_s: 85
  required_sensor_type: visible
  weight: 1.0
- task_id: task_0105
  name: background_0073
  latitude_deg: 43.926982
  longitude_deg: 23.606656
  altitude_m: 0.0
  release_time: '2026-04-14T20:05:00Z'
  due_time: '2026-04-14T20:51:30Z'
  required_duration_s: 25
  required_sensor_type: visible
  weight: 1.5
- task_id: task_0106
  name: Barcelona, VE
  latitude_deg: 10.1384
  longitude_deg: -64.68769
  altitude_m: 0.0
  release_time: '2026-04-14T14:36:00Z'
  due_time: '2026-04-14T15:02:30Z'
  required_duration_s: 50
  required_sensor_type: infrared
  weight: 3.0
- task_id: task_0107
  name: Taiyuan, CN
  latitude_deg: 37.86944
  longitude_deg: 112.56028
  altitude_m: 0.0
  release_time: '2026-04-14T19:54:00Z'
  due_time: '2026-04-14T21:35:30Z'
  required_duration_s: 90
  required_sensor_type: visible
  weight: 3.0
- task_id: task_0108
  name: Medan, ID
  latitude_deg: 3.58333
  longitude_deg: 98.66667
  altitude_m: 0.0
  release_time: '2026-04-14T14:46:30Z'
  due_time: '2026-04-14T15:58:00Z'
  required_duration_s: 15
  required_sensor_type: visible
  weight: 5.0
- task_id: task_0109
  name: Chennai, IN
  latitude_deg: 13.08784
  longitude_deg: 80.27847
  altitude_m: 0.0
  release_time: '2026-04-14T22:04:30Z'
  due_time: '2026-04-14T22:41:30Z'
  required_duration_s: 30
  required_sensor_type: visible
  weight: 3.0
- task_id: task_0110
  name: Nanning, CN
  latitude_deg: 22.81667
  longitude_deg: 108.31667
  altitude_m: 0.0
  release_time: '2026-04-14T14:43:00Z'
  due_time: '2026-04-14T15:14:30Z'
  required_duration_s: 65
  required_sensor_type: visible
  weight: 4.0
- task_id: task_0111
  name: background_0027
  latitude_deg: 9.635237
  longitude_deg: 106.097496
  altitude_m: 0.0
  release_time: '2026-04-14T12:40:00Z'
  due_time: '2026-04-14T13:02:30Z'
  required_duration_s: 30
  required_sensor_type: visible
  weight: 2.0
- task_id: task_0112
  name: Puebla, MX
  latitude_deg: 19.04778
  longitude_deg: -98.20723
  altitude_m: 0.0
  release_time: '2026-04-14T20:59:30Z'
  due_time: '2026-04-14T22:41:00Z'
  required_duration_s: 15
  required_sensor_type: visible
  weight: 3.0
- task_id: task_0113
  name: background_0077
  latitude_deg: -20.655531
  longitude_deg: 117.721389
  altitude_m: 0.0
  release_time: '2026-04-14T18:42:00Z'
  due_time: '2026-04-14T19:28:30Z'
  required_duration_s: 15
  required_sensor_type: visible
  weight: 2.0
- task_id: task_0114
  name: Curitiba, BR
  latitude_deg: -25.42778
  longitude_deg: -49.27306
  altitude_m: 0.0
  release_time: '2026-04-14T17:19:00Z'
  due_time: '2026-04-14T17:40:00Z'
  required_duration_s: 30
  required_sensor_type: visible
  weight: 3.0
- task_id: task_0115
  name: "S\xE3o Lu\xEDs, BR"
  latitude_deg: -2.52972
  longitude_deg: -44.30278
  altitude_m: 0.0
  release_time: '2026-04-14T18:01:00Z'
  due_time: '2026-04-14T18:22:30Z'
  required_duration_s: 90
  required_sensor_type: visible
  weight: 5.0
- task_id: task_0116
  name: Fortaleza, BR
  latitude_deg: -3.71722
  longitude_deg: -38.54306
  altitude_m: 0.0
  release_time: '2026-04-14T16:51:30Z'
  due_time: '2026-04-14T17:13:30Z'
  required_duration_s: 55
  required_sensor_type: visible
  weight: 5.0
- task_id: task_0117
  name: Puyang, CN
  latitude_deg: 29.45679
  longitude_deg: 119.88872
  altitude_m: 0.0
  release_time: '2026-04-14T13:08:00Z'
  due_time: '2026-04-14T13:59:00Z'
  required_duration_s: 60
  required_sensor_type: infrared
  weight: 3.0
- task_id: task_0118
  name: Maracaibo, VE
  latitude_deg: 10.64232
  longitude_deg: -71.61089
  altitude_m: 0.0
  release_time: '2026-04-14T14:06:30Z'
  due_time: '2026-04-14T14:42:30Z'
  required_duration_s: 50
  required_sensor_type: visible
  weight: 4.0
- task_id: task_0119
  name: Zapopan, MX
  latitude_deg: 20.72111
  longitude_deg: -103.38742
  altitude_m: 0.0
  release_time: '2026-04-14T16:47:30Z'
  due_time: '2026-04-14T18:19:00Z'
  required_duration_s: 90
  required_sensor_type: visible
  weight: 5.0
- task_id: task_0120
  name: Bayan Nur, CN
  latitude_deg: 40.74143
  longitude_deg: 107.38599
  altitude_m: 0.0
  release_time: '2026-04-14T14:17:30Z'
  due_time: '2026-04-14T15:28:30Z'
  required_duration_s: 60
  required_sensor_type: visible
  weight: 3.0
- task_id: task_0121
  name: Khartoum, SD
  latitude_deg: 15.55177
  longitude_deg: 32.53241
  altitude_m: 0.0
  release_time: '2026-04-14T18:43:00Z'
  due_time: '2026-04-14T20:14:30Z'
  required_duration_s: 60
  required_sensor_type: visible
  weight: 3.0
- task_id: task_0122
  name: Aleppo, SY
  latitude_deg: 36.20124
  longitude_deg: 37.16117
  altitude_m: 0.0
  release_time: '2026-04-14T18:38:00Z'
  due_time: '2026-04-14T19:34:00Z'
  required_duration_s: 25
  required_sensor_type: infrared
  weight: 3.0
- task_id: task_0123
  name: background_0031
  latitude_deg: -24.201724
  longitude_deg: 144.55077
  altitude_m: 0.0
  release_time: '2026-04-14T21:41:00Z'
  due_time: '2026-04-14T22:28:00Z'
  required_duration_s: 60
  required_sensor_type: visible
  weight: 2.0
- task_id: task_0124
  name: Haikou, CN
  latitude_deg: 20.03421
  longitude_deg: 110.34651
  altitude_m: 0.0
  release_time: '2026-04-14T19:02:30Z'
  due_time: '2026-04-14T20:24:00Z'
  required_duration_s: 55
  required_sensor_type: visible
  weight: 3.0
- task_id: task_0125
  name: background_0056
  latitude_deg: 74.485102
  longitude_deg: 96.394672
  altitude_m: 0.0
  release_time: '2026-04-14T16:59:30Z'
  due_time: '2026-04-14T17:26:00Z'
  required_duration_s: 35
  required_sensor_type: visible
  weight: 1.0
- task_id: task_0126
  name: Philadelphia, US
  latitude_deg: 39.95238
  longitude_deg: -75.16362
  altitude_m: 0.0
  release_time: '2026-04-14T20:01:00Z'
  due_time: '2026-04-14T20:13:00Z'
  required_duration_s: 20
  required_sensor_type: visible
  weight: 5.0
- task_id: task_0127
  name: background_0058
  latitude_deg: 54.384138
  longitude_deg: 88.156907
  altitude_m: 0.0
  release_time: '2026-04-14T15:33:00Z'
  due_time: '2026-04-14T16:00:00Z'
  required_duration_s: 75
  required_sensor_type: visible
  weight: 1.5
- task_id: task_0128
  name: background_0026
  latitude_deg: 40.038009
  longitude_deg: -5.920861
  altitude_m: 0.0
  release_time: '2026-04-14T17:44:00Z'
  due_time: '2026-04-14T18:15:30Z'
  required_duration_s: 20
  required_sensor_type: infrared
  weight: 2.0
- task_id: task_0129
  name: background_0051
  latitude_deg: -25.674637
  longitude_deg: 134.566842
  altitude_m: 0.0
  release_time: '2026-04-14T13:25:00Z'
  due_time: '2026-04-14T14:06:30Z'
  required_duration_s: 85
  required_sensor_type: infrared
  weight: 2.0
- task_id: task_0130
  name: Isfahan, IR
  latitude_deg: 32.65246
  longitude_deg: 51.67462
  altitude_m: 0.0
  release_time: '2026-04-14T18:27:30Z'
  due_time: '2026-04-14T19:28:30Z'
  required_duration_s: 55
  required_sensor_type: visible
  weight: 4.0
- task_id: task_0131
  name: background_0020
  latitude_deg: -21.278323
  longitude_deg: 117.475941
  altitude_m: 0.0
  release_time: '2026-04-14T19:02:00Z'
  due_time: '2026-04-14T19:28:30Z'
  required_duration_s: 80
  required_sensor_type: visible
  weight: 2.0
- task_id: task_0132
  name: background_0105
  latitude_deg: 32.835887
  longitude_deg: 57.059594
  altitude_m: 0.0
  release_time: '2026-04-14T13:16:00Z'
  due_time: '2026-04-14T13:27:00Z'
  required_duration_s: 50
  required_sensor_type: visible
  weight: 2.0
- task_id: task_0133
  name: "Xi\u2019an, CN"
  latitude_deg: 34.25833
  longitude_deg: 108.92861
  altitude_m: 0.0
  release_time: '2026-04-14T14:27:00Z'
  due_time: '2026-04-14T15:43:30Z'
  required_duration_s: 40
  required_sensor_type: visible
  weight: 4.0
- task_id: task_0134
  name: Gaziantep, TR
  latitude_deg: 37.05944
  longitude_deg: 37.3825
  altitude_m: 0.0
  release_time: '2026-04-14T12:20:30Z'
  due_time: '2026-04-14T12:51:30Z'
  required_duration_s: 35
  required_sensor_type: visible
  weight: 3.0
- task_id: task_0135
  name: background_0035
  latitude_deg: 53.203636
  longitude_deg: 119.015045
  altitude_m: 0.0
  release_time: '2026-04-14T20:09:30Z'
  due_time: '2026-04-14T20:46:30Z'
  required_duration_s: 55
  required_sensor_type: visible
  weight: 2.0
- task_id: task_0136
  name: background_0087
  latitude_deg: 71.430355
  longitude_deg: 121.580715
  altitude_m: 0.0
  release_time: '2026-04-14T12:11:30Z'
  due_time: '2026-04-14T12:34:00Z'
  required_duration_s: 50
  required_sensor_type: visible
  weight: 1.0
- task_id: task_0137
  name: Nashik, IN
  latitude_deg: 19.99727
  longitude_deg: 73.79096
  altitude_m: 0.0
  release_time: '2026-04-14T12:39:00Z'
  due_time: '2026-04-14T13:15:00Z'
  required_duration_s: 55
  required_sensor_type: infrared
  weight: 3.0
- task_id: task_0138
  name: background_0059
  latitude_deg: 58.673531
  longitude_deg: 119.932713
  altitude_m: 0.0
  release_time: '2026-04-14T19:07:00Z'
  due_time: '2026-04-14T19:28:30Z'
  required_duration_s: 45
  required_sensor_type: visible
  weight: 1.0
- task_id: task_0139
  name: background_0116
  latitude_deg: -27.365519
  longitude_deg: 17.454193
  altitude_m: 0.0
  release_time: '2026-04-14T16:14:30Z'
  due_time: '2026-04-14T16:35:30Z'
  required_duration_s: 35
  required_sensor_type: visible
  weight: 2.0
- task_id: task_0140
  name: background_0049
  latitude_deg: 70.402519
  longitude_deg: 98.787643
  altitude_m: 0.0
  release_time: '2026-04-14T13:08:00Z'
  due_time: '2026-04-14T13:44:00Z'
  required_duration_s: 30
  required_sensor_type: infrared
  weight: 2.0
- task_id: task_0141
  name: Hyderabad, PK
  latitude_deg: 25.39689
  longitude_deg: 68.37718
  altitude_m: 0.0
  release_time: '2026-04-14T16:57:00Z'
  due_time: '2026-04-14T17:17:30Z'
  required_duration_s: 15
  required_sensor_type: visible
  weight: 3.0
- task_id: task_0142
  name: background_0053
  latitude_deg: 48.483515
  longitude_deg: 121.065103
  altitude_m: 0.0
  release_time: '2026-04-14T12:20:30Z'
  due_time: '2026-04-14T13:22:00Z'
  required_duration_s: 35
  required_sensor_type: visible
  weight: 1.5
- task_id: task_0143
  name: Suzhou, CN
  latitude_deg: 31.30408
  longitude_deg: 120.59538
  altitude_m: 0.0
  release_time: '2026-04-14T16:14:30Z'
  due_time: '2026-04-14T16:41:00Z'
  required_duration_s: 15
  required_sensor_type: visible
  weight: 3.0
- task_id: task_0144
  name: Phnom Penh, KH
  latitude_deg: 11.56245
  longitude_deg: 104.91601
  altitude_m: 0.0
  release_time: '2026-04-14T20:21:00Z'
  due_time: '2026-04-14T20:48:00Z'
  required_duration_s: 75
  required_sensor_type: visible
  weight: 3.0
- task_id: task_0145
  name: Manhattan, US
  latitude_deg: 40.78343
  longitude_deg: -73.96625
  altitude_m: 0.0
  release_time: '2026-04-14T15:56:00Z'
  due_time: '2026-04-14T16:23:00Z'
  required_duration_s: 45
  required_sensor_type: visible
  weight: 5.0
- task_id: task_0146
  name: background_0125
  latitude_deg: 56.164684
  longitude_deg: 9.086788
  altitude_m: 0.0
  release_time: '2026-04-14T12:57:00Z'
  due_time: '2026-04-14T14:38:00Z'
  required_duration_s: 15
  required_sensor_type: visible
  weight: 1.0
- task_id: task_0147
  name: Portland, US
  latitude_deg: 45.52345
  longitude_deg: -122.67621
  altitude_m: 0.0
  release_time: '2026-04-14T19:04:00Z'
  due_time: '2026-04-14T19:40:00Z'
  required_duration_s: 55
  required_sensor_type: visible
  weight: 5.0
- task_id: task_0148
  name: background_0038
  latitude_deg: 17.52887
  longitude_deg: 76.069158
  altitude_m: 0.0
  release_time: '2026-04-14T14:28:00Z'
  due_time: '2026-04-14T14:50:00Z'
  required_duration_s: 85
  required_sensor_type: visible
  weight: 1.5
- task_id: task_0149
  name: Bursa, TR
  latitude_deg: 40.19559
  longitude_deg: 29.06013
  altitude_m: 0.0
  release_time: '2026-04-14T18:45:30Z'
  due_time: '2026-04-14T19:06:30Z'
  required_duration_s: 35
  required_sensor_type: visible
  weight: 3.0
- task_id: task_0150
  name: background_0079
  latitude_deg: 50.567807
  longitude_deg: 70.404423
  altitude_m: 0.0
  release_time: '2026-04-14T16:08:30Z'
  due_time: '2026-04-14T17:30:00Z'
  required_duration_s: 40
  required_sensor_type: visible
  weight: 1.5
- task_id: task_0151
  name: Moscow, RU
  latitude_deg: 55.75204
  longitude_deg: 37.61781
  altitude_m: 0.0
  release_time: '2026-04-14T16:09:30Z'
  due_time: '2026-04-14T16:36:30Z'
  required_duration_s: 75
  required_sensor_type: visible
  weight: 4.0
- task_id: task_0152
  name: Kaduna, NG
  latitude_deg: 10.52641
  longitude_deg: 7.43879
  altitude_m: 0.0
  release_time: '2026-04-14T14:52:00Z'
  due_time: '2026-04-14T15:18:30Z'
  required_duration_s: 55
  required_sensor_type: visible
  weight: 5.0
- task_id: task_0153
  name: background_0067
  latitude_deg: 56.500474
  longitude_deg: 55.521056
  altitude_m: 0.0
  release_time: '2026-04-14T17:27:00Z'
  due_time: '2026-04-14T18:03:30Z'
  required_duration_s: 40
  required_sensor_type: infrared
  weight: 1.5
- task_id: task_0154
  name: background_0070
  latitude_deg: 72.840991
  longitude_deg: 94.203742
  altitude_m: 0.0
  release_time: '2026-04-14T12:09:00Z'
  due_time: '2026-04-14T12:40:00Z'
  required_duration_s: 35
  required_sensor_type: visible
  weight: 1.0
- task_id: task_0155
  name: Toronto, CA
  latitude_deg: 43.70643
  longitude_deg: -79.39864
  altitude_m: 0.0
  release_time: '2026-04-14T13:14:00Z'
  due_time: '2026-04-14T14:45:00Z'
  required_duration_s: 45
  required_sensor_type: visible
  weight: 4.0
- task_id: task_0156
  name: background_0106
  latitude_deg: 40.961675
  longitude_deg: 116.981082
  altitude_m: 0.0
  release_time: '2026-04-14T12:10:00Z'
  due_time: '2026-04-14T12:36:30Z'
  required_duration_s: 30
  required_sensor_type: visible
  weight: 1.5
- task_id: task_0157
  name: Managua, NI
  latitude_deg: 12.13282
  longitude_deg: -86.2504
  altitude_m: 0.0
  release_time: '2026-04-14T16:10:00Z'
  due_time: '2026-04-14T16:36:30Z'
  required_duration_s: 30
  required_sensor_type: infrared
  weight: 4.0
- task_id: task_0158
  name: "Santo Andr\xE9, BR"
  latitude_deg: -23.66389
  longitude_deg: -46.53833
  altitude_m: 0.0
  release_time: '2026-04-14T17:13:30Z'
  due_time: '2026-04-14T17:39:30Z'
  required_duration_s: 20
  required_sensor_type: visible
  weight: 4.0
- task_id: task_0159
  name: San Pedro Sula, HN
  latitude_deg: 15.50585
  longitude_deg: -88.02588
  altitude_m: 0.0
  release_time: '2026-04-14T15:31:00Z'
  due_time: '2026-04-14T15:52:30Z'
  required_duration_s: 25
  required_sensor_type: visible
  weight: 4.0
- task_id: task_0160
  name: "Florian\xF3polis, BR"
  latitude_deg: -27.59667
  longitude_deg: -48.54917
  altitude_m: 0.0
  release_time: '2026-04-14T15:22:00Z'
  due_time: '2026-04-14T15:53:30Z'
  required_duration_s: 40
  required_sensor_type: visible
  weight: 4.0
- task_id: task_0161
  name: Guayaquil, EC
  latitude_deg: -2.19616
  longitude_deg: -79.88621
  altitude_m: 0.0
  release_time: '2026-04-14T15:03:30Z'
  due_time: '2026-04-14T15:40:00Z'
  required_duration_s: 25
  required_sensor_type: visible
  weight: 5.0
- task_id: task_0162
  name: Kinshasa, CD
  latitude_deg: -4.32758
  longitude_deg: 15.31357
  altitude_m: 0.0
  release_time: '2026-04-14T20:33:30Z'
  due_time: '2026-04-14T21:05:30Z'
  required_duration_s: 70
  required_sensor_type: visible
  weight: 3.0
- task_id: task_0163
  name: background_0096
  latitude_deg: 34.296738
  longitude_deg: 71.472213
  altitude_m: 0.0
  release_time: '2026-04-14T19:23:30Z'
  due_time: '2026-04-14T20:05:00Z'
  required_duration_s: 20
  required_sensor_type: visible
  weight: 2.0
- task_id: task_0164
  name: background_0008
  latitude_deg: -16.714809
  longitude_deg: -60.54988
  altitude_m: 0.0
  release_time: '2026-04-14T12:00:00Z'
  due_time: '2026-04-14T12:23:30Z'
  required_duration_s: 80
  required_sensor_type: visible
  weight: 2.0
- task_id: task_0165
  name: Linyi, CN
  latitude_deg: 35.06306
  longitude_deg: 118.34278
  altitude_m: 0.0
  release_time: '2026-04-14T12:56:00Z'
  due_time: '2026-04-14T14:18:00Z'
  required_duration_s: 65
  required_sensor_type: visible
  weight: 4.0
- task_id: task_0166
  name: background_0014
  latitude_deg: 56.408455
  longitude_deg: 133.257895
  altitude_m: 0.0
  release_time: '2026-04-14T21:30:30Z'
  due_time: '2026-04-14T22:07:00Z'
  required_duration_s: 75
  required_sensor_type: visible
  weight: 1.0
- task_id: task_0167
  name: background_0084
  latitude_deg: -14.148846
  longitude_deg: -58.726467
  altitude_m: 0.0
  release_time: '2026-04-14T13:56:30Z'
  due_time: '2026-04-14T14:18:00Z'
  required_duration_s: 20
  required_sensor_type: visible
  weight: 2.0
- task_id: task_0168
  name: background_0063
  latitude_deg: 43.624466
  longitude_deg: -81.158093
  altitude_m: 0.0
  release_time: '2026-04-14T20:13:30Z'
  due_time: '2026-04-14T20:45:00Z'
  required_duration_s: 35
  required_sensor_type: visible
  weight: 1.5
- task_id: task_0169
  name: Campinas, BR
  latitude_deg: -22.90556
  longitude_deg: -47.06083
  altitude_m: 0.0
  release_time: '2026-04-14T12:19:00Z'
  due_time: '2026-04-14T13:36:00Z'
  required_duration_s: 75
  required_sensor_type: visible
  weight: 5.0
- task_id: task_0170
  name: Dongguan, CN
  latitude_deg: 23.01797
  longitude_deg: 113.74866
  altitude_m: 0.0
  release_time: '2026-04-14T19:07:00Z'
  due_time: '2026-04-14T19:37:30Z'
  required_duration_s: 15
  required_sensor_type: visible
  weight: 3.0
- task_id: task_0171
  name: Sydney, AU
  latitude_deg: -33.86785
  longitude_deg: 151.20732
  altitude_m: 0.0
  release_time: '2026-04-14T12:28:30Z'
  due_time: '2026-04-14T13:05:00Z'
  required_duration_s: 15
  required_sensor_type: visible
  weight: 3.0
- task_id: task_0172
  name: Minsk, BY
  latitude_deg: 53.90019
  longitude_deg: 27.56653
  altitude_m: 0.0
  release_time: '2026-04-14T18:31:00Z'
  due_time: '2026-04-14T19:02:00Z'
  required_duration_s: 45
  required_sensor_type: visible
  weight: 3.0
- task_id: task_0173
  name: "M\xE9rida, MX"
  latitude_deg: 20.967
  longitude_deg: -89.62318
  altitude_m: 0.0
  release_time: '2026-04-14T14:19:00Z'
  due_time: '2026-04-14T15:20:30Z'
  required_duration_s: 35
  required_sensor_type: visible
  weight: 4.0
- task_id: task_0174
  name: Barcelona, ES
  latitude_deg: 41.38879
  longitude_deg: 2.15899
  altitude_m: 0.0
  release_time: '2026-04-14T20:44:30Z'
  due_time: '2026-04-14T21:11:00Z'
  required_duration_s: 20
  required_sensor_type: visible
  weight: 3.0
- task_id: task_0175
  name: Taichung, TW
  latitude_deg: 24.1469
  longitude_deg: 120.6839
  altitude_m: 0.0
  release_time: '2026-04-14T13:59:00Z'
  due_time: '2026-04-14T14:40:30Z'
  required_duration_s: 30
  required_sensor_type: visible
  weight: 4.0
- task_id: task_0176
  name: background_0117
  latitude_deg: -45.944246
  longitude_deg: 169.262383
  altitude_m: 0.0
  release_time: '2026-04-14T21:38:00Z'
  due_time: '2026-04-14T21:49:30Z'
  required_duration_s: 70
  required_sensor_type: visible
  weight: 1.0
- task_id: task_0177
  name: Liuzhou, CN
  latitude_deg: 24.32405
  longitude_deg: 109.40698
  altitude_m: 0.0
  release_time: '2026-04-14T13:46:30Z'
  due_time: '2026-04-14T14:27:30Z'
  required_duration_s: 20
  required_sensor_type: visible
  weight: 4.0
- task_id: task_0178
  name: "Lom\xE9, TG"
  latitude_deg: 6.12874
  longitude_deg: 1.22154
  altitude_m: 0.0
  release_time: '2026-04-14T17:45:00Z'
  due_time: '2026-04-14T18:11:00Z'
  required_duration_s: 25
  required_sensor_type: infrared
  weight: 5.0
- task_id: task_0179
  name: Conakry, GN
  latitude_deg: 9.53795
  longitude_deg: -13.67729
  altitude_m: 0.0
  release_time: '2026-04-14T22:11:00Z'
  due_time: '2026-04-14T22:37:30Z'
  required_duration_s: 65
  required_sensor_type: visible
  weight: 5.0
- task_id: task_0180
  name: Berlin, DE
  latitude_deg: 52.52437
  longitude_deg: 13.41053
  altitude_m: 0.0
  release_time: '2026-04-14T20:31:30Z'
  due_time: '2026-04-14T20:53:00Z'
  required_duration_s: 65
  required_sensor_type: visible
  weight: 4.0
- task_id: task_0181
  name: Serra, BR
  latitude_deg: -20.12861
  longitude_deg: -40.30778
  altitude_m: 0.0
  release_time: '2026-04-14T12:00:00Z'
  due_time: '2026-04-14T12:28:30Z'
  required_duration_s: 55
  required_sensor_type: visible
  weight: 4.0
- task_id: task_0182
  name: Baku, AZ
  latitude_deg: 40.37767
  longitude_deg: 49.89201
  altitude_m: 0.0
  release_time: '2026-04-14T18:04:30Z'
  due_time: '2026-04-14T18:35:30Z'
  required_duration_s: 15
  required_sensor_type: infrared
  weight: 4.0
- task_id: task_0183
  name: "San Miguel de Tucum\xE1n, AR"
  latitude_deg: -26.81601
  longitude_deg: -65.21051
  altitude_m: 0.0
  release_time: '2026-04-14T14:24:30Z'
  due_time: '2026-04-14T14:56:30Z'
  required_duration_s: 35
  required_sensor_type: visible
  weight: 4.0
- task_id: task_0184
  name: background_0153
  latitude_deg: -32.38023
  longitude_deg: 120.226009
  altitude_m: 0.0
  release_time: '2026-04-14T14:33:00Z'
  due_time: '2026-04-14T14:59:30Z'
  required_duration_s: 80
  required_sensor_type: visible
  weight: 1.5
- task_id: task_0185
  name: Surabaya, ID
  latitude_deg: -7.24917
  longitude_deg: 112.75083
  altitude_m: 0.0
  release_time: '2026-04-14T14:35:00Z'
  due_time: '2026-04-14T15:01:00Z'
  required_duration_s: 30
  required_sensor_type: visible
  weight: 5.0
- task_id: task_0186
  name: background_0137
  latitude_deg: -19.584571
  longitude_deg: 121.899653
  altitude_m: 0.0
  release_time: '2026-04-14T14:07:00Z'
  due_time: '2026-04-14T14:33:30Z'
  required_duration_s: 30
  required_sensor_type: visible
  weight: 1.0
- task_id: task_0187
  name: "Montr\xE9al, CA"
  latitude_deg: 45.50884
  longitude_deg: -73.58781
  altitude_m: 0.0
  release_time: '2026-04-14T18:37:00Z'
  due_time: '2026-04-14T19:33:30Z'
  required_duration_s: 60
  required_sensor_type: visible
  weight: 3.0
- task_id: task_0188
  name: Barranquilla, CO
  latitude_deg: 10.96854
  longitude_deg: -74.78132
  altitude_m: 0.0
  release_time: '2026-04-14T22:31:00Z'
  due_time: '2026-04-14T23:07:00Z'
  required_duration_s: 15
  required_sensor_type: infrared
  weight: 4.0
- task_id: task_0189
  name: Baoshan, CN
  latitude_deg: 31.40845
  longitude_deg: 121.48956
  altitude_m: 0.0
  release_time: '2026-04-14T14:12:00Z'
  due_time: '2026-04-14T14:33:30Z'
  required_duration_s: 50
  required_sensor_type: visible
  weight: 4.0
- task_id: task_0190
  name: Edmonton, CA
  latitude_deg: 53.55014
  longitude_deg: -113.46871
  altitude_m: 0.0
  release_time: '2026-04-14T13:26:00Z'
  due_time: '2026-04-14T13:57:00Z'
  required_duration_s: 30
  required_sensor_type: visible
  weight: 4.0
- task_id: task_0191
  name: Santa Marta, CO
  latitude_deg: 11.23855
  longitude_deg: -74.19427
  altitude_m: 0.0
  release_time: '2026-04-14T22:21:00Z'
  due_time: '2026-04-14T23:52:00Z'
  required_duration_s: 30
  required_sensor_type: infrared
  weight: 4.0
- task_id: task_0192
  name: Durban, ZA
  latitude_deg: -29.8579
  longitude_deg: 31.0292
  altitude_m: 0.0
  release_time: '2026-04-14T19:28:30Z'
  due_time: '2026-04-14T20:09:30Z'
  required_duration_s: 15
  required_sensor_type: visible
  weight: 5.0
- task_id: task_0193
  name: background_0015
  latitude_deg: 39.632186
  longitude_deg: 121.497024
  altitude_m: 0.0
  release_time: '2026-04-14T13:43:30Z'
  due_time: '2026-04-14T14:25:00Z'
  required_duration_s: 85
  required_sensor_type: infrared
  weight: 2.0
- task_id: task_0194
  name: background_0072
  latitude_deg: 65.716316
  longitude_deg: -22.615587
  altitude_m: 0.0
  release_time: '2026-04-14T20:24:00Z'
  due_time: '2026-04-14T21:20:30Z'
  required_duration_s: 75
  required_sensor_type: visible
  weight: 1.0
- task_id: task_0195
  name: background_0081
  latitude_deg: -76.806032
  longitude_deg: -111.318883
  altitude_m: 0.0
  release_time: '2026-04-14T15:47:30Z'
  due_time: '2026-04-14T16:14:00Z'
  required_duration_s: 75
  required_sensor_type: visible
  weight: 1.5
- task_id: task_0196
  name: Indianapolis, US
  latitude_deg: 39.76838
  longitude_deg: -86.15804
  altitude_m: 0.0
  release_time: '2026-04-14T16:35:00Z'
  due_time: '2026-04-14T17:51:30Z'
  required_duration_s: 85
  required_sensor_type: visible
  weight: 4.0
- task_id: task_0197
  name: Hong Kong, HK
  latitude_deg: 22.27832
  longitude_deg: 114.17469
  altitude_m: 0.0
  release_time: '2026-04-14T16:17:00Z'
  due_time: '2026-04-14T16:54:00Z'
  required_duration_s: 65
  required_sensor_type: visible
  weight: 4.0
- task_id: task_0198
  name: Los Angeles, US
  latitude_deg: 34.05223
  longitude_deg: -118.24368
  altitude_m: 0.0
  release_time: '2026-04-14T18:11:00Z'
  due_time: '2026-04-14T18:47:00Z'
  required_duration_s: 30
  required_sensor_type: visible
  weight: 5.0
- task_id: task_0199
  name: background_0123
  latitude_deg: 11.698346
  longitude_deg: 108.010873
  altitude_m: 0.0
  release_time: '2026-04-14T12:35:30Z'
  due_time: '2026-04-14T13:13:00Z'
  required_duration_s: 45
  required_sensor_type: visible
  weight: 1.5
- task_id: task_0200
  name: background_0103
  latitude_deg: -69.497567
  longitude_deg: 44.021984
  altitude_m: 0.0
  release_time: '2026-04-14T13:09:30Z'
  due_time: '2026-04-14T13:41:00Z'
  required_duration_s: 55
  required_sensor_type: visible
  weight: 1.0
- task_id: task_0201
  name: "Asunci\xF3n, PY"
  latitude_deg: -25.28646
  longitude_deg: -57.647
  altitude_m: 0.0
  release_time: '2026-04-14T18:22:30Z'
  due_time: '2026-04-14T18:54:30Z'
  required_duration_s: 60
  required_sensor_type: visible
  weight: 5.0
- task_id: task_0202
  name: Mianyang, CN
  latitude_deg: 31.46784
  longitude_deg: 104.68168
  altitude_m: 0.0
  release_time: '2026-04-14T14:50:30Z'
  due_time: '2026-04-14T15:12:00Z'
  required_duration_s: 70
  required_sensor_type: visible
  weight: 5.0
- task_id: task_0203
  name: Porto Alegre, BR
  latitude_deg: -30.03283
  longitude_deg: -51.23019
  altitude_m: 0.0
  release_time: '2026-04-14T17:30:00Z'
  due_time: '2026-04-14T17:46:00Z'
  required_duration_s: 45
  required_sensor_type: visible
  weight: 3.0
- task_id: task_0204
  name: Jeddah, SA
  latitude_deg: 21.49012
  longitude_deg: 39.18624
  altitude_m: 0.0
  release_time: '2026-04-14T19:20:00Z'
  due_time: '2026-04-14T19:47:00Z'
  required_duration_s: 65
  required_sensor_type: visible
  weight: 3.0
- task_id: task_0205
  name: Vadodara, IN
  latitude_deg: 22.29941
  longitude_deg: 73.20812
  altitude_m: 0.0
  release_time: '2026-04-14T15:03:00Z'
  due_time: '2026-04-14T15:29:30Z'
  required_duration_s: 90
  required_sensor_type: visible
  weight: 4.0
- task_id: task_0206
  name: Nagoya, JP
  latitude_deg: 35.18147
  longitude_deg: 136.90641
  altitude_m: 0.0
  release_time: '2026-04-14T17:31:30Z'
  due_time: '2026-04-14T17:58:00Z'
  required_duration_s: 65
  required_sensor_type: visible
  weight: 4.0
- task_id: task_0207
  name: "Monter\xEDa, CO"
  latitude_deg: 8.75081
  longitude_deg: -75.87823
  altitude_m: 0.0
  release_time: '2026-04-14T14:30:00Z'
  due_time: '2026-04-14T14:51:00Z'
  required_duration_s: 40
  required_sensor_type: visible
  weight: 4.0
- task_id: task_0208
  name: Calgary, CA
  latitude_deg: 51.05011
  longitude_deg: -114.08529
  altitude_m: 0.0
  release_time: '2026-04-14T17:49:30Z'
  due_time: '2026-04-14T18:21:00Z'
  required_duration_s: 80
  required_sensor_type: visible
  weight: 4.0
- task_id: task_0209
  name: Alexandria, EG
  latitude_deg: 31.20176
  longitude_deg: 29.91582
  altitude_m: 0.0
  release_time: '2026-04-14T14:38:00Z'
  due_time: '2026-04-14T15:04:00Z'
  required_duration_s: 35
  required_sensor_type: visible
  weight: 4.0
- task_id: task_0210
  name: background_0022
  latitude_deg: -73.813247
  longitude_deg: 91.277846
  altitude_m: 0.0
  release_time: '2026-04-14T18:25:30Z'
  due_time: '2026-04-14T18:52:00Z'
  required_duration_s: 45
  required_sensor_type: infrared
  weight: 1.0
- task_id: task_0211
  name: Salta, AR
  latitude_deg: -24.80645
  longitude_deg: -65.41999
  altitude_m: 0.0
  release_time: '2026-04-14T22:23:00Z'
  due_time: '2026-04-14T23:04:00Z'
  required_duration_s: 30
  required_sensor_type: visible
  weight: 3.0
- task_id: task_0212
  name: Brisbane, AU
  latitude_deg: -27.46794
  longitude_deg: 153.02809
  altitude_m: 0.0
  release_time: '2026-04-14T18:45:00Z'
  due_time: '2026-04-14T19:21:00Z'
  required_duration_s: 60
  required_sensor_type: visible
  weight: 3.0
- task_id: task_0213
  name: Lucknow, IN
  latitude_deg: 26.83928
  longitude_deg: 80.92313
  altitude_m: 0.0
  release_time: '2026-04-14T14:35:30Z'
  due_time: '2026-04-14T14:52:00Z'
  required_duration_s: 30
  required_sensor_type: visible
  weight: 3.0
- task_id: task_0214
  name: Pretoria, ZA
  latitude_deg: -25.74486
  longitude_deg: 28.18783
  altitude_m: 0.0
  release_time: '2026-04-14T19:51:30Z'
  due_time: '2026-04-14T20:22:30Z'
  required_duration_s: 20
  required_sensor_type: visible
  weight: 3.0
- task_id: task_0215
  name: background_0126
  latitude_deg: 27.875681
  longitude_deg: 65.798751
  altitude_m: 0.0
  release_time: '2026-04-14T17:53:30Z'
  due_time: '2026-04-14T18:20:00Z'
  required_duration_s: 80
  required_sensor_type: visible
  weight: 1.5
- task_id: task_0216
  name: background_0060
  latitude_deg: -16.77415
  longitude_deg: 142.226872
  altitude_m: 0.0
  release_time: '2026-04-14T20:13:00Z'
  due_time: '2026-04-14T20:34:30Z'
  required_duration_s: 55
  required_sensor_type: visible
  weight: 1.0
- task_id: task_0217
  name: background_0039
  latitude_deg: -23.519923
  longitude_deg: -48.977384
  altitude_m: 0.0
  release_time: '2026-04-14T13:04:00Z'
  due_time: '2026-04-14T14:00:30Z'
  required_duration_s: 90
  required_sensor_type: infrared
  weight: 2.0
- task_id: task_0218
  name: Tegucigalpa, HN
  latitude_deg: 14.0818
  longitude_deg: -87.20681
  altitude_m: 0.0
  release_time: '2026-04-14T15:21:00Z'
  due_time: '2026-04-14T15:37:00Z'
  required_duration_s: 25
  required_sensor_type: infrared
  weight: 5.0
- task_id: task_0219
  name: background_0082
  latitude_deg: -11.477913
  longitude_deg: -76.089406
  altitude_m: 0.0
  release_time: '2026-04-14T17:19:00Z'
  due_time: '2026-04-14T17:35:00Z'
  required_duration_s: 35
  required_sensor_type: visible
  weight: 1.5
- task_id: task_0220
  name: Campo Grande, BR
  latitude_deg: -20.44278
  longitude_deg: -54.64639
  altitude_m: 0.0
  release_time: '2026-04-14T15:39:00Z'
  due_time: '2026-04-14T15:55:30Z'
  required_duration_s: 45
  required_sensor_type: visible
  weight: 5.0
- task_id: task_0221
  name: "Bras\xEDlia, BR"
  latitude_deg: -15.77972
  longitude_deg: -47.92972
  altitude_m: 0.0
  release_time: '2026-04-14T13:37:00Z'
  due_time: '2026-04-14T13:58:00Z'
  required_duration_s: 60
  required_sensor_type: visible
  weight: 3.0
- task_id: task_0222
  name: Sapporo, JP
  latitude_deg: 43.06667
  longitude_deg: 141.35
  altitude_m: 0.0
  release_time: '2026-04-14T17:24:30Z'
  due_time: '2026-04-14T17:51:00Z'
  required_duration_s: 85
  required_sensor_type: visible
  weight: 3.0
- task_id: task_0223
  name: background_0049
  latitude_deg: 21.18775
  longitude_deg: 98.403691
  altitude_m: 0.0
  release_time: '2026-04-14T14:56:30Z'
  due_time: '2026-04-14T15:13:00Z'
  required_duration_s: 70
  required_sensor_type: visible
  weight: 1.5
- task_id: task_0224
  name: Lianyungang, CN
  latitude_deg: 34.59845
  longitude_deg: 119.21556
  altitude_m: 0.0
  release_time: '2026-04-14T16:23:30Z'
  due_time: '2026-04-14T16:50:30Z'
  required_duration_s: 80
  required_sensor_type: visible
  weight: 4.0
- task_id: task_0225
  name: Accra, GH
  latitude_deg: 5.55602
  longitude_deg: -0.1969
  altitude_m: 0.0
  release_time: '2026-04-14T17:35:00Z'
  due_time: '2026-04-14T18:05:30Z'
  required_duration_s: 25
  required_sensor_type: infrared
  weight: 3.0
- task_id: task_0226
  name: background_0047
  latitude_deg: 41.448907
  longitude_deg: -72.592783
  altitude_m: 0.0
  release_time: '2026-04-14T15:30:30Z'
  due_time: '2026-04-14T15:51:00Z'
  required_duration_s: 30
  required_sensor_type: visible
  weight: 1.5
- task_id: task_0227
  name: "Acapulco de Ju\xE1rez, MX"
  latitude_deg: 16.84942
  longitude_deg: -99.90891
  altitude_m: 0.0
  release_time: '2026-04-14T17:15:00Z'
  due_time: '2026-04-14T17:37:00Z'
  required_duration_s: 25
  required_sensor_type: visible
  weight: 5.0
- task_id: task_0228
  name: Kolkata, IN
  latitude_deg: 22.56263
  longitude_deg: 88.36304
  altitude_m: 0.0
  release_time: '2026-04-14T16:14:00Z'
  due_time: '2026-04-14T16:31:00Z'
  required_duration_s: 90
  required_sensor_type: visible
  weight: 4.0
- task_id: task_0229
  name: Iztapalapa, MX
  latitude_deg: 19.35529
  longitude_deg: -99.06224
  altitude_m: 0.0
  release_time: '2026-04-14T16:16:00Z'
  due_time: '2026-04-14T16:52:00Z'
  required_duration_s: 40
  required_sensor_type: visible
  weight: 5.0
- task_id: task_0230
  name: Zhuhai, CN
  latitude_deg: 22.27694
  longitude_deg: 113.56778
  altitude_m: 0.0
  release_time: '2026-04-14T13:29:00Z'
  due_time: '2026-04-14T13:55:30Z'
  required_duration_s: 70
  required_sensor_type: visible
  weight: 3.0
- task_id: task_0231
  name: background_0040
  latitude_deg: -45.828567
  longitude_deg: -68.101133
  altitude_m: 0.0
  release_time: '2026-04-14T14:12:00Z'
  due_time: '2026-04-14T14:43:00Z'
  required_duration_s: 40
  required_sensor_type: infrared
  weight: 1.5
- task_id: task_0232
  name: Lusaka, ZM
  latitude_deg: -15.40669
  longitude_deg: 28.28713
  altitude_m: 0.0
  release_time: '2026-04-14T16:06:00Z'
  due_time: '2026-04-14T16:22:30Z'
  required_duration_s: 80
  required_sensor_type: visible
  weight: 3.0
- task_id: task_0233
  name: background_0046
  latitude_deg: 44.84603
  longitude_deg: 58.670418
  altitude_m: 0.0
  release_time: '2026-04-14T17:29:00Z'
  due_time: '2026-04-14T17:55:00Z'
  required_duration_s: 60
  required_sensor_type: infrared
  weight: 1.0
- task_id: task_0234
  name: Madrid, ES
  latitude_deg: 40.4165
  longitude_deg: -3.70256
  altitude_m: 0.0
  release_time: '2026-04-14T14:55:30Z'
  due_time: '2026-04-14T15:27:30Z'
  required_duration_s: 85
  required_sensor_type: visible
  weight: 5.0
- task_id: task_0235
  name: background_0064
  latitude_deg: -70.053343
  longitude_deg: 91.691807
  altitude_m: 0.0
  release_time: '2026-04-14T12:32:30Z'
  due_time: '2026-04-14T13:09:00Z'
  required_duration_s: 80
  required_sensor_type: visible
  weight: 2.0
- task_id: task_0236
  name: Feira de Santana, BR
  latitude_deg: -12.26667
  longitude_deg: -38.96667
  altitude_m: 0.0
  release_time: '2026-04-14T12:00:00Z'
  due_time: '2026-04-14T12:21:30Z'
  required_duration_s: 30
  required_sensor_type: visible
  weight: 4.0
- task_id: task_0237
  name: Beirut, LB
  latitude_deg: 33.89332
  longitude_deg: 35.50157
  altitude_m: 0.0
  release_time: '2026-04-14T18:25:30Z'
  due_time: '2026-04-14T19:06:30Z'
  required_duration_s: 50
  required_sensor_type: visible
  weight: 5.0
- task_id: task_0238
  name: background_0061
  latitude_deg: 28.841043
  longitude_deg: 63.819241
  altitude_m: 0.0
  release_time: '2026-04-14T17:01:00Z'
  due_time: '2026-04-14T17:12:30Z'
  required_duration_s: 80
  required_sensor_type: visible
  weight: 1.5
- task_id: task_0239
  name: Shaoxing, CN
  latitude_deg: 30.00237
  longitude_deg: 120.57864
  altitude_m: 0.0
  release_time: '2026-04-14T13:01:00Z'
  due_time: '2026-04-14T14:17:00Z'
  required_duration_s: 20
  required_sensor_type: infrared
  weight: 3.0
- task_id: task_0240
  name: Beijing, CN
  latitude_deg: 39.9075
  longitude_deg: 116.39723
  altitude_m: 0.0
  release_time: '2026-04-14T13:13:30Z'
  due_time: '2026-04-14T13:50:00Z'
  required_duration_s: 70
  required_sensor_type: visible
  weight: 4.0
- task_id: task_0241
  name: background_0112
  latitude_deg: 50.908893
  longitude_deg: 39.957814
  altitude_m: 0.0
  release_time: '2026-04-14T18:48:00Z'
  due_time: '2026-04-14T19:20:30Z'
  required_duration_s: 55
  required_sensor_type: visible
  weight: 2.0
- task_id: task_0242
  name: background_0044
  latitude_deg: 55.090336
  longitude_deg: 101.606304
  altitude_m: 0.0
  release_time: '2026-04-14T14:07:30Z'
  due_time: '2026-04-14T16:08:30Z'
  required_duration_s: 50
  required_sensor_type: infrared
  weight: 1.0
- task_id: task_0243
  name: background_0066
  latitude_deg: 31.713449
  longitude_deg: 106.906563
  altitude_m: 0.0
  release_time: '2026-04-14T14:17:00Z'
  due_time: '2026-04-14T15:08:30Z'
  required_duration_s: 75
  required_sensor_type: visible
  weight: 1.0
- task_id: task_0244
  name: background_0061
  latitude_deg: -18.8708
  longitude_deg: -49.638155
  altitude_m: 0.0
  release_time: '2026-04-14T12:17:30Z'
  due_time: '2026-04-14T12:48:00Z'
  required_duration_s: 15
  required_sensor_type: infrared
  weight: 2.0
- task_id: task_0245
  name: Algiers, DZ
  latitude_deg: 36.73225
  longitude_deg: 3.08746
  altitude_m: 0.0
  release_time: '2026-04-14T16:32:00Z'
  due_time: '2026-04-14T16:48:00Z'
  required_duration_s: 15
  required_sensor_type: visible
  weight: 5.0
- task_id: task_0246
  name: background_0048
  latitude_deg: 13.186064
  longitude_deg: -4.982587
  altitude_m: 0.0
  release_time: '2026-04-14T22:03:30Z'
  due_time: '2026-04-14T23:05:00Z'
  required_duration_s: 65
  required_sensor_type: infrared
  weight: 2.0
- task_id: task_0247
  name: background_0074
  latitude_deg: 46.773431
  longitude_deg: 65.46385
  altitude_m: 0.0
  release_time: '2026-04-14T15:09:30Z'
  due_time: '2026-04-14T15:46:00Z'
  required_duration_s: 65
  required_sensor_type: visible
  weight: 1.0
- task_id: task_0248
  name: Austin, US
  latitude_deg: 30.26715
  longitude_deg: -97.74306
  altitude_m: 0.0
  release_time: '2026-04-14T21:37:00Z'
  due_time: '2026-04-14T21:59:00Z'
  required_duration_s: 90
  required_sensor_type: visible
  weight: 5.0
- task_id: task_0249
  name: Abuja, NG
  latitude_deg: 9.05785
  longitude_deg: 7.49508
  altitude_m: 0.0
  release_time: '2026-04-14T21:28:30Z'
  due_time: '2026-04-14T22:25:00Z'
  required_duration_s: 90
  required_sensor_type: infrared
  weight: 5.0
- task_id: task_0250
  name: Kingston, JM
  latitude_deg: 17.99702
  longitude_deg: -76.79358
  altitude_m: 0.0
  release_time: '2026-04-14T14:37:30Z'
  due_time: '2026-04-14T14:59:00Z'
  required_duration_s: 80
  required_sensor_type: visible
  weight: 4.0
- task_id: task_0251
  name: background_0154
  latitude_deg: 29.968977
  longitude_deg: 24.250588
  altitude_m: 0.0
  release_time: '2026-04-14T20:12:30Z'
  due_time: '2026-04-14T20:40:00Z'
  required_duration_s: 85
  required_sensor_type: visible
  weight: 1.0
- task_id: task_0252
  name: Phoenix, US
  latitude_deg: 33.44838
  longitude_deg: -112.07404
  altitude_m: 0.0
  release_time: '2026-04-14T17:15:00Z'
  due_time: '2026-04-14T17:46:00Z'
  required_duration_s: 15
  required_sensor_type: visible
  weight: 5.0
- task_id: task_0253
  name: Callao, PE
  latitude_deg: -12.05162
  longitude_deg: -77.13452
  altitude_m: 0.0
  release_time: '2026-04-14T17:18:30Z'
  due_time: '2026-04-14T17:35:00Z'
  required_duration_s: 40
  required_sensor_type: visible
  weight: 5.0
- task_id: task_0254
  name: La Paz, BO
  latitude_deg: -16.5
  longitude_deg: -68.15
  altitude_m: 0.0
  release_time: '2026-04-14T14:36:30Z'
  due_time: '2026-04-14T15:02:30Z'
  required_duration_s: 20
  required_sensor_type: visible
  weight: 3.0
- task_id: task_0255
  name: Fort Worth, US
  latitude_deg: 32.72541
  longitude_deg: -97.32085
  altitude_m: 0.0
  release_time: '2026-04-14T17:11:00Z'
  due_time: '2026-04-14T17:37:30Z'
  required_duration_s: 25
  required_sensor_type: visible
  weight: 4.0
- task_id: task_0256
  name: background_0158
  latitude_deg: 39.21759
  longitude_deg: -83.378523
  altitude_m: 0.0
  release_time: '2026-04-14T15:44:00Z'
  due_time: '2026-04-14T16:25:30Z'
  required_duration_s: 85
  required_sensor_type: visible
  weight: 1.5
- task_id: task_0257
  name: Kakamega, KE
  latitude_deg: 0.28422
  longitude_deg: 34.75229
  altitude_m: 0.0
  release_time: '2026-04-14T17:48:30Z'
  due_time: '2026-04-14T18:10:30Z'
  required_duration_s: 40
  required_sensor_type: visible
  weight: 3.0
- task_id: task_0258
  name: background_0136
  latitude_deg: -25.172154
  longitude_deg: -49.618309
  altitude_m: 0.0
  release_time: '2026-04-14T17:13:30Z'
  due_time: '2026-04-14T17:50:00Z'
  required_duration_s: 85
  required_sensor_type: visible
  weight: 1.0
- task_id: task_0259
  name: Jinan, CN
  latitude_deg: 36.66833
  longitude_deg: 116.99722
  altitude_m: 0.0
  release_time: '2026-04-14T12:56:30Z'
  due_time: '2026-04-14T14:28:30Z'
  required_duration_s: 30
  required_sensor_type: visible
  weight: 3.0
- task_id: task_0260
  name: Buenos Aires, AR
  latitude_deg: -34.61315
  longitude_deg: -58.37723
  altitude_m: 0.0
  release_time: '2026-04-14T18:15:30Z'
  due_time: '2026-04-14T18:41:30Z'
  required_duration_s: 50
  required_sensor_type: visible
  weight: 4.0
- task_id: task_0261
  name: Quezon City, PH
  latitude_deg: 14.6488
  longitude_deg: 121.0509
  altitude_m: 0.0
  release_time: '2026-04-14T12:03:30Z'
  due_time: '2026-04-14T12:14:30Z'
  required_duration_s: 15
  required_sensor_type: visible
  weight: 4.0
- task_id: task_0262
  name: Shijiazhuang, CN
  latitude_deg: 38.04139
  longitude_deg: 114.47861
  altitude_m: 0.0
  release_time: '2026-04-14T14:04:00Z'
  due_time: '2026-04-14T14:30:30Z'
  required_duration_s: 65
  required_sensor_type: infrared
  weight: 3.0
- task_id: task_0263
  name: background_0030
  latitude_deg: 55.220149
  longitude_deg: -114.768082
  altitude_m: 0.0
  release_time: '2026-04-14T18:58:00Z'
  due_time: '2026-04-14T19:40:00Z'
  required_duration_s: 60
  required_sensor_type: visible
  weight: 1.5
- task_id: task_0264
  name: background_0100
  latitude_deg: 40.424923
  longitude_deg: 57.091738
  altitude_m: 0.0
  release_time: '2026-04-14T17:55:30Z'
  due_time: '2026-04-14T18:46:30Z'
  required_duration_s: 20
  required_sensor_type: visible
  weight: 1.0
- task_id: task_0265
  name: background_0020
  latitude_deg: 27.41137
  longitude_deg: -7.101038
  altitude_m: 0.0
  release_time: '2026-04-14T22:07:30Z'
  due_time: '2026-04-14T22:59:00Z'
  required_duration_s: 60
  required_sensor_type: infrared
  weight: 2.0
- task_id: task_0266
  name: Londrina, BR
  latitude_deg: -23.31028
  longitude_deg: -51.16278
  altitude_m: 0.0
  release_time: '2026-04-14T13:33:30Z'
  due_time: '2026-04-14T14:00:00Z'
  required_duration_s: 65
  required_sensor_type: visible
  weight: 4.0
- task_id: task_0267
  name: Memphis, US
  latitude_deg: 35.14953
  longitude_deg: -90.04898
  altitude_m: 0.0
  release_time: '2026-04-14T15:45:00Z'
  due_time: '2026-04-14T16:21:30Z'
  required_duration_s: 65
  required_sensor_type: visible
  weight: 3.0
- task_id: task_0268
  name: Osasco, BR
  latitude_deg: -23.5325
  longitude_deg: -46.79167
  altitude_m: 0.0
  release_time: '2026-04-14T17:18:30Z'
  due_time: '2026-04-14T17:49:30Z'
  required_duration_s: 25
  required_sensor_type: visible
  weight: 4.0
- task_id: task_0269
  name: Denver, US
  latitude_deg: 39.73915
  longitude_deg: -104.9847
  altitude_m: 0.0
  release_time: '2026-04-14T17:33:00Z'
  due_time: '2026-04-14T18:04:30Z'
  required_duration_s: 65
  required_sensor_type: infrared
  weight: 5.0
- task_id: task_0270
  name: Kallakurichi, IN
  latitude_deg: 11.73379
  longitude_deg: 78.95925
  altitude_m: 0.0
  release_time: '2026-04-14T22:05:00Z'
  due_time: '2026-04-14T22:32:00Z'
  required_duration_s: 70
  required_sensor_type: visible
  weight: 3.0
- task_id: task_0271
  name: "Le\xF3n de los Aldama, MX"
  latitude_deg: 21.12908
  longitude_deg: -101.67374
  altitude_m: 0.0
  release_time: '2026-04-14T14:57:00Z'
  due_time: '2026-04-14T16:18:30Z'
  required_duration_s: 90
  required_sensor_type: visible
  weight: 5.0
- task_id: task_0272
  name: Changchun, CN
  latitude_deg: 43.88
  longitude_deg: 125.32278
  altitude_m: 0.0
  release_time: '2026-04-14T16:11:00Z'
  due_time: '2026-04-14T16:47:30Z'
  required_duration_s: 20
  required_sensor_type: visible
  weight: 5.0
- task_id: task_0273
  name: Multan, PK
  latitude_deg: 30.19679
  longitude_deg: 71.47824
  altitude_m: 0.0
  release_time: '2026-04-14T17:07:30Z'
  due_time: '2026-04-14T17:38:30Z'
  required_duration_s: 40
  required_sensor_type: infrared
  weight: 3.0
- task_id: task_0274
  name: Warsaw, PL
  latitude_deg: 52.22977
  longitude_deg: 21.01178
  altitude_m: 0.0
  release_time: '2026-04-14T14:43:30Z'
  due_time: '2026-04-14T15:25:00Z'
  required_duration_s: 40
  required_sensor_type: visible
  weight: 4.0
- task_id: task_0275
  name: background_0160
  latitude_deg: 60.068776
  longitude_deg: 166.665349
  altitude_m: 0.0
  release_time: '2026-04-14T15:43:30Z'
  due_time: '2026-04-14T16:14:30Z'
  required_duration_s: 50
  required_sensor_type: visible
  weight: 2.0
- task_id: task_0276
  name: background_0039
  latitude_deg: 31.85417
  longitude_deg: 41.2716
  altitude_m: 0.0
  release_time: '2026-04-14T16:59:30Z'
  due_time: '2026-04-14T18:41:00Z'
  required_duration_s: 75
  required_sensor_type: visible
  weight: 1.0
- task_id: task_0277
  name: background_0053
  latitude_deg: 56.301386
  longitude_deg: 116.385739
  altitude_m: 0.0
  release_time: '2026-04-14T13:48:30Z'
  due_time: '2026-04-14T14:24:30Z'
  required_duration_s: 40
  required_sensor_type: infrared
  weight: 1.5
- task_id: task_0278
  name: Abu Dhabi, AE
  latitude_deg: 24.45118
  longitude_deg: 54.39696
  altitude_m: 0.0
  release_time: '2026-04-14T15:50:00Z'
  due_time: '2026-04-14T16:37:00Z'
  required_duration_s: 45
  required_sensor_type: visible
  weight: 4.0
- task_id: task_0279
  name: Nashville, US
  latitude_deg: 36.16589
  longitude_deg: -86.78444
  altitude_m: 0.0
  release_time: '2026-04-14T16:05:00Z'
  due_time: '2026-04-14T16:46:00Z'
  required_duration_s: 15
  required_sensor_type: infrared
  weight: 5.0
- task_id: task_0280
  name: Quetta, PK
  latitude_deg: 30.18414
  longitude_deg: 67.00141
  altitude_m: 0.0
  release_time: '2026-04-14T12:54:00Z'
  due_time: '2026-04-14T13:35:30Z'
  required_duration_s: 35
  required_sensor_type: visible
  weight: 5.0
- task_id: task_0281
  name: background_0037
  latitude_deg: 23.538127
  longitude_deg: -9.429922
  altitude_m: 0.0
  release_time: '2026-04-14T21:37:30Z'
  due_time: '2026-04-14T22:04:00Z'
  required_duration_s: 60
  required_sensor_type: visible
  weight: 1.0
- task_id: task_0282
  name: Nantong, CN
  latitude_deg: 32.03028
  longitude_deg: 120.87472
  altitude_m: 0.0
  release_time: '2026-04-14T13:41:30Z'
  due_time: '2026-04-14T14:43:00Z'
  required_duration_s: 35
  required_sensor_type: infrared
  weight: 5.0
- task_id: task_0283
  name: Dallas, US
  latitude_deg: 32.78306
  longitude_deg: -96.80667
  altitude_m: 0.0
  release_time: '2026-04-14T16:36:00Z'
  due_time: '2026-04-14T17:57:30Z'
  required_duration_s: 40
  required_sensor_type: visible
  weight: 5.0
- task_id: task_0284
  name: background_0119
  latitude_deg: 62.727581
  longitude_deg: -120.970311
  altitude_m: 0.0
  release_time: '2026-04-14T16:53:30Z'
  due_time: '2026-04-14T18:10:00Z'
  required_duration_s: 65
  required_sensor_type: visible
  weight: 1.5
- task_id: task_0285
  name: Belo Horizonte, BR
  latitude_deg: -19.92083
  longitude_deg: -43.93778
  altitude_m: 0.0
  release_time: '2026-04-14T20:52:00Z'
  due_time: '2026-04-14T21:28:30Z'
  required_duration_s: 60
  required_sensor_type: visible
  weight: 5.0
- task_id: task_0286
  name: Ahmedabad, IN
  latitude_deg: 23.02579
  longitude_deg: 72.58727
  altitude_m: 0.0
  release_time: '2026-04-14T14:58:30Z'
  due_time: '2026-04-14T15:34:30Z'
  required_duration_s: 60
  required_sensor_type: visible
  weight: 3.0
- task_id: task_0287
  name: "S\xE3o Jos\xE9 dos Campos, BR"
  latitude_deg: -23.17944
  longitude_deg: -45.88694
  altitude_m: 0.0
  release_time: '2026-04-14T13:15:30Z'
  due_time: '2026-04-14T13:46:30Z'
  required_duration_s: 35
  required_sensor_type: visible
  weight: 4.0
- task_id: task_0288
  name: background_0083
  latitude_deg: 30.038432
  longitude_deg: 36.081611
  altitude_m: 0.0
  release_time: '2026-04-14T18:24:30Z'
  due_time: '2026-04-14T19:00:30Z'
  required_duration_s: 25
  required_sensor_type: visible
  weight: 1.0
- task_id: task_0289
  name: Aguascalientes, MX
  latitude_deg: 21.88262
  longitude_deg: -102.2843
  altitude_m: 0.0
  release_time: '2026-04-14T12:00:00Z'
  due_time: '2026-04-14T12:38:30Z'
  required_duration_s: 35
  required_sensor_type: visible
  weight: 5.0
- task_id: task_0290
  name: background_0127
  latitude_deg: 28.69794
  longitude_deg: 28.170153
  altitude_m: 0.0
  release_time: '2026-04-14T20:26:00Z'
  due_time: '2026-04-14T20:47:30Z'
  required_duration_s: 50
  required_sensor_type: visible
  weight: 2.0
- task_id: task_0291
  name: Incheon, KR
  latitude_deg: 37.45646
  longitude_deg: 126.70515
  altitude_m: 0.0
  release_time: '2026-04-14T21:36:00Z'
  due_time: '2026-04-14T22:12:00Z'
  required_duration_s: 55
  required_sensor_type: visible
  weight: 4.0
- task_id: task_0292
  name: background_0159
  latitude_deg: 62.90633
  longitude_deg: 156.382186
  altitude_m: 0.0
  release_time: '2026-04-14T14:38:30Z'
  due_time: '2026-04-14T14:50:00Z'
  required_duration_s: 65
  required_sensor_type: visible
  weight: 2.0
- task_id: task_0293
  name: Yantai, CN
  latitude_deg: 37.47649
  longitude_deg: 121.44081
  altitude_m: 0.0
  release_time: '2026-04-14T13:31:00Z'
  due_time: '2026-04-14T14:07:00Z'
  required_duration_s: 30
  required_sensor_type: visible
  weight: 5.0
- task_id: task_0294
  name: Huai'an, CN
  latitude_deg: 33.58861
  longitude_deg: 119.01917
  altitude_m: 0.0
  release_time: '2026-04-14T12:18:00Z'
  due_time: '2026-04-14T13:59:00Z'
  required_duration_s: 50
  required_sensor_type: infrared
  weight: 4.0
- task_id: task_0295
  name: Tainan, TW
  latitude_deg: 22.99083
  longitude_deg: 120.21333
  altitude_m: 0.0
  release_time: '2026-04-14T13:15:30Z'
  due_time: '2026-04-14T13:26:30Z'
  required_duration_s: 40
  required_sensor_type: infrared
  weight: 4.0
- task_id: task_0296
  name: Kunshan, CN
  latitude_deg: 31.37762
  longitude_deg: 120.95431
  altitude_m: 0.0
  release_time: '2026-04-14T13:12:00Z'
  due_time: '2026-04-14T13:33:00Z'
  required_duration_s: 25
  required_sensor_type: infrared
  weight: 4.0
- task_id: task_0297
  name: background_0040
  latitude_deg: -27.811863
  longitude_deg: -65.895068
  altitude_m: 0.0
  release_time: '2026-04-14T14:21:30Z'
  due_time: '2026-04-14T15:38:00Z'
  required_duration_s: 85
  required_sensor_type: visible
  weight: 1.0
- task_id: task_0298
  name: background_0162
  latitude_deg: 70.419162
  longitude_deg: 24.232527
  altitude_m: 0.0
  release_time: '2026-04-14T17:34:00Z'
  due_time: '2026-04-14T18:00:30Z'
  required_duration_s: 90
  required_sensor_type: visible
  weight: 2.0
- task_id: task_0299
  name: Chiclayo, PE
  latitude_deg: -6.77008
  longitude_deg: -79.85495
  altitude_m: 0.0
  release_time: '2026-04-14T15:22:30Z'
  due_time: '2026-04-14T15:44:00Z'
  required_duration_s: 50
  required_sensor_type: visible
  weight: 3.0
- task_id: task_0300
  name: Cuenca, EC
  latitude_deg: -2.8953
  longitude_deg: -78.9963
  altitude_m: 0.0
  release_time: '2026-04-14T17:11:00Z'
  due_time: '2026-04-14T17:47:30Z'
  required_duration_s: 65
  required_sensor_type: visible
  weight: 4.0
- task_id: task_0301
  name: Montevideo, UY
  latitude_deg: -34.90328
  longitude_deg: -56.18816
  altitude_m: 0.0
  release_time: '2026-04-14T12:53:30Z'
  due_time: '2026-04-14T13:10:00Z'
  required_duration_s: 45
  required_sensor_type: visible
  weight: 3.0
- task_id: task_0302
  name: Singapore, SG
  latitude_deg: 1.28967
  longitude_deg: 103.85007
  altitude_m: 0.0
  release_time: '2026-04-14T15:08:00Z'
  due_time: '2026-04-14T15:30:00Z'
  required_duration_s: 70
  required_sensor_type: visible
  weight: 4.0
- task_id: task_0303
  name: Pune, IN
  latitude_deg: 18.51957
  longitude_deg: 73.85535
  altitude_m: 0.0
  release_time: '2026-04-14T15:07:00Z'
  due_time: '2026-04-14T15:38:30Z'
  required_duration_s: 80
  required_sensor_type: visible
  weight: 5.0
- task_id: task_0304
  name: Hefei, CN
  latitude_deg: 31.86389
  longitude_deg: 117.28083
  altitude_m: 0.0
  release_time: '2026-04-14T21:48:30Z'
  due_time: '2026-04-14T22:04:30Z'
  required_duration_s: 25
  required_sensor_type: visible
  weight: 3.0
- task_id: task_0305
  name: Columbus, US
  latitude_deg: 39.96118
  longitude_deg: -82.99879
  altitude_m: 0.0
  release_time: '2026-04-14T20:04:30Z'
  due_time: '2026-04-14T20:46:00Z'
  required_duration_s: 80
  required_sensor_type: visible
  weight: 4.0
- task_id: task_0306
  name: background_0122
  latitude_deg: -14.525798
  longitude_deg: -42.212234
  altitude_m: 0.0
  release_time: '2026-04-14T22:27:00Z'
  due_time: '2026-04-14T23:03:00Z'
  required_duration_s: 30
  required_sensor_type: visible
  weight: 2.0
- task_id: task_0307
  name: Gazipur, BD
  latitude_deg: 23.99844
  longitude_deg: 90.42234
  altitude_m: 0.0
  release_time: '2026-04-14T15:03:00Z'
  due_time: '2026-04-14T15:49:00Z'
  required_duration_s: 45
  required_sensor_type: visible
  weight: 3.0
- task_id: task_0308
  name: background_0050
  latitude_deg: 56.164146
  longitude_deg: -69.3642
  altitude_m: 0.0
  release_time: '2026-04-14T15:45:00Z'
  due_time: '2026-04-14T16:16:30Z'
  required_duration_s: 80
  required_sensor_type: visible
  weight: 1.5
- task_id: task_0309
  name: background_0055
  latitude_deg: 25.081453
  longitude_deg: 70.452885
  altitude_m: 0.0
  release_time: '2026-04-14T15:39:00Z'
  due_time: '2026-04-14T16:15:30Z'
  required_duration_s: 90
  required_sensor_type: visible
  weight: 1.0
- task_id: task_0310
  name: "Culiac\xE1n, MX"
  latitude_deg: 24.80209
  longitude_deg: -107.39421
  altitude_m: 0.0
  release_time: '2026-04-14T15:06:30Z'
  due_time: '2026-04-14T15:28:00Z'
  required_duration_s: 20
  required_sensor_type: visible
  weight: 3.0
- task_id: task_0311
  name: background_0032
  latitude_deg: 1.675444
  longitude_deg: 25.520727
  altitude_m: 0.0
  release_time: '2026-04-14T20:39:00Z'
  due_time: '2026-04-14T21:05:00Z'
  required_duration_s: 55
  required_sensor_type: infrared
  weight: 1.0
- task_id: task_0312
  name: Hamburg, DE
  latitude_deg: 53.55073
  longitude_deg: 9.99302
  altitude_m: 0.0
  release_time: '2026-04-14T20:53:30Z'
  due_time: '2026-04-14T21:25:00Z'
  required_duration_s: 85
  required_sensor_type: infrared
  weight: 3.0
- task_id: task_0313
  name: Hermosillo, MX
  latitude_deg: 29.08874
  longitude_deg: -110.96677
  altitude_m: 0.0
  release_time: '2026-04-14T18:52:00Z'
  due_time: '2026-04-14T19:34:00Z'
  required_duration_s: 35
  required_sensor_type: visible
  weight: 5.0
- task_id: task_0314
  name: Gujranwala, PK
  latitude_deg: 32.15567
  longitude_deg: 74.18705
  altitude_m: 0.0
  release_time: '2026-04-14T16:42:30Z'
  due_time: '2026-04-14T17:38:30Z'
  required_duration_s: 40
  required_sensor_type: infrared
  weight: 5.0
- task_id: task_0315
  name: Mbuji-Mayi, CD
  latitude_deg: -6.13603
  longitude_deg: 23.58979
  altitude_m: 0.0
  release_time: '2026-04-14T20:02:00Z'
  due_time: '2026-04-14T20:28:00Z'
  required_duration_s: 35
  required_sensor_type: visible
  weight: 5.0
- task_id: task_0316
  name: background_0058
  latitude_deg: -72.910883
  longitude_deg: 169.296868
  altitude_m: 0.0
  release_time: '2026-04-14T17:03:30Z'
  due_time: '2026-04-14T17:39:30Z'
  required_duration_s: 55
  required_sensor_type: infrared
  weight: 1.5
- task_id: task_0317
  name: Karaj, IR
  latitude_deg: 35.83266
  longitude_deg: 50.99155
  altitude_m: 0.0
  release_time: '2026-04-14T18:06:00Z'
  due_time: '2026-04-14T19:17:00Z'
  required_duration_s: 50
  required_sensor_type: infrared
  weight: 3.0
- task_id: task_0318
  name: Tangshan, CN
  latitude_deg: 39.64381
  longitude_deg: 118.18319
  altitude_m: 0.0
  release_time: '2026-04-14T16:12:30Z'
  due_time: '2026-04-14T16:34:00Z'
  required_duration_s: 40
  required_sensor_type: visible
  weight: 4.0
- task_id: task_0319
  name: background_0002
  latitude_deg: -69.494916
  longitude_deg: 147.58674
  altitude_m: 0.0
  release_time: '2026-04-14T18:52:30Z'
  due_time: '2026-04-14T19:03:30Z'
  required_duration_s: 15
  required_sensor_type: infrared
  weight: 2.0
- task_id: task_0320
  name: background_0093
  latitude_deg: -13.184696
  longitude_deg: 143.485258
  altitude_m: 0.0
  release_time: '2026-04-14T20:07:30Z'
  due_time: '2026-04-14T20:43:00Z'
  required_duration_s: 20
  required_sensor_type: visible
  weight: 1.0
- task_id: task_0321
  name: Bucharest, RO
  latitude_deg: 44.43225
  longitude_deg: 26.10626
  altitude_m: 0.0
  release_time: '2026-04-14T22:40:30Z'
  due_time: '2026-04-14T23:27:00Z'
  required_duration_s: 40
  required_sensor_type: visible
  weight: 5.0
- task_id: task_0322
  name: background_0025
  latitude_deg: 40.263019
  longitude_deg: -77.226318
  altitude_m: 0.0
  release_time: '2026-04-14T19:36:30Z'
  due_time: '2026-04-14T20:28:30Z'
  required_duration_s: 75
  required_sensor_type: visible
  weight: 2.0
- task_id: task_0323
  name: Chihuahua, MX
  latitude_deg: 28.63528
  longitude_deg: -106.08889
  altitude_m: 0.0
  release_time: '2026-04-14T13:25:00Z'
  due_time: '2026-04-14T13:41:30Z'
  required_duration_s: 30
  required_sensor_type: infrared
  weight: 5.0
- task_id: task_0324
  name: Porto Velho, BR
  latitude_deg: -8.76194
  longitude_deg: -63.90389
  altitude_m: 0.0
  release_time: '2026-04-14T19:37:30Z'
  due_time: '2026-04-14T20:14:30Z'
  required_duration_s: 70
  required_sensor_type: visible
  weight: 3.0
- task_id: task_0325
  name: Caracas, VE
  latitude_deg: 10.48801
  longitude_deg: -66.87919
  altitude_m: 0.0
  release_time: '2026-04-14T12:28:30Z'
  due_time: '2026-04-14T12:55:00Z'
  required_duration_s: 35
  required_sensor_type: visible
  weight: 3.0
- task_id: task_0326
  name: background_0003
  latitude_deg: 64.682794
  longitude_deg: 11.312239
  altitude_m: 0.0
  release_time: '2026-04-14T17:52:00Z'
  due_time: '2026-04-14T18:24:00Z'
  required_duration_s: 75
  required_sensor_type: visible
  weight: 2.0
- task_id: task_0327
  name: Kabul, AF
  latitude_deg: 34.52813
  longitude_deg: 69.17233
  altitude_m: 0.0
  release_time: '2026-04-14T19:23:30Z'
  due_time: '2026-04-14T19:55:00Z'
  required_duration_s: 85
  required_sensor_type: visible
  weight: 3.0
- task_id: task_0328
  name: Washington, US
  latitude_deg: 38.89511
  longitude_deg: -77.03637
  altitude_m: 0.0
  release_time: '2026-04-14T15:52:30Z'
  due_time: '2026-04-14T17:13:30Z'
  required_duration_s: 20
  required_sensor_type: infrared
  weight: 3.0
- task_id: task_0329
  name: background_0141
  latitude_deg: -20.25973
  longitude_deg: 120.424187
  altitude_m: 0.0
  release_time: '2026-04-14T14:20:30Z'
  due_time: '2026-04-14T14:47:00Z'
  required_duration_s: 65
  required_sensor_type: visible
  weight: 2.0
- task_id: task_0330
  name: "San Luis Potos\xED, MX"
  latitude_deg: 22.15234
  longitude_deg: -100.97135
  altitude_m: 0.0
  release_time: '2026-04-14T12:00:00Z'
  due_time: '2026-04-14T12:58:30Z'
  required_duration_s: 65
  required_sensor_type: visible
  weight: 3.0
- task_id: task_0331
  name: background_0057
  latitude_deg: 48.436524
  longitude_deg: 12.83741
  altitude_m: 0.0
  release_time: '2026-04-14T20:44:00Z'
  due_time: '2026-04-14T21:05:30Z'
  required_duration_s: 40
  required_sensor_type: infrared
  weight: 1.5
- task_id: task_0332
  name: background_0080
  latitude_deg: 77.32449
  longitude_deg: -79.567024
  altitude_m: 0.0
  release_time: '2026-04-14T15:19:30Z'
  due_time: '2026-04-14T16:36:00Z'
  required_duration_s: 25
  required_sensor_type: visible
  weight: 1.5
- task_id: task_0333
  name: background_0057
  latitude_deg: 15.9205
  longitude_deg: -93.240983
  altitude_m: 0.0
  release_time: '2026-04-14T15:35:00Z'
  due_time: '2026-04-14T16:46:30Z'
  required_duration_s: 85
  required_sensor_type: visible
  weight: 1.5
- task_id: task_0334
  name: Agra, IN
  latitude_deg: 27.18333
  longitude_deg: 78.01667
  altitude_m: 0.0
  release_time: '2026-04-14T15:45:00Z'
  due_time: '2026-04-14T16:06:30Z'
  required_duration_s: 85
  required_sensor_type: visible
  weight: 3.0
- task_id: task_0335
  name: Nanyang, CN
  latitude_deg: 33.00524
  longitude_deg: 112.54659
  altitude_m: 0.0
  release_time: '2026-04-14T13:30:30Z'
  due_time: '2026-04-14T14:46:30Z'
  required_duration_s: 60
  required_sensor_type: visible
  weight: 5.0
- task_id: task_0336
  name: background_0090
  latitude_deg: 31.214984
  longitude_deg: 94.343731
  altitude_m: 0.0
  release_time: '2026-04-14T17:47:00Z'
  due_time: '2026-04-14T18:18:30Z'
  required_duration_s: 70
  required_sensor_type: visible
  weight: 1.5
- task_id: task_0337
  name: "Goi\xE2nia, BR"
  latitude_deg: -16.67861
  longitude_deg: -49.25389
  altitude_m: 0.0
  release_time: '2026-04-14T12:47:00Z'
  due_time: '2026-04-14T14:48:30Z'
  required_duration_s: 20
  required_sensor_type: visible
  weight: 3.0
- task_id: task_0338
  name: London, GB
  latitude_deg: 51.50853
  longitude_deg: -0.12574
  altitude_m: 0.0
  release_time: '2026-04-14T16:20:30Z'
  due_time: '2026-04-14T16:52:00Z'
  required_duration_s: 80
  required_sensor_type: visible
  weight: 3.0
- task_id: task_0339
  name: background_0013
  latitude_deg: 44.129379
  longitude_deg: 59.796548
  altitude_m: 0.0
  release_time: '2026-04-14T15:58:30Z'
  due_time: '2026-04-14T17:29:30Z'
  required_duration_s: 60
  required_sensor_type: visible
  weight: 1.0
- task_id: task_0340
  name: background_0063
  latitude_deg: 53.322192
  longitude_deg: 141.736802
  altitude_m: 0.0
  release_time: '2026-04-14T12:12:00Z'
  due_time: '2026-04-14T12:43:00Z'
  required_duration_s: 55
  required_sensor_type: infrared
  weight: 2.0
- task_id: task_0341
  name: Jacksonville, US
  latitude_deg: 30.33218
  longitude_deg: -81.65565
  altitude_m: 0.0
  release_time: '2026-04-14T15:44:30Z'
  due_time: '2026-04-14T17:06:00Z'
  required_duration_s: 75
  required_sensor_type: visible
  weight: 5.0
- task_id: task_0342
  name: Peshawar, PK
  latitude_deg: 34.008
  longitude_deg: 71.57849
  altitude_m: 0.0
  release_time: '2026-04-14T17:13:00Z'
  due_time: '2026-04-14T17:44:30Z'
  required_duration_s: 90
  required_sensor_type: visible
  weight: 5.0
- task_id: task_0343
  name: Addis Ababa, ET
  latitude_deg: 9.02497
  longitude_deg: 38.74689
  altitude_m: 0.0
  release_time: '2026-04-14T18:32:00Z'
  due_time: '2026-04-14T18:53:30Z'
  required_duration_s: 85
  required_sensor_type: visible
  weight: 5.0
- task_id: task_0344
  name: Chicago, US
  latitude_deg: 41.85003
  longitude_deg: -87.65005
  altitude_m: 0.0
  release_time: '2026-04-14T15:10:30Z'
  due_time: '2026-04-14T15:47:00Z'
  required_duration_s: 65
  required_sensor_type: visible
  weight: 3.0
- task_id: task_0345
  name: Qingyang, CN
  latitude_deg: 35.70976
  longitude_deg: 107.64455
  altitude_m: 0.0
  release_time: '2026-04-14T20:24:30Z'
  due_time: '2026-04-14T20:46:30Z'
  required_duration_s: 70
  required_sensor_type: visible
  weight: 4.0
- task_id: task_0346
  name: Bandung, ID
  latitude_deg: -6.92222
  longitude_deg: 107.60694
  altitude_m: 0.0
  release_time: '2026-04-14T14:31:00Z'
  due_time: '2026-04-14T16:02:30Z'
  required_duration_s: 85
  required_sensor_type: infrared
  weight: 5.0
- task_id: task_0347
  name: "Nova Igua\xE7u, BR"
  latitude_deg: -22.75917
  longitude_deg: -43.45111
  altitude_m: 0.0
  release_time: '2026-04-14T12:43:30Z'
  due_time: '2026-04-14T14:04:30Z'
  required_duration_s: 30
  required_sensor_type: visible
  weight: 3.0
- task_id: task_0348
  name: background_0004
  latitude_deg: -31.588541
  longitude_deg: 137.301249
  altitude_m: 0.0
  release_time: '2026-04-14T20:06:30Z'
  due_time: '2026-04-14T20:33:00Z'
  required_duration_s: 85
  required_sensor_type: infrared
  weight: 1.5
- task_id: task_0349
  name: Palembang, ID
  latitude_deg: -2.91673
  longitude_deg: 104.7458
  altitude_m: 0.0
  release_time: '2026-04-14T15:33:30Z'
  due_time: '2026-04-14T15:55:00Z'
  required_duration_s: 35
  required_sensor_type: visible
  weight: 5.0
- task_id: task_0350
  name: background_0149
  latitude_deg: 36.995098
  longitude_deg: 78.551398
  altitude_m: 0.0
  release_time: '2026-04-14T15:22:00Z'
  due_time: '2026-04-14T16:24:00Z'
  required_duration_s: 20
  required_sensor_type: visible
  weight: 1.5
- task_id: task_0351
  name: background_0120
  latitude_deg: 27.481035
  longitude_deg: 111.692101
  altitude_m: 0.0
  release_time: '2026-04-14T14:30:00Z'
  due_time: '2026-04-14T14:56:30Z'
  required_duration_s: 90
  required_sensor_type: visible
  weight: 2.0
- task_id: task_0352
  name: Cairo, EG
  latitude_deg: 30.06263
  longitude_deg: 31.24967
  altitude_m: 0.0
  release_time: '2026-04-14T19:01:30Z'
  due_time: '2026-04-14T20:18:00Z'
  required_duration_s: 75
  required_sensor_type: visible
  weight: 3.0
- task_id: task_0353
  name: "Cuiab\xE1, BR"
  latitude_deg: -15.59611
  longitude_deg: -56.09667
  altitude_m: 0.0
  release_time: '2026-04-14T13:13:30Z'
  due_time: '2026-04-14T14:14:30Z'
  required_duration_s: 15
  required_sensor_type: visible
  weight: 5.0
- task_id: task_0354
  name: background_0150
  latitude_deg: 78.575075
  longitude_deg: -70.967808
  altitude_m: 0.0
  release_time: '2026-04-14T20:40:00Z'
  due_time: '2026-04-14T21:07:00Z'
  required_duration_s: 80
  required_sensor_type: visible
  weight: 1.5
- task_id: task_0355
  name: Kumasi, GH
  latitude_deg: 6.68848
  longitude_deg: -1.62443
  altitude_m: 0.0
  release_time: '2026-04-14T22:27:00Z'
  due_time: '2026-04-14T22:43:00Z'
  required_duration_s: 35
  required_sensor_type: infrared
  weight: 3.0
- task_id: task_0356
  name: "Matur\xEDn, VE"
  latitude_deg: 9.74569
  longitude_deg: -63.18323
  altitude_m: 0.0
  release_time: '2026-04-14T13:24:30Z'
  due_time: '2026-04-14T14:56:00Z'
  required_duration_s: 85
  required_sensor_type: infrared
  weight: 3.0
- task_id: task_0357
  name: background_0109
  latitude_deg: 56.095137
  longitude_deg: 106.592906
  altitude_m: 0.0
  release_time: '2026-04-14T15:32:30Z'
  due_time: '2026-04-14T16:09:00Z'
  required_duration_s: 15
  required_sensor_type: visible
  weight: 2.0
- task_id: task_0358
  name: background_0089
  latitude_deg: 46.579
  longitude_deg: 113.98293
  altitude_m: 0.0
  release_time: '2026-04-14T18:06:30Z'
  due_time: '2026-04-14T18:47:30Z'
  required_duration_s: 25
  required_sensor_type: visible
  weight: 1.5
- task_id: task_0359
  name: Bengaluru, IN
  latitude_deg: 12.97194
  longitude_deg: 77.59369
  altitude_m: 0.0
  release_time: '2026-04-14T17:07:30Z'
  due_time: '2026-04-14T17:33:30Z'
  required_duration_s: 35
  required_sensor_type: infrared
  weight: 3.0
- task_id: task_0360
  name: Nanchang, CN
  latitude_deg: 28.68396
  longitude_deg: 115.85306
  altitude_m: 0.0
  release_time: '2026-04-14T21:39:30Z'
  due_time: '2026-04-14T22:30:30Z'
  required_duration_s: 35
  required_sensor_type: visible
  weight: 4.0
- task_id: task_0361
  name: Guatemala City, GT
  latitude_deg: 14.64072
  longitude_deg: -90.51327
  altitude_m: 0.0
  release_time: '2026-04-14T16:42:30Z'
  due_time: '2026-04-14T17:13:00Z'
  required_duration_s: 30
  required_sensor_type: visible
  weight: 4.0
- task_id: task_0362
  name: Zhengzhou, CN
  latitude_deg: 34.75778
  longitude_deg: 113.64861
  altitude_m: 0.0
  release_time: '2026-04-14T14:03:30Z'
  due_time: '2026-04-14T14:19:30Z'
  required_duration_s: 60
  required_sensor_type: infrared
  weight: 4.0
- task_id: task_0363
  name: Trujillo, PE
  latitude_deg: -8.11599
  longitude_deg: -79.02998
  altitude_m: 0.0
  release_time: '2026-04-14T14:12:00Z'
  due_time: '2026-04-14T15:13:00Z'
  required_duration_s: 45
  required_sensor_type: infrared
  weight: 5.0
- task_id: task_0364
  name: background_0071
  latitude_deg: 63.330051
  longitude_deg: -123.479228
  altitude_m: 0.0
  release_time: '2026-04-14T19:56:30Z'
  due_time: '2026-04-14T20:23:00Z'
  required_duration_s: 75
  required_sensor_type: visible
  weight: 1.0
- task_id: task_0365
  name: background_0147
  latitude_deg: 43.841919
  longitude_deg: -65.350817
  altitude_m: 0.0
  release_time: '2026-04-14T15:41:30Z'
  due_time: '2026-04-14T16:08:00Z'
  required_duration_s: 80
  required_sensor_type: visible
  weight: 1.5
- task_id: task_0366
  name: Daegu, KR
  latitude_deg: 35.87028
  longitude_deg: 128.59111
  altitude_m: 0.0
  release_time: '2026-04-14T13:08:00Z'
  due_time: '2026-04-14T13:44:30Z'
  required_duration_s: 40
  required_sensor_type: visible
  weight: 5.0
- task_id: task_0367
  name: "Canc\xFAn, MX"
  latitude_deg: 21.17429
  longitude_deg: -86.84656
  altitude_m: 0.0
  release_time: '2026-04-14T16:24:00Z'
  due_time: '2026-04-14T16:45:30Z'
  required_duration_s: 25
  required_sensor_type: infrared
  weight: 4.0
- task_id: task_0368
  name: background_0121
  latitude_deg: 60.818306
  longitude_deg: -158.568735
  altitude_m: 0.0
  release_time: '2026-04-14T12:09:30Z'
  due_time: '2026-04-14T12:35:30Z'
  required_duration_s: 25
  required_sensor_type: visible
  weight: 1.5
- task_id: task_0369
  name: background_0066
  latitude_deg: 66.051792
  longitude_deg: 112.632037
  altitude_m: 0.0
  release_time: '2026-04-14T13:11:30Z'
  due_time: '2026-04-14T14:22:30Z'
  required_duration_s: 20
  required_sensor_type: infrared
  weight: 1.0
- task_id: task_0370
  name: background_0026
  latitude_deg: 68.721061
  longitude_deg: -157.406752
  altitude_m: 0.0
  release_time: '2026-04-14T14:03:30Z'
  due_time: '2026-04-14T14:25:00Z'
  required_duration_s: 35
  required_sensor_type: visible
  weight: 1.0
- task_id: task_0371
  name: background_0094
  latitude_deg: 43.6513
  longitude_deg: 81.554777
  altitude_m: 0.0
  release_time: '2026-04-14T16:33:00Z'
  due_time: '2026-04-14T17:03:30Z'
  required_duration_s: 15
  required_sensor_type: visible
  weight: 1.0
- task_id: task_0372
  name: background_0088
  latitude_deg: -24.873072
  longitude_deg: -57.897049
  altitude_m: 0.0
  release_time: '2026-04-14T19:38:30Z'
  due_time: '2026-04-14T20:09:30Z'
  required_duration_s: 20
  required_sensor_type: visible
  weight: 1.0
- task_id: task_0373
  name: Pyongyang, KP
  latitude_deg: 39.03385
  longitude_deg: 125.75432
  altitude_m: 0.0
  release_time: '2026-04-14T12:00:00Z'
  due_time: '2026-04-14T13:19:30Z'
  required_duration_s: 55
  required_sensor_type: visible
  weight: 4.0
- task_id: task_0374
  name: "Uberl\xE2ndia, BR"
  latitude_deg: -18.91861
  longitude_deg: -48.27722
  altitude_m: 0.0
  release_time: '2026-04-14T17:27:00Z'
  due_time: '2026-04-14T17:43:30Z'
  required_duration_s: 65
  required_sensor_type: visible
  weight: 4.0
- task_id: task_0375
  name: Changsha, CN
  latitude_deg: 28.19874
  longitude_deg: 112.97087
  altitude_m: 0.0
  release_time: '2026-04-14T14:25:00Z'
  due_time: '2026-04-14T14:57:00Z'
  required_duration_s: 55
  required_sensor_type: visible
  weight: 4.0
- task_id: task_0376
  name: Cochabamba, BO
  latitude_deg: -17.38195
  longitude_deg: -66.15995
  altitude_m: 0.0
  release_time: '2026-04-14T14:27:00Z'
  due_time: '2026-04-14T14:49:00Z'
  required_duration_s: 65
  required_sensor_type: visible
  weight: 5.0
- task_id: task_0377
  name: Aracaju, BR
  latitude_deg: -10.91111
  longitude_deg: -37.07167
  altitude_m: 0.0
  release_time: '2026-04-14T12:42:30Z'
  due_time: '2026-04-14T12:58:30Z'
  required_duration_s: 25
  required_sensor_type: infrared
  weight: 5.0
- task_id: task_0378
  name: background_0006
  latitude_deg: 52.380133
  longitude_deg: 22.886295
  altitude_m: 0.0
  release_time: '2026-04-14T20:13:30Z'
  due_time: '2026-04-14T20:40:00Z'
  required_duration_s: 35
  required_sensor_type: visible
  weight: 1.0
- task_id: task_0379
  name: background_0097
  latitude_deg: 37.534651
  longitude_deg: 57.814006
  altitude_m: 0.0
  release_time: '2026-04-14T18:05:00Z'
  due_time: '2026-04-14T18:46:00Z'
  required_duration_s: 30
  required_sensor_type: visible
  weight: 1.5
- task_id: task_0380
  name: background_0144
  latitude_deg: -6.946935
  longitude_deg: 112.274323
  altitude_m: 0.0
  release_time: '2026-04-14T14:22:30Z'
  due_time: '2026-04-14T14:34:00Z'
  required_duration_s: 90
  required_sensor_type: visible
  weight: 1.0
- task_id: task_0381
  name: background_0148
  latitude_deg: 15.740085
  longitude_deg: -10.078391
  altitude_m: 0.0
  release_time: '2026-04-14T12:19:00Z'
  due_time: '2026-04-14T12:45:30Z'
  required_duration_s: 85
  required_sensor_type: visible
  weight: 1.0
- task_id: task_0382
  name: Dalian, CN
  latitude_deg: 38.91222
  longitude_deg: 121.60222
  altitude_m: 0.0
  release_time: '2026-04-14T16:12:30Z'
  due_time: '2026-04-14T16:49:00Z'
  required_duration_s: 90
  required_sensor_type: visible
  weight: 3.0
- task_id: task_0383
  name: Budapest, HU
  latitude_deg: 47.49835
  longitude_deg: 19.04045
  altitude_m: 0.0
  release_time: '2026-04-14T20:28:30Z'
  due_time: '2026-04-14T20:59:30Z'
  required_duration_s: 25
  required_sensor_type: infrared
  weight: 3.0
- task_id: task_0384
  name: background_0095
  latitude_deg: -77.213975
  longitude_deg: 72.270582
  altitude_m: 0.0
  release_time: '2026-04-14T17:11:00Z'
  due_time: '2026-04-14T17:48:30Z'
  required_duration_s: 20
  required_sensor_type: visible
  weight: 1.0
- task_id: task_0385
  name: background_0013
  latitude_deg: 61.965108
  longitude_deg: 82.491635
