- id: city_pontevedra_ph_1
  name: Pontevedra
  country: Philippines
  latitude_deg: 11.48
  longitude_deg: 122.83
  altitude_m: 0.0
  population: 49725.0
- id: city_taihe_cn
  name: Taihe
  country: China
  latitude_deg: 30.871
  longitude_deg: 105.388
  altitude_m: 0.0
  population: 732380.0
- id: city_auckland_nz
  name: Auckland
  country: New Zealand
  latitude_deg: -36.8492
  longitude_deg: 174.7653
  altitude_m: 0.0
  population: 1470100.0
- id: city_pangkalan_bun_id
  name: Pangkalan Bun
  country: Indonesia
  latitude_deg: -2.6833
  longitude_deg: 111.6167
  altitude_m: 0.0
  population: 105514.0
- id: city_ain_m_lila_dz
  name: Ain M'Lila
  country: Algeria
  latitude_deg: 36.0361
  longitude_deg: 6.5708
  altitude_m: 0.0
  population: 88441.0
- id: city_debre_zeyit_et
  name: Debre Zeyit
  country: Ethiopia
  latitude_deg: 8.75
  longitude_deg: 38.9833
  altitude_m: 0.0
  population: 99928.0
- id: city_alagoinhas_br
  name: Alagoinhas
  country: Brazil
  latitude_deg: -12.1356
  longitude_deg: -38.4192
  altitude_m: 0.0
  population: 152327.0
- id: city_cicero_dantas_br
  name: Cicero Dantas
  country: Brazil
  latitude_deg: -10.6
  longitude_deg: -38.3828
  altitude_m: 0.0
  population: 30907.0
- id: city_san_cristobal_mx
  name: San Cristobal
  country: Mexico
  latitude_deg: 16.7367
  longitude_deg: -92.6383
  altitude_m: 0.0
  population: 183509.0
- id: city_siquinala_gt
  name: Siquinala
  country: Guatemala
  latitude_deg: 14.3
  longitude_deg: -90.9667
  altitude_m: 0.0
  population: 26317.0
- id: city_toumoukro_ci
  name: Toumoukro
  country: "C\xF4te d\u2019Ivoire"
  latitude_deg: 10.3833
  longitude_deg: -5.75
  altitude_m: 0.0
  population: 34200.0
- id: city_ocala_us
  name: Ocala
  country: United States
  latitude_deg: 29.178
  longitude_deg: -82.1511
  altitude_m: 0.0
  population: 197770.0
- id: city_sid_rs
  name: Sid
  country: Serbia
  latitude_deg: 45.1283
  longitude_deg: 19.2264
  altitude_m: 0.0
  population: 34188.0
- id: city_nizhniy_tagil_ru
  name: Nizhniy Tagil
  country: Russia
  latitude_deg: 57.9167
  longitude_deg: 59.9667
  altitude_m: 0.0
  population: 330507.0
- id: city_pietermaritzburg_za
  name: Pietermaritzburg
  country: South Africa
  latitude_deg: -29.6167
  longitude_deg: 30.3833
  altitude_m: 0.0
  population: 839327.0
- id: city_sumbe_ao
  name: Sumbe
  country: Angola
  latitude_deg: -11.2053
  longitude_deg: 13.8417
  altitude_m: 0.0
  population: 279968.0
- id: city_sutton_coldfield_gb
  name: Sutton Coldfield
  country: United Kingdom
  latitude_deg: 52.563
  longitude_deg: -1.822
  altitude_m: 0.0
  population: 96475.0
- id: city_bedford_gb
  name: Bedford
  country: United Kingdom
  latitude_deg: 52.135
  longitude_deg: -0.47
  altitude_m: 0.0
  population: 92407.0
- id: city_darhan_mn_1
  name: Darhan
  country: Mongolia
  latitude_deg: 49.6167
  longitude_deg: 106.35
  altitude_m: 0.0
  population: 74738.0
- id: city_zelenogorsk_ru
  name: Zelenogorsk
  country: Russia
  latitude_deg: 56.1
  longitude_deg: 94.5833
  altitude_m: 0.0
  population: 54279.0
- id: city_surrey_ca
  name: Surrey
  country: Canada
  latitude_deg: 49.19
  longitude_deg: -122.8489
  altitude_m: 0.0
  population: 568322.0
- id: city_fort_saskatchewan_ca
  name: Fort Saskatchewan
  country: Canada
  latitude_deg: 53.7128
  longitude_deg: -113.2133
  altitude_m: 0.0
  population: 27088.0
- id: city_punta_arenas_cl
  name: Punta Arenas
  country: Chile
  latitude_deg: -53.1667
  longitude_deg: -70.9333
  altitude_m: 0.0
  population: 123403.0
- id: city_coyhaique_cl
  name: Coyhaique
  country: Chile
  latitude_deg: -45.5667
  longitude_deg: -72.0667
  altitude_m: 0.0
  population: 61210.0
- id: city_nuku_alofa_to
  name: Nuku`alofa
  country: Tonga
  latitude_deg: -21.1333
  longitude_deg: -175.2
  altitude_m: 0.0
  population: 27600.0
- id: city_apia_ws
  name: Apia
  country: Samoa
  latitude_deg: -13.8333
  longitude_deg: -171.75
  altitude_m: 0.0
  population: 35974.0
- id: city_invercargill_nz
  name: Invercargill
  country: New Zealand
  latitude_deg: -46.429
  longitude_deg: 168.362
  altitude_m: 0.0
  population: 47625.0
- id: city_dunedin_nz
  name: Dunedin
  country: New Zealand
  latitude_deg: -45.8742
  longitude_deg: 170.5036
  altitude_m: 0.0
  population: 36070.0
- id: city_mint_hill_us
  name: Mint Hill
  country: United States
  latitude_deg: 35.1783
  longitude_deg: -80.6528
  altitude_m: 0.0
  population: 26954.0
- id: city_khagaul_in
  name: Khagaul
  country: India
  latitude_deg: 25.579
  longitude_deg: 85.0456
  altitude_m: 0.0
  population: 63763.0
