- id: city_ban_sai_ma_tai_th
  name: Ban Sai Ma Tai
  country: Thailand
  latitude_deg: 13.8642
  longitude_deg: 100.4741
  altitude_m: 0.0
  population: 30750.0
- id: city_laiwu_cn
  name: Laiwu
  country: China
  latitude_deg: 36.1833
  longitude_deg: 117.6667
  altitude_m: 0.0
  population: 1248636.0
- id: city_new_plymouth_nz
  name: New Plymouth
  country: New Zealand
  latitude_deg: -39.0578
  longitude_deg: 174.0742
  altitude_m: 0.0
  population: 57600.0
- id: city_samarinda_id
  name: Samarinda
  country: Indonesia
  latitude_deg: -0.5
  longitude_deg: 117.1378
  altitude_m: 0.0
  population: 831460.0
- id: city_naspur_in
  name: Naspur
  country: India
  latitude_deg: 18.8604
  longitude_deg: 79.4849
  altitude_m: 0.0
  population: 31244.0
- id: city_point_pedro_lk
  name: Point Pedro
  country: Sri Lanka
  latitude_deg: 9.8167
  longitude_deg: 80.2333
  altitude_m: 0.0
  population: 31351.0
- id: city_colonia_del_sacramento_uy
  name: Colonia del Sacramento
  country: Uruguay
  latitude_deg: -34.4714
  longitude_deg: -57.8442
  altitude_m: 0.0
  population: 26231.0
- id: city_abreu_e_lima_br
  name: Abreu e Lima
  country: Brazil
  latitude_deg: -7.9117
  longitude_deg: -34.9028
  altitude_m: 0.0
  population: 98462.0
- id: city_metepec_mx
  name: Metepec
  country: Mexico
  latitude_deg: 19.2511
  longitude_deg: -99.6047
  altitude_m: 0.0
  population: 28205.0
- id: city_san_miguel_chicaj_gt
  name: San Miguel Chicaj
  country: Guatemala
  latitude_deg: 15.1
  longitude_deg: -90.4
  altitude_m: 0.0
  population: 36845.0
- id: city_banfora_bf
  name: Banfora
  country: Burkina Faso
  latitude_deg: 10.6308
  longitude_deg: -4.7589
  altitude_m: 0.0
  population: 117200.0
- id: city_terga_dz
  name: Terga
  country: Algeria
  latitude_deg: 35.4167
  longitude_deg: -1.1833
  altitude_m: 0.0
  population: 32308.0
- id: city_hamminkeln_de
  name: Hamminkeln
  country: Germany
  latitude_deg: 51.7319
  longitude_deg: 6.5908
  altitude_m: 0.0
  population: 27450.0
- id: city_belgorod_ru
  name: Belgorod
  country: Russia
  latitude_deg: 50.6
  longitude_deg: 36.6
  altitude_m: 0.0
  population: 328482.0
- id: city_durban_za
  name: Durban
  country: South Africa
  latitude_deg: -29.8833
  longitude_deg: 31.05
  altitude_m: 0.0
  population: 838634.0
- id: city_kisenzi_cd
  name: Kisenzi
  country: Congo (Kinshasa)
  latitude_deg: -4.4094
  longitude_deg: 15.3425
  altitude_m: 0.0
  population: 386151.0
- id: city_epsom_gb
  name: Epsom
  country: United Kingdom
  latitude_deg: 51.3331
  longitude_deg: -0.2686
  altitude_m: 0.0
  population: 31489.0
- id: city_shrewsbury_gb
  name: Shrewsbury
  country: United Kingdom
  latitude_deg: 52.708
  longitude_deg: -2.754
  altitude_m: 0.0
  population: 71715.0
- id: city_qingan_cn
  name: Qingan
  country: China
  latitude_deg: 46.8719
  longitude_deg: 127.5118
  altitude_m: 0.0
  population: 53206.0
- id: city_jixi_cn
  name: Jixi
  country: China
  latitude_deg: 45.295
  longitude_deg: 130.969
  altitude_m: 0.0
  population: 1502060.0
- id: city_spokane_us
  name: Spokane
  country: United States
  latitude_deg: 47.6671
  longitude_deg: -117.433
  altitude_m: 0.0
  population: 458988.0
- id: city_everett_us
  name: Everett
  country: United States
  latitude_deg: 47.9525
  longitude_deg: -122.1669
  altitude_m: 0.0
  population: 111083.0
- id: city_ushuaia_ar
  name: Ushuaia
  country: Argentina
  latitude_deg: -54.8019
  longitude_deg: -68.3031
  altitude_m: 0.0
  population: 82615.0
- id: city_rio_grande_ar
  name: Rio Grande
  country: Argentina
  latitude_deg: -53.7833
  longitude_deg: -67.7
  altitude_m: 0.0
  population: 98017.0
- id: city_nuku_alofa_to
  name: Nuku`alofa
  country: Tonga
  latitude_deg: -21.1333
  longitude_deg: -175.2
  altitude_m: 0.0
  population: 27600.0
- id: city_apia_ws
  name: Apia
  country: Samoa
  latitude_deg: -13.8333
  longitude_deg: -171.75
  altitude_m: 0.0
  population: 35974.0
- id: city_invercargill_nz
  name: Invercargill
  country: New Zealand
  latitude_deg: -46.429
  longitude_deg: 168.362
  altitude_m: 0.0
  population: 47625.0
- id: city_dunedin_nz
  name: Dunedin
  country: New Zealand
  latitude_deg: -45.8742
  longitude_deg: 170.5036
  altitude_m: 0.0
  population: 36070.0
- id: city_garibaldi_br
  name: Garibaldi
  country: Brazil
  latitude_deg: -29.2558
  longitude_deg: -51.5339
  altitude_m: 0.0
  population: 34335.0
- id: city_perth_gb
  name: Perth
  country: United Kingdom
  latitude_deg: 56.3958
  longitude_deg: -3.4333
  altitude_m: 0.0
  population: 47430.0
