- id: city_yotsukaido_jp
  name: Yotsukaido
  country: Japan
  latitude_deg: 35.6698
  longitude_deg: 140.1679
  altitude_m: 0.0
  population: 93233.0
- id: city_la_carlota_ph
  name: La Carlota
  country: Philippines
  latitude_deg: 10.42
  longitude_deg: 122.92
  altitude_m: 0.0
  population: 66664.0
- id: city_lewoleba_id
  name: Lewoleba
  country: Indonesia
  latitude_deg: -8.3833
  longitude_deg: 123.4
  altitude_m: 0.0
  population: 30151.0
- id: city_pasarkemis_id
  name: Pasarkemis
  country: Indonesia
  latitude_deg: -6.1703
  longitude_deg: 106.53
  altitude_m: 0.0
  population: 255345.0
- id: city_bat_yam_il
  name: Bat Yam
  country: Israel
  latitude_deg: 32.0231
  longitude_deg: 34.7503
  altitude_m: 0.0
  population: 128800.0
- id: city_tokmok_kg
  name: Tokmok
  country: Kyrgyzstan
  latitude_deg: 42.839
  longitude_deg: 75.291
  altitude_m: 0.0
  population: 53231.0
- id: city_talara_pe
  name: Talara
  country: Peru
  latitude_deg: -4.5799
  longitude_deg: -81.2719
  altitude_m: 0.0
  population: 99600.0
- id: city_ceara_mirim_br
  name: Ceara-Mirim
  country: Brazil
  latitude_deg: -5.6339
  longitude_deg: -35.4258
  altitude_m: 0.0
  population: 79115.0
- id: city_chimalhuacan_mx
  name: Chimalhuacan
  country: Mexico
  latitude_deg: 19.4131
  longitude_deg: -98.9839
  altitude_m: 0.0
  population: 614453.0
- id: city_san_francisco_mx
  name: San Francisco
  country: Mexico
  latitude_deg: 30.7841
  longitude_deg: -112.518
  altitude_m: 0.0
  population: 89122.0
- id: city_ramapo_us
  name: Ramapo
  country: United States
  latitude_deg: 41.1404
  longitude_deg: -74.1072
  altitude_m: 0.0
  population: 150225.0
- id: city_bethel_park_us
  name: Bethel Park
  country: United States
  latitude_deg: 40.3238
  longitude_deg: -80.0364
  altitude_m: 0.0
  population: 33070.0
- id: city_stockholm_se
  name: Stockholm
  country: Sweden
  latitude_deg: 59.3275
  longitude_deg: 18.0547
  altitude_m: 0.0
  population: 995574.0
- id: city_targu_mures_ro
  name: Targu-Mures
  country: Romania
  latitude_deg: 46.5456
  longitude_deg: 24.5625
  altitude_m: 0.0
  population: 116033.0
- id: city_kismaayo_so
  name: Kismaayo
  country: Somalia
  latitude_deg: -0.3603
  longitude_deg: 42.5489
  altitude_m: 0.0
  population: 166667.0
- id: city_siyabuswa_za
  name: Siyabuswa
  country: South Africa
  latitude_deg: -25.1167
  longitude_deg: 29.05
  altitude_m: 0.0
  population: 36882.0
- id: city_borehamwood_gb
  name: Borehamwood
  country: United Kingdom
  latitude_deg: 51.6578
  longitude_deg: -0.2722
  altitude_m: 0.0
  population: 36322.0
- id: city_south_shields_gb
  name: South Shields
  country: United Kingdom
  latitude_deg: 54.995
  longitude_deg: -1.43
  altitude_m: 0.0
  population: 75337.0
- id: city_choybalsan_mn
  name: Choybalsan
  country: Mongolia
  latitude_deg: 48.0706
  longitude_deg: 114.5228
  altitude_m: 0.0
  population: 38150.0
- id: city_krasnokamensk_ru
  name: Krasnokamensk
  country: Russia
  latitude_deg: 50.1
  longitude_deg: 118.0333
  altitude_m: 0.0
  population: 52299.0
- id: city_mission_ca
  name: Mission
  country: Canada
  latitude_deg: 49.1337
  longitude_deg: -122.3112
  altitude_m: 0.0
  population: 41519.0
- id: city_forest_grove_us
  name: Forest Grove
  country: United States
  latitude_deg: 45.5243
  longitude_deg: -123.1097
  altitude_m: 0.0
  population: 26406.0
- id: city_rio_gallegos_ar
  name: Rio Gallegos
  country: Argentina
  latitude_deg: -51.6233
  longitude_deg: -69.2161
  altitude_m: 0.0
  population: 95796.0
- id: city_coyhaique_cl
  name: Coyhaique
  country: Chile
  latitude_deg: -45.5667
  longitude_deg: -72.0667
  altitude_m: 0.0
  population: 61210.0
- id: city_nuku_alofa_to
  name: Nuku`alofa
  country: Tonga
  latitude_deg: -21.1333
  longitude_deg: -175.2
  altitude_m: 0.0
  population: 27600.0
- id: city_apia_ws
  name: Apia
  country: Samoa
  latitude_deg: -13.8333
  longitude_deg: -171.75
  altitude_m: 0.0
  population: 35974.0
- id: city_dunedin_nz
  name: Dunedin
  country: New Zealand
  latitude_deg: -45.8742
  longitude_deg: 170.5036
  altitude_m: 0.0
  population: 36070.0
- id: city_invercargill_nz
  name: Invercargill
  country: New Zealand
  latitude_deg: -46.429
  longitude_deg: 168.362
  altitude_m: 0.0
  population: 47625.0
- id: city_babila_sy
  name: Babila
  country: Syria
  latitude_deg: 33.471
  longitude_deg: 36.3308
  altitude_m: 0.0
  population: 50880.0
- id: city_koro_ml
  name: Koro
  country: Mali
  latitude_deg: 14.0639
  longitude_deg: -3.0753
  altitude_m: 0.0
  population: 62681.0
