tasks:
- task_id: task_0001
  name: background_0460
  latitude_deg: 40.705007
  longitude_deg: -104.249353
  altitude_m: 0.0
  release_time: '2026-04-14T17:54:30Z'
  due_time: '2026-04-14T18:26:00Z'
  required_duration_s: 30
  required_sensor_type: visible
  weight: 1.0
- task_id: task_0002
  name: background_0609
  latitude_deg: -18.648726
  longitude_deg: 143.546978
  altitude_m: 0.0
  release_time: '2026-04-14T20:12:30Z'
  due_time: '2026-04-14T20:44:00Z'
  required_duration_s: 45
  required_sensor_type: visible
  weight: 1.0
- task_id: task_0003
  name: Zhaoqing, CN
  latitude_deg: 23.04893
  longitude_deg: 112.46091
  altitude_m: 0.0
  release_time: '2026-04-15T02:36:00Z'
  due_time: '2026-04-15T03:02:30Z'
  required_duration_s: 75
  required_sensor_type: visible
  weight: 5.0
- task_id: task_0004
  name: background_0510
  latitude_deg: -23.444787
  longitude_deg: 147.994802
  altitude_m: 0.0
  release_time: '2026-04-14T23:40:30Z'
  due_time: '2026-04-15T00:07:00Z'
  required_duration_s: 60
  required_sensor_type: visible
  weight: 1.5
- task_id: task_0005
  name: background_0135
  latitude_deg: -12.91334
  longitude_deg: -50.691121
  altitude_m: 0.0
  release_time: '2026-04-15T01:33:30Z'
  due_time: '2026-04-15T02:50:30Z'
  required_duration_s: 80
  required_sensor_type: visible
  weight: 1.5
- task_id: task_0006
  name: background_0343
  latitude_deg: 39.165569
  longitude_deg: 84.893135
  altitude_m: 0.0
  release_time: '2026-04-14T21:52:30Z'
  due_time: '2026-04-14T22:34:00Z'
  required_duration_s: 60
  required_sensor_type: visible
  weight: 1.0
- task_id: task_0007
  name: Harare, ZW
  latitude_deg: -17.82772
  longitude_deg: 31.05337
  altitude_m: 0.0
  release_time: '2026-04-14T20:23:00Z'
  due_time: '2026-04-14T20:59:30Z'
  required_duration_s: 50
  required_sensor_type: visible
  weight: 4.0
- task_id: task_0008
  name: background_0111
  latitude_deg: 61.85997
  longitude_deg: 38.699295
  altitude_m: 0.0
  release_time: '2026-04-14T18:56:30Z'
  due_time: '2026-04-14T19:18:00Z'
  required_duration_s: 70
  required_sensor_type: visible
  weight: 1.0
- task_id: task_0009
  name: background_0472
  latitude_deg: 65.602832
  longitude_deg: -87.622031
  altitude_m: 0.0
  release_time: '2026-04-15T01:42:00Z'
  due_time: '2026-04-15T02:53:00Z'
  required_duration_s: 50
  required_sensor_type: visible
  weight: 2.0
- task_id: task_0010
  name: Haiphong, VN
  latitude_deg: 20.86481
  longitude_deg: 106.68345
  altitude_m: 0.0
  release_time: '2026-04-14T20:23:30Z'
  due_time: '2026-04-14T20:50:00Z'
  required_duration_s: 70
  required_sensor_type: visible
  weight: 3.0
- task_id: task_0011
  name: background_0873
  latitude_deg: -5.376381
  longitude_deg: -79.362209
  altitude_m: 0.0
  release_time: '2026-04-14T17:10:30Z'
  due_time: '2026-04-14T17:41:30Z'
  required_duration_s: 45
  required_sensor_type: visible
  weight: 2.0
- task_id: task_0012
  name: Aurangabad, IN
  latitude_deg: 19.87757
  longitude_deg: 75.34226
  altitude_m: 0.0
  release_time: '2026-04-14T17:09:00Z'
  due_time: '2026-04-14T17:35:30Z'
  required_duration_s: 90
  required_sensor_type: visible
  weight: 3.0
- task_id: task_0013
  name: Tuen Mun, HK
  latitude_deg: 22.39175
  longitude_deg: 113.97157
  altitude_m: 0.0
  release_time: '2026-04-15T02:36:30Z'
  due_time: '2026-04-15T03:08:00Z'
  required_duration_s: 80
  required_sensor_type: visible
  weight: 4.0
- task_id: task_0014
  name: Edmonton, CA
  latitude_deg: 53.55014
  longitude_deg: -113.46871
  altitude_m: 0.0
  release_time: '2026-04-15T00:37:30Z'
  due_time: '2026-04-15T00:58:30Z'
  required_duration_s: 30
  required_sensor_type: visible
  weight: 4.0
- task_id: task_0015
  name: Penza, RU
  latitude_deg: 53.19568
  longitude_deg: 45.01075
  altitude_m: 0.0
  release_time: '2026-04-14T18:03:30Z'
  due_time: '2026-04-14T18:35:00Z'
  required_duration_s: 70
  required_sensor_type: visible
  weight: 5.0
- task_id: task_0016
  name: background_0713
  latitude_deg: -68.38138
  longitude_deg: 147.258549
  altitude_m: 0.0
  release_time: '2026-04-14T22:33:30Z'
  due_time: '2026-04-14T22:55:00Z'
  required_duration_s: 30
  required_sensor_type: visible
  weight: 2.0
- task_id: task_0017
  name: "Al \u1E28udaydah, YE"
  latitude_deg: 14.79781
  longitude_deg: 42.95452
  altitude_m: 0.0
  release_time: '2026-04-14T19:01:00Z'
  due_time: '2026-04-14T19:22:30Z'
  required_duration_s: 45
  required_sensor_type: visible
  weight: 4.0
- task_id: task_0018
  name: Chattanooga, US
  latitude_deg: 35.04563
  longitude_deg: -85.30968
  altitude_m: 0.0
  release_time: '2026-04-15T03:46:30Z'
  due_time: '2026-04-15T04:00:00Z'
  required_duration_s: 50
  required_sensor_type: infrared
  weight: 4.0
- task_id: task_0019
  name: Baltimore, US
  latitude_deg: 39.29038
  longitude_deg: -76.61219
  altitude_m: 0.0
  release_time: '2026-04-14T16:00:00Z'
  due_time: '2026-04-14T16:28:30Z'
  required_duration_s: 45
  required_sensor_type: visible
  weight: 4.0
- task_id: task_0020
  name: background_0184
  latitude_deg: 55.902255
  longitude_deg: -87.332623
  altitude_m: 0.0
  release_time: '2026-04-15T01:42:00Z'
  due_time: '2026-04-15T02:13:30Z'
  required_duration_s: 90
  required_sensor_type: visible
  weight: 1.0
- task_id: task_0021
  name: Montgomery, US
  latitude_deg: 32.36681
  longitude_deg: -86.29997
  altitude_m: 0.0
  release_time: '2026-04-14T16:05:30Z'
  due_time: '2026-04-14T16:47:30Z'
  required_duration_s: 75
  required_sensor_type: visible
  weight: 4.0
- task_id: task_0022
  name: Palmas, BR
  latitude_deg: -10.16745
  longitude_deg: -48.32766
  altitude_m: 0.0
  release_time: '2026-04-15T01:19:30Z'
  due_time: '2026-04-15T01:40:30Z'
  required_duration_s: 40
  required_sensor_type: visible
  weight: 3.0
- task_id: task_0023
  name: Tacna, PE
  latitude_deg: -18.01465
  longitude_deg: -70.25362
  altitude_m: 0.0
  release_time: '2026-04-14T18:53:00Z'
  due_time: '2026-04-14T19:23:30Z'
  required_duration_s: 20
  required_sensor_type: visible
  weight: 4.0
- task_id: task_0024
  name: "Her\u0101t, AF"
  latitude_deg: 34.34817
  longitude_deg: 62.19967
  altitude_m: 0.0
  release_time: '2026-04-14T23:22:30Z'
  due_time: '2026-04-15T00:13:30Z'
  required_duration_s: 20
  required_sensor_type: visible
  weight: 5.0
- task_id: task_0025
  name: Vellore, IN
  latitude_deg: 12.9184
  longitude_deg: 79.13255
  altitude_m: 0.0
  release_time: '2026-04-14T21:39:30Z'
  due_time: '2026-04-14T22:51:00Z'
  required_duration_s: 50
  required_sensor_type: visible
  weight: 3.0
- task_id: task_0026
  name: "Santar\xE9m, BR"
  latitude_deg: -2.44306
  longitude_deg: -54.70833
  altitude_m: 0.0
  release_time: '2026-04-15T01:12:00Z'
  due_time: '2026-04-15T02:08:00Z'
  required_duration_s: 45
  required_sensor_type: visible
  weight: 4.0
- task_id: task_0027
  name: Zagreb, HR
  latitude_deg: 45.81444
  longitude_deg: 15.97798
  altitude_m: 0.0
  release_time: '2026-04-14T18:02:00Z'
  due_time: '2026-04-14T18:18:00Z'
  required_duration_s: 60
  required_sensor_type: visible
  weight: 5.0
- task_id: task_0028
  name: Cuttack, IN
  latitude_deg: 20.46497
  longitude_deg: 85.87927
  altitude_m: 0.0
  release_time: '2026-04-14T16:15:30Z'
  due_time: '2026-04-14T16:37:00Z'
  required_duration_s: 20
  required_sensor_type: visible
  weight: 4.0
- task_id: task_0029
  name: background_0134
  latitude_deg: -14.164053
  longitude_deg: 48.191392
  altitude_m: 0.0
  release_time: '2026-04-14T23:45:30Z'
  due_time: '2026-04-15T00:22:00Z'
  required_duration_s: 50
  required_sensor_type: visible
  weight: 2.0
- task_id: task_0030
  name: Londrina, BR
  latitude_deg: -23.31028
  longitude_deg: -51.16278
  altitude_m: 0.0
  release_time: '2026-04-15T01:04:30Z'
  due_time: '2026-04-15T01:35:30Z'
  required_duration_s: 20
  required_sensor_type: visible
  weight: 5.0
- task_id: task_0031
  name: Situbondo, ID
  latitude_deg: -7.70623
  longitude_deg: 114.00976
  altitude_m: 0.0
  release_time: '2026-04-15T02:40:00Z'
  due_time: '2026-04-15T02:56:30Z'
  required_duration_s: 90
  required_sensor_type: visible
  weight: 5.0
- task_id: task_0032
  name: Onitsha, NG
  latitude_deg: 6.14978
  longitude_deg: 6.78569
  altitude_m: 0.0
  release_time: '2026-04-14T21:06:00Z'
  due_time: '2026-04-14T21:37:00Z'
  required_duration_s: 60
  required_sensor_type: visible
  weight: 3.0
- task_id: task_0033
  name: background_0017
  latitude_deg: -24.15779
  longitude_deg: 147.752982
  altitude_m: 0.0
  release_time: '2026-04-14T17:29:00Z'
  due_time: '2026-04-14T17:40:00Z'
  required_duration_s: 45
  required_sensor_type: visible
  weight: 2.0
- task_id: task_0034
  name: Dnipro, UA
  latitude_deg: 48.46664
  longitude_deg: 35.04066
  altitude_m: 0.0
  release_time: '2026-04-14T19:05:30Z'
  due_time: '2026-04-14T19:37:30Z'
  required_duration_s: 70
  required_sensor_type: visible
  weight: 4.0
- task_id: task_0035
  name: background_0015
  latitude_deg: 32.888871
  longitude_deg: 113.972602
  altitude_m: 0.0
  release_time: '2026-04-14T21:53:30Z'
  due_time: '2026-04-14T22:04:00Z'
  required_duration_s: 20
  required_sensor_type: infrared
  weight: 2.0
- task_id: task_0036
  name: background_0516
  latitude_deg: 68.540863
  longitude_deg: 79.917752
  altitude_m: 0.0
  release_time: '2026-04-14T16:00:00Z'
  due_time: '2026-04-14T16:10:00Z'
  required_duration_s: 70
  required_sensor_type: visible
  weight: 1.0
- task_id: task_0037
  name: Tirunelveli, IN
  latitude_deg: 8.72742
  longitude_deg: 77.6838
  altitude_m: 0.0
  release_time: '2026-04-15T02:28:00Z'
  due_time: '2026-04-15T02:43:30Z'
  required_duration_s: 30
  required_sensor_type: infrared
  weight: 3.0
- task_id: task_0038
  name: background_0327
  latitude_deg: 41.000897
  longitude_deg: -101.24758
  altitude_m: 0.0
  release_time: '2026-04-14T17:37:00Z'
  due_time: '2026-04-14T17:58:30Z'
  required_duration_s: 40
  required_sensor_type: visible
  weight: 1.5
- task_id: task_0039
  name: background_0078
  latitude_deg: 37.053602
  longitude_deg: -92.240681
  altitude_m: 0.0
  release_time: '2026-04-15T03:47:00Z'
  due_time: '2026-04-15T04:00:00Z'
  required_duration_s: 90
  required_sensor_type: visible
  weight: 2.0
- task_id: task_0040
  name: Taichung, TW
  latitude_deg: 24.1469
  longitude_deg: 120.6839
  altitude_m: 0.0
  release_time: '2026-04-15T01:38:30Z'
  due_time: '2026-04-15T02:14:30Z'
  required_duration_s: 50
  required_sensor_type: visible
  weight: 5.0
- task_id: task_0041
  name: background_0701
  latitude_deg: -38.061565
  longitude_deg: -66.628552
  altitude_m: 0.0
  release_time: '2026-04-15T02:23:30Z'
  due_time: '2026-04-15T02:54:30Z'
  required_duration_s: 50
  required_sensor_type: visible
  weight: 1.0
- task_id: task_0042
  name: background_0705
  latitude_deg: 41.988659
  longitude_deg: -107.060338
  altitude_m: 0.0
  release_time: '2026-04-15T01:27:30Z'
  due_time: '2026-04-15T03:28:30Z'
  required_duration_s: 60
  required_sensor_type: visible
  weight: 1.5
- task_id: task_0043
  name: background_0615
  latitude_deg: -70.033229
  longitude_deg: 145.464795
  altitude_m: 0.0
  release_time: '2026-04-14T22:45:30Z'
  due_time: '2026-04-15T00:07:30Z'
  required_duration_s: 80
  required_sensor_type: visible
  weight: 1.0
- task_id: task_0044
  name: Latacunga, EC
  latitude_deg: -0.93424
  longitude_deg: -78.6152
  altitude_m: 0.0
  release_time: '2026-04-15T03:13:30Z'
  due_time: '2026-04-15T03:50:00Z'
  required_duration_s: 40
  required_sensor_type: visible
  weight: 5.0
- task_id: task_0045
  name: Kayseri, TR
  latitude_deg: 38.73222
  longitude_deg: 35.48528
  altitude_m: 0.0
  release_time: '2026-04-14T18:31:30Z'
  due_time: '2026-04-14T19:02:30Z'
  required_duration_s: 50
  required_sensor_type: visible
  weight: 3.0
- task_id: task_0046
  name: Reynosa, MX
  latitude_deg: 26.08005
  longitude_deg: -98.28456
  altitude_m: 0.0
  release_time: '2026-04-15T02:17:30Z'
  due_time: '2026-04-15T02:29:30Z'
  required_duration_s: 90
  required_sensor_type: visible
  weight: 4.0
- task_id: task_0047
  name: background_0634
  latitude_deg: 9.754449
  longitude_deg: 45.373616
  altitude_m: 0.0
  release_time: '2026-04-14T18:29:30Z'
  due_time: '2026-04-14T19:51:30Z'
  required_duration_s: 40
  required_sensor_type: visible
  weight: 2.0
- task_id: task_0048
  name: background_0616
  latitude_deg: -22.459865
  longitude_deg: 23.33678
  altitude_m: 0.0
  release_time: '2026-04-15T01:41:30Z'
  due_time: '2026-04-15T02:03:00Z'
  required_duration_s: 90
  required_sensor_type: visible
  weight: 2.0
- task_id: task_0049
  name: Hyderabad, PK
  latitude_deg: 25.39689
  longitude_deg: 68.37718
  altitude_m: 0.0
  release_time: '2026-04-14T17:12:30Z'
  due_time: '2026-04-14T18:14:30Z'
  required_duration_s: 100
  required_sensor_type: visible
  weight: 5.0
- task_id: task_0050
  name: background_0707
  latitude_deg: -74.601184
  longitude_deg: 57.923554
  altitude_m: 0.0
  release_time: '2026-04-14T19:56:30Z'
  due_time: '2026-04-14T20:43:30Z'
  required_duration_s: 100
  required_sensor_type: visible
  weight: 1.0
- task_id: task_0051
  name: background_0560
  latitude_deg: -25.666049
  longitude_deg: 145.691714
  altitude_m: 0.0
  release_time: '2026-04-14T21:31:00Z'
  due_time: '2026-04-14T23:13:00Z'
  required_duration_s: 40
  required_sensor_type: visible
  weight: 1.5
- task_id: task_0052
  name: background_0721
  latitude_deg: -83.435064
  longitude_deg: 84.736197
  altitude_m: 0.0
  release_time: '2026-04-15T00:13:30Z'
  due_time: '2026-04-15T00:24:30Z'
  required_duration_s: 20
  required_sensor_type: visible
  weight: 2.0
- task_id: task_0053
  name: background_0143
  latitude_deg: -22.356553
  longitude_deg: 25.961395
  altitude_m: 0.0
  release_time: '2026-04-14T20:54:00Z'
  due_time: '2026-04-14T21:19:30Z'
  required_duration_s: 30
  required_sensor_type: infrared
  weight: 2.0
- task_id: task_0054
  name: background_0628
  latitude_deg: 58.148719
  longitude_deg: 112.398442
  altitude_m: 0.0
  release_time: '2026-04-14T19:30:00Z'
  due_time: '2026-04-14T19:56:00Z'
  required_duration_s: 60
  required_sensor_type: visible
  weight: 2.0
- task_id: task_0055
  name: Indore, IN
  latitude_deg: 22.71792
  longitude_deg: 75.8333
  altitude_m: 0.0
  release_time: '2026-04-15T03:46:30Z'
  due_time: '2026-04-15T04:00:00Z'
  required_duration_s: 80
  required_sensor_type: visible
  weight: 3.0
- task_id: task_0056
  name: Phoenix, US
  latitude_deg: 33.44838
  longitude_deg: -112.07404
  altitude_m: 0.0
  release_time: '2026-04-14T17:51:30Z'
  due_time: '2026-04-14T18:18:30Z'
  required_duration_s: 60
  required_sensor_type: visible
  weight: 5.0
- task_id: task_0057
  name: "G\xF6teborg, SE"
  latitude_deg: 57.70716
  longitude_deg: 11.96679
  altitude_m: 0.0
  release_time: '2026-04-14T20:41:00Z'
  due_time: '2026-04-14T20:58:00Z'
  required_duration_s: 100
  required_sensor_type: visible
  weight: 4.0
- task_id: task_0058
  name: Srinagar, IN
  latitude_deg: 34.08565
  longitude_deg: 74.80555
  altitude_m: 0.0
  release_time: '2026-04-14T16:13:00Z'
  due_time: '2026-04-14T16:39:30Z'
  required_duration_s: 90
  required_sensor_type: visible
  weight: 5.0
- task_id: task_0059
  name: background_0243
  latitude_deg: -43.05363
  longitude_deg: -66.349068
  altitude_m: 0.0
  release_time: '2026-04-15T01:57:00Z'
  due_time: '2026-04-15T03:08:00Z'
  required_duration_s: 20
  required_sensor_type: visible
  weight: 1.0
- task_id: task_0060
  name: background_0088
  latitude_deg: -74.199491
  longitude_deg: 38.911333
  altitude_m: 0.0
  release_time: '2026-04-14T20:43:00Z'
  due_time: '2026-04-14T21:09:00Z'
  required_duration_s: 60
  required_sensor_type: visible
  weight: 2.0
- task_id: task_0061
  name: background_0662
  latitude_deg: 20.030274
  longitude_deg: -4.06467
  altitude_m: 0.0
  release_time: '2026-04-14T22:25:00Z'
  due_time: '2026-04-14T22:56:30Z'
  required_duration_s: 70
  required_sensor_type: visible
  weight: 1.5
- task_id: task_0062
  name: Bengaluru, IN
  latitude_deg: 12.97194
  longitude_deg: 77.59369
  altitude_m: 0.0
  release_time: '2026-04-14T22:09:30Z'
  due_time: '2026-04-14T22:41:00Z'
  required_duration_s: 60
  required_sensor_type: visible
  weight: 4.0
- task_id: task_0063
  name: background_0664
  latitude_deg: 56.569438
  longitude_deg: 87.807717
  altitude_m: 0.0
  release_time: '2026-04-14T21:53:00Z'
  due_time: '2026-04-14T22:28:30Z'
  required_duration_s: 30
  required_sensor_type: visible
  weight: 1.0
- task_id: task_0064
  name: background_0847
  latitude_deg: -72.654476
  longitude_deg: 102.381412
  altitude_m: 0.0
  release_time: '2026-04-14T23:45:00Z'
  due_time: '2026-04-15T00:11:30Z'
  required_duration_s: 80
  required_sensor_type: visible
  weight: 1.5
- task_id: task_0065
  name: Campinas, BR
  latitude_deg: -22.90556
  longitude_deg: -47.06083
  altitude_m: 0.0
  release_time: '2026-04-15T00:50:00Z'
  due_time: '2026-04-15T01:16:00Z'
  required_duration_s: 40
  required_sensor_type: visible
  weight: 3.0
- task_id: task_0066
  name: "Torre\xF3n, MX"
  latitude_deg: 25.54389
  longitude_deg: -103.41898
  altitude_m: 0.0
  release_time: '2026-04-15T00:19:30Z'
  due_time: '2026-04-15T00:46:00Z'
  required_duration_s: 90
  required_sensor_type: visible
  weight: 3.0
- task_id: task_0067
  name: background_0195
  latitude_deg: -18.060148
  longitude_deg: 33.224646
  altitude_m: 0.0
  release_time: '2026-04-14T18:10:30Z'
  due_time: '2026-04-14T18:36:00Z'
  required_duration_s: 20
  required_sensor_type: visible
  weight: 1.0
- task_id: task_0068
  name: background_0763
  latitude_deg: 34.705357
  longitude_deg: 70.11314
  altitude_m: 0.0
  release_time: '2026-04-14T19:38:30Z'
  due_time: '2026-04-14T19:49:30Z'
  required_duration_s: 30
  required_sensor_type: visible
  weight: 2.0
- task_id: task_0069
  name: background_0683
  latitude_deg: -25.281583
  longitude_deg: 20.237164
  altitude_m: 0.0
  release_time: '2026-04-14T20:54:30Z'
  due_time: '2026-04-14T21:11:00Z'
  required_duration_s: 90
  required_sensor_type: visible
  weight: 2.0
- task_id: task_0070
  name: background_0025
  latitude_deg: 57.212318
  longitude_deg: -106.484662
  altitude_m: 0.0
  release_time: '2026-04-14T17:44:30Z'
  due_time: '2026-04-14T19:25:30Z'
  required_duration_s: 30
  required_sensor_type: infrared
  weight: 2.0
- task_id: task_0071
  name: background_0083
  latitude_deg: 60.541685
  longitude_deg: 70.788783
  altitude_m: 0.0
  release_time: '2026-04-14T23:25:00Z'
  due_time: '2026-04-15T00:01:30Z'
  required_duration_s: 80
  required_sensor_type: visible
  weight: 1.5
- task_id: task_0072
  name: background_0637
  latitude_deg: -17.798643
  longitude_deg: -58.270978
  altitude_m: 0.0
  release_time: '2026-04-15T01:53:30Z'
  due_time: '2026-04-15T02:09:30Z'
  required_duration_s: 60
  required_sensor_type: visible
  weight: 1.0
- task_id: task_0073
  name: "Cama\xE7ari, BR"
  latitude_deg: -12.6975
  longitude_deg: -38.32417
  altitude_m: 0.0
  release_time: '2026-04-14T17:53:00Z'
  due_time: '2026-04-14T18:34:30Z'
  required_duration_s: 70
  required_sensor_type: visible
  weight: 4.0
- task_id: task_0074
  name: Dhanbad, IN
  latitude_deg: 23.79759
  longitude_deg: 86.42992
  altitude_m: 0.0
  release_time: '2026-04-14T16:11:30Z'
  due_time: '2026-04-14T16:37:30Z'
  required_duration_s: 40
  required_sensor_type: visible
  weight: 5.0
- task_id: task_0075
  name: background_0553
  latitude_deg: -76.6667
  longitude_deg: 140.37341
  altitude_m: 0.0
  release_time: '2026-04-14T16:42:00Z'
  due_time: '2026-04-14T17:23:30Z'
  required_duration_s: 20
  required_sensor_type: visible
  weight: 1.5
- task_id: task_0076
  name: Bulawayo, ZW
  latitude_deg: -20.15
  longitude_deg: 28.58333
  altitude_m: 0.0
  release_time: '2026-04-14T20:12:30Z'
  due_time: '2026-04-14T21:24:00Z'
  required_duration_s: 20
  required_sensor_type: visible
  weight: 4.0
- task_id: task_0077
  name: Acarigua, VE
  latitude_deg: 9.55451
  longitude_deg: -69.19564
  altitude_m: 0.0
  release_time: '2026-04-15T00:27:30Z'
  due_time: '2026-04-15T00:59:00Z'
  required_duration_s: 60
  required_sensor_type: visible
  weight: 3.0
- task_id: task_0078
  name: Quevedo, EC
  latitude_deg: -1.02881
  longitude_deg: -79.46264
  altitude_m: 0.0
  release_time: '2026-04-15T03:13:30Z'
  due_time: '2026-04-15T04:00:00Z'
  required_duration_s: 80
  required_sensor_type: visible
  weight: 4.0
- task_id: task_0079
  name: background_0053
  latitude_deg: 18.047689
  longitude_deg: 10.463462
  altitude_m: 0.0
  release_time: '2026-04-14T16:21:30Z'
  due_time: '2026-04-14T16:52:00Z'
  required_duration_s: 30
  required_sensor_type: infrared
  weight: 1.0
- task_id: task_0080
  name: background_0249
  latitude_deg: 49.7928
  longitude_deg: 70.1567
  altitude_m: 0.0
  release_time: '2026-04-14T17:17:30Z'
  due_time: '2026-04-14T17:38:30Z'
  required_duration_s: 50
  required_sensor_type: visible
  weight: 2.0
- task_id: task_0081
  name: background_0521
  latitude_deg: 7.546161
  longitude_deg: 8.747193
  altitude_m: 0.0
  release_time: '2026-04-14T21:11:30Z'
  due_time: '2026-04-14T21:28:00Z'
  required_duration_s: 30
  required_sensor_type: visible
  weight: 1.5
- task_id: task_0082
  name: background_0033
  latitude_deg: -8.212515
  longitude_deg: -56.096854
  altitude_m: 0.0
  release_time: '2026-04-14T21:11:30Z'
  due_time: '2026-04-14T21:37:00Z'
  required_duration_s: 20
  required_sensor_type: infrared
  weight: 1.5
- task_id: task_0083
  name: Sapporo, JP
  latitude_deg: 43.06667
  longitude_deg: 141.35
  altitude_m: 0.0
  release_time: '2026-04-15T00:55:00Z'
  due_time: '2026-04-15T01:26:30Z'
  required_duration_s: 70
  required_sensor_type: visible
  weight: 4.0
- task_id: task_0084
  name: Qingyang, CN
  latitude_deg: 35.70976
  longitude_deg: 107.64455
  altitude_m: 0.0
  release_time: '2026-04-15T01:00:00Z'
  due_time: '2026-04-15T01:36:30Z'
  required_duration_s: 75
  required_sensor_type: visible
  weight: 3.0
- task_id: task_0085
  name: Hanoi, VN
  latitude_deg: 21.0245
  longitude_deg: 105.84117
  altitude_m: 0.0
  release_time: '2026-04-15T01:09:00Z'
  due_time: '2026-04-15T01:35:30Z'
  required_duration_s: 90
  required_sensor_type: visible
  weight: 4.0
- task_id: task_0086
  name: background_0263
  latitude_deg: 62.701081
  longitude_deg: 79.426228
  altitude_m: 0.0
  release_time: '2026-04-14T16:00:00Z'
  due_time: '2026-04-14T17:04:00Z'
  required_duration_s: 50
  required_sensor_type: visible
  weight: 1.0
- task_id: task_0087
  name: background_0557
  latitude_deg: 65.517947
  longitude_deg: 29.343528
  altitude_m: 0.0
  release_time: '2026-04-14T18:45:30Z'
  due_time: '2026-04-14T20:07:00Z'
  required_duration_s: 40
  required_sensor_type: visible
  weight: 1.0
- task_id: task_0088
  name: background_0139
  latitude_deg: 74.708942
  longitude_deg: -33.292341
  altitude_m: 0.0
  release_time: '2026-04-14T20:14:00Z'
  due_time: '2026-04-14T20:35:00Z'
  required_duration_s: 45
  required_sensor_type: infrared
  weight: 1.5
- task_id: task_0089
  name: background_0817
  latitude_deg: -20.185045
  longitude_deg: -54.904816
  altitude_m: 0.0
  release_time: '2026-04-15T01:22:30Z'
  due_time: '2026-04-15T01:43:30Z'
  required_duration_s: 50
  required_sensor_type: visible
  weight: 1.0
- task_id: task_0090
  name: background_0376
  latitude_deg: 63.253086
  longitude_deg: -112.644423
  altitude_m: 0.0
  release_time: '2026-04-14T18:19:00Z'
  due_time: '2026-04-14T18:40:30Z'
  required_duration_s: 70
  required_sensor_type: visible
  weight: 1.0
- task_id: task_0091
  name: Chenzhou, CN
  latitude_deg: 25.8
  longitude_deg: 113.03333
  altitude_m: 0.0
  release_time: '2026-04-15T02:35:30Z'
  due_time: '2026-04-15T03:32:00Z'
  required_duration_s: 75
  required_sensor_type: visible
  weight: 4.0
- task_id: task_0092
  name: background_0878
  latitude_deg: -71.320898
  longitude_deg: 146.732147
  altitude_m: 0.0
  release_time: '2026-04-14T23:16:00Z'
  due_time: '2026-04-14T23:42:30Z'
  required_duration_s: 90
  required_sensor_type: visible
  weight: 2.0
- task_id: task_0093
  name: background_0028
  latitude_deg: -12.614511
  longitude_deg: 22.792097
  altitude_m: 0.0
  release_time: '2026-04-14T20:26:00Z'
  due_time: '2026-04-14T21:47:00Z'
  required_duration_s: 40
  required_sensor_type: infrared
  weight: 1.0
- task_id: task_0094
  name: Chiclayo, PE
  latitude_deg: -6.77008
  longitude_deg: -79.85495
  altitude_m: 0.0
  release_time: '2026-04-15T03:46:00Z'
  due_time: '2026-04-15T04:00:00Z'
  required_duration_s: 60
  required_sensor_type: infrared
  weight: 5.0
- task_id: task_0095
  name: background_0535
  latitude_deg: 36.75485
  longitude_deg: 79.045407
  altitude_m: 0.0
  release_time: '2026-04-14T16:10:00Z'
  due_time: '2026-04-14T16:41:30Z'
  required_duration_s: 90
  required_sensor_type: visible
  weight: 1.5
- task_id: task_0096
  name: background_0412
  latitude_deg: 17.892957
  longitude_deg: 44.772887
  altitude_m: 0.0
  release_time: '2026-04-14T18:51:30Z'
  due_time: '2026-04-14T19:18:30Z'
  required_duration_s: 70
  required_sensor_type: visible
  weight: 2.0
- task_id: task_0097
  name: background_0798
  latitude_deg: 54.951004
  longitude_deg: 44.339126
  altitude_m: 0.0
  release_time: '2026-04-14T16:18:30Z'
  due_time: '2026-04-14T16:45:30Z'
  required_duration_s: 100
  required_sensor_type: visible
  weight: 1.0
- task_id: task_0098
  name: Pudong, CN
  latitude_deg: 31.23995
  longitude_deg: 121.50094
  altitude_m: 0.0
  release_time: '2026-04-15T02:14:00Z'
  due_time: '2026-04-15T03:06:00Z'
  required_duration_s: 30
  required_sensor_type: visible
  weight: 5.0
- task_id: task_0099
  name: background_0033
  latitude_deg: 28.062248
  longitude_deg: 79.208799
  altitude_m: 0.0
  release_time: '2026-04-15T00:59:30Z'
  due_time: '2026-04-15T01:15:30Z'
  required_duration_s: 40
  required_sensor_type: visible
  weight: 2.0
- task_id: task_0100
  name: Hamburg, DE
  latitude_deg: 53.55073
  longitude_deg: 9.99302
  altitude_m: 0.0
  release_time: '2026-04-14T19:16:30Z'
  due_time: '2026-04-14T19:38:00Z'
  required_duration_s: 45
  required_sensor_type: visible
  weight: 3.0
- task_id: task_0101
  name: Maracay, VE
  latitude_deg: 10.24972
  longitude_deg: -67.59475
  altitude_m: 0.0
  release_time: '2026-04-14T23:57:30Z'
  due_time: '2026-04-15T00:54:00Z'
  required_duration_s: 40
  required_sensor_type: visible
  weight: 3.0
- task_id: task_0102
  name: background_0407
  latitude_deg: 22.066738
  longitude_deg: -3.352329
  altitude_m: 0.0
  release_time: '2026-04-14T22:17:00Z'
  due_time: '2026-04-14T22:33:30Z'
  required_duration_s: 90
  required_sensor_type: visible
  weight: 2.0
- task_id: task_0103
  name: San Bernardino, US
  latitude_deg: 34.10834
  longitude_deg: -117.28977
  altitude_m: 0.0
  release_time: '2026-04-14T18:14:30Z'
  due_time: '2026-04-14T18:50:30Z'
  required_duration_s: 50
  required_sensor_type: infrared
  weight: 5.0
- task_id: task_0104
  name: Jiangyin, CN
  latitude_deg: 31.91102
  longitude_deg: 120.26302
  altitude_m: 0.0
  release_time: '2026-04-15T02:00:00Z'
  due_time: '2026-04-15T02:10:30Z'
  required_duration_s: 30
  required_sensor_type: visible
  weight: 4.0
- task_id: task_0105
  name: Kalaburagi, IN
  latitude_deg: 17.33583
  longitude_deg: 76.83757
  altitude_m: 0.0
  release_time: '2026-04-14T16:58:00Z'
  due_time: '2026-04-14T17:35:00Z'
  required_duration_s: 100
  required_sensor_type: visible
  weight: 5.0
- task_id: task_0106
  name: Puebla, MX
  latitude_deg: 19.04778
  longitude_deg: -98.20723
  altitude_m: 0.0
  release_time: '2026-04-15T00:18:00Z'
  due_time: '2026-04-15T00:48:30Z'
  required_duration_s: 20
  required_sensor_type: visible
  weight: 5.0
- task_id: task_0107
  name: Nellore, IN
  latitude_deg: 14.44992
  longitude_deg: 79.98697
  altitude_m: 0.0
  release_time: '2026-04-14T16:00:00Z'
  due_time: '2026-04-14T17:29:00Z'
  required_duration_s: 40
  required_sensor_type: visible
  weight: 5.0
- task_id: task_0108
  name: Providence, US
  latitude_deg: 41.82399
  longitude_deg: -71.41283
  altitude_m: 0.0
  release_time: '2026-04-15T01:29:30Z'
  due_time: '2026-04-15T02:00:30Z'
  required_duration_s: 50
  required_sensor_type: visible
  weight: 3.0
- task_id: task_0109
  name: Rawalpindi, PK
  latitude_deg: 33.59733
  longitude_deg: 73.0479
  altitude_m: 0.0
  release_time: '2026-04-14T17:13:00Z'
  due_time: '2026-04-14T17:34:30Z'
  required_duration_s: 45
  required_sensor_type: visible
  weight: 5.0
- task_id: task_0110
  name: background_0214
  latitude_deg: 45.912783
  longitude_deg: 64.250128
  altitude_m: 0.0
  release_time: '2026-04-14T23:39:00Z'
  due_time: '2026-04-15T00:10:30Z'
  required_duration_s: 70
  required_sensor_type: visible
  weight: 1.5
- task_id: task_0111
  name: Mashhad, IR
  latitude_deg: 36.29807
  longitude_deg: 59.60567
  altitude_m: 0.0
  release_time: '2026-04-14T23:36:30Z'
  due_time: '2026-04-15T00:08:00Z'
  required_duration_s: 45
  required_sensor_type: visible
  weight: 4.0
- task_id: task_0112
  name: background_0398
  latitude_deg: 48.995843
  longitude_deg: -112.724736
  altitude_m: 0.0
  release_time: '2026-04-15T00:36:30Z'
  due_time: '2026-04-15T00:57:30Z'
  required_duration_s: 30
  required_sensor_type: visible
  weight: 2.0
- task_id: task_0113
  name: background_0587
  latitude_deg: 51.812232
  longitude_deg: 34.85751
  altitude_m: 0.0
  release_time: '2026-04-14T19:16:30Z'
  due_time: '2026-04-14T19:38:30Z'
  required_duration_s: 100
  required_sensor_type: visible
  weight: 1.5
- task_id: task_0114
  name: "Najr\u0101n, SA"
  latitude_deg: 17.49326
  longitude_deg: 44.12766
  altitude_m: 0.0
  release_time: '2026-04-14T21:10:30Z'
  due_time: '2026-04-14T21:36:00Z'
  required_duration_s: 20
  required_sensor_type: visible
  weight: 5.0
- task_id: task_0115
  name: background_0205
  latitude_deg: 35.741005
  longitude_deg: -82.176888
  altitude_m: 0.0
  release_time: '2026-04-14T21:57:30Z'
  due_time: '2026-04-14T23:58:30Z'
  required_duration_s: 60
  required_sensor_type: visible
  weight: 1.5
- task_id: task_0116
  name: background_0775
  latitude_deg: -75.705448
  longitude_deg: -145.384997
  altitude_m: 0.0
  release_time: '2026-04-14T23:25:30Z'
  due_time: '2026-04-14T23:46:30Z'
  required_duration_s: 60
  required_sensor_type: visible
  weight: 2.0
- task_id: task_0117
  name: Bucharest, RO
  latitude_deg: 44.43225
  longitude_deg: 26.10626
  altitude_m: 0.0
  release_time: '2026-04-14T19:03:30Z'
  due_time: '2026-04-14T19:49:00Z'
  required_duration_s: 20
  required_sensor_type: visible
  weight: 3.0
- task_id: task_0118
  name: background_0408
  latitude_deg: 64.319871
  longitude_deg: -131.899536
  altitude_m: 0.0
  release_time: '2026-04-14T19:25:00Z'
  due_time: '2026-04-14T20:21:30Z'
  required_duration_s: 50
  required_sensor_type: visible
  weight: 1.5
- task_id: task_0119
  name: background_0773
  latitude_deg: 40.50518
  longitude_deg: 9.011509
  altitude_m: 0.0
  release_time: '2026-04-14T20:40:00Z'
  due_time: '2026-04-14T21:11:30Z'
  required_duration_s: 70
  required_sensor_type: visible
  weight: 2.0
- task_id: task_0120
  name: background_0645
  latitude_deg: 11.500664
  longitude_deg: -11.170116
  altitude_m: 0.0
  release_time: '2026-04-14T22:38:30Z'
  due_time: '2026-04-14T23:00:00Z'
  required_duration_s: 40
  required_sensor_type: visible
  weight: 2.0
- task_id: task_0121
  name: background_0285
  latitude_deg: 32.392072
  longitude_deg: 68.390695
  altitude_m: 0.0
  release_time: '2026-04-14T17:24:30Z'
  due_time: '2026-04-14T17:41:30Z'
  required_duration_s: 70
  required_sensor_type: visible
  weight: 2.0
- task_id: task_0122
  name: background_0401
  latitude_deg: -26.505529
  longitude_deg: -70.439149
  altitude_m: 0.0
  release_time: '2026-04-15T02:31:30Z'
  due_time: '2026-04-15T02:52:30Z'
  required_duration_s: 50
  required_sensor_type: visible
  weight: 2.0
- task_id: task_0123
  name: background_0605
  latitude_deg: -10.1749
  longitude_deg: -60.243041
  altitude_m: 0.0
  release_time: '2026-04-15T02:05:30Z'
  due_time: '2026-04-15T02:31:30Z'
  required_duration_s: 60
  required_sensor_type: visible
  weight: 2.0
- task_id: task_0124
  name: background_0591
  latitude_deg: 57.076442
  longitude_deg: 123.412189
  altitude_m: 0.0
  release_time: '2026-04-15T00:49:00Z'
  due_time: '2026-04-15T01:14:30Z'
  required_duration_s: 30
  required_sensor_type: visible
  weight: 1.0
- task_id: task_0125
  name: Curitiba, BR
  latitude_deg: -25.42778
  longitude_deg: -49.27306
  altitude_m: 0.0
  release_time: '2026-04-15T01:30:00Z'
  due_time: '2026-04-15T01:52:00Z'
  required_duration_s: 80
  required_sensor_type: visible
  weight: 5.0
- task_id: task_0126
  name: Chiba, JP
  latitude_deg: 35.6
  longitude_deg: 140.11667
  altitude_m: 0.0
  release_time: '2026-04-15T00:29:30Z'
  due_time: '2026-04-15T01:00:30Z'
  required_duration_s: 50
  required_sensor_type: visible
  weight: 3.0
- task_id: task_0127
  name: background_0037
  latitude_deg: -74.351071
  longitude_deg: 128.076902
  altitude_m: 0.0
  release_time: '2026-04-14T21:08:30Z'
  due_time: '2026-04-14T21:29:00Z'
  required_duration_s: 20
  required_sensor_type: infrared
  weight: 2.0
- task_id: task_0128
  name: background_0005
  latitude_deg: 25.864694
  longitude_deg: 94.750559
  altitude_m: 0.0
  release_time: '2026-04-15T03:26:00Z'
  due_time: '2026-04-15T04:00:00Z'
  required_duration_s: 45
  required_sensor_type: visible
  weight: 1.0
- task_id: task_0129
  name: background_0453
  latitude_deg: -2.716678
  longitude_deg: -74.965538
  altitude_m: 0.0
  release_time: '2026-04-15T02:57:30Z'
  due_time: '2026-04-15T03:58:30Z'
  required_duration_s: 40
  required_sensor_type: visible
  weight: 1.5
- task_id: task_0130
  name: background_0344
  latitude_deg: 2.184154
  longitude_deg: -74.580053
  altitude_m: 0.0
  release_time: '2026-04-15T03:13:30Z'
  due_time: '2026-04-15T03:40:00Z'
  required_duration_s: 60
  required_sensor_type: visible
  weight: 2.0
- task_id: task_0131
  name: background_0537
  latitude_deg: 6.028161
  longitude_deg: -69.879417
  altitude_m: 0.0
  release_time: '2026-04-15T02:59:30Z'
  due_time: '2026-04-15T03:40:30Z'
  required_duration_s: 40
  required_sensor_type: visible
  weight: 1.5
- task_id: task_0132
  name: Tashkent, UZ
  latitude_deg: 41.26465
  longitude_deg: 69.21627
  altitude_m: 0.0
  release_time: '2026-04-14T16:25:00Z'
  due_time: '2026-04-14T17:57:00Z'
  required_duration_s: 70
  required_sensor_type: visible
  weight: 4.0
- task_id: task_0133
  name: background_0316
  latitude_deg: 40.159639
  longitude_deg: 34.505705
  altitude_m: 0.0
  release_time: '2026-04-14T19:03:30Z'
  due_time: '2026-04-14T19:25:00Z'
  required_duration_s: 45
  required_sensor_type: visible
  weight: 1.0
- task_id: task_0134
  name: Denpasar, ID
  latitude_deg: -8.65
  longitude_deg: 115.21667
  altitude_m: 0.0
  release_time: '2026-04-15T02:15:00Z'
  due_time: '2026-04-15T03:17:00Z'
  required_duration_s: 70
  required_sensor_type: visible
  weight: 3.0
- task_id: task_0135
  name: Suzano, BR
  latitude_deg: -23.5425
  longitude_deg: -46.31083
  altitude_m: 0.0
  release_time: '2026-04-15T01:00:00Z'
  due_time: '2026-04-15T01:16:00Z'
  required_duration_s: 60
  required_sensor_type: visible
  weight: 3.0
- task_id: task_0136
  name: St. Louis, US
  latitude_deg: 38.62727
  longitude_deg: -90.19789
  altitude_m: 0.0
  release_time: '2026-04-15T03:34:30Z'
  due_time: '2026-04-15T04:00:00Z'
  required_duration_s: 100
  required_sensor_type: visible
  weight: 5.0
- task_id: task_0137
  name: Benin City, NG
  latitude_deg: 6.33815
  longitude_deg: 5.62575
  altitude_m: 0.0
  release_time: '2026-04-15T02:57:30Z'
  due_time: '2026-04-15T03:48:30Z'
  required_duration_s: 50
  required_sensor_type: visible
  weight: 5.0
- task_id: task_0138
  name: background_0388
  latitude_deg: -75.651712
  longitude_deg: -108.270789
  altitude_m: 0.0
  release_time: '2026-04-15T01:58:00Z'
  due_time: '2026-04-15T02:13:30Z'
  required_duration_s: 30
  required_sensor_type: visible
  weight: 1.5
- task_id: task_0139
  name: Shizuishan, CN
  latitude_deg: 38.98082
  longitude_deg: 106.3892
  altitude_m: 0.0
  release_time: '2026-04-15T01:54:30Z'
  due_time: '2026-04-15T02:21:00Z'
  required_duration_s: 80
  required_sensor_type: visible
  weight: 5.0
- task_id: task_0140
  name: background_0574
  latitude_deg: 68.402169
  longitude_deg: -161.687241
  altitude_m: 0.0
  release_time: '2026-04-15T00:55:00Z'
  due_time: '2026-04-15T01:21:30Z'
  required_duration_s: 40
  required_sensor_type: visible
  weight: 1.0
- task_id: task_0141
  name: "Niter\xF3i, BR"
  latitude_deg: -22.88333
  longitude_deg: -43.10361
  altitude_m: 0.0
  release_time: '2026-04-14T17:09:00Z'
  due_time: '2026-04-14T17:30:00Z'
  required_duration_s: 50
  required_sensor_type: visible
  weight: 5.0
- task_id: task_0142
  name: background_0673
  latitude_deg: 50.580056
  longitude_deg: -71.68106
  altitude_m: 0.0
  release_time: '2026-04-14T16:00:00Z'
  due_time: '2026-04-14T16:50:00Z'
  required_duration_s: 30
  required_sensor_type: visible
  weight: 1.5
- task_id: task_0143
  name: background_0570
  latitude_deg: 36.350028
  longitude_deg: 66.134303
  altitude_m: 0.0
  release_time: '2026-04-14T16:00:00Z'
  due_time: '2026-04-14T16:33:30Z'
  required_duration_s: 90
  required_sensor_type: visible
  weight: 2.0
- task_id: task_0144
  name: Changchun, CN
  latitude_deg: 43.88
  longitude_deg: 125.32278
  altitude_m: 0.0
  release_time: '2026-04-15T02:25:30Z'
  due_time: '2026-04-15T02:42:00Z'
  required_duration_s: 70
  required_sensor_type: visible
  weight: 4.0
- task_id: task_0145
  name: background_0693
  latitude_deg: 46.213999
  longitude_deg: 79.489264
  altitude_m: 0.0
  release_time: '2026-04-15T03:40:30Z'
  due_time: '2026-04-15T04:00:00Z'
  required_duration_s: 40
  required_sensor_type: visible
  weight: 1.5
- task_id: task_0146
  name: "Panam\xE1, PA"
  latitude_deg: 8.9936
  longitude_deg: -79.51973
  altitude_m: 0.0
  release_time: '2026-04-15T03:26:00Z'
  due_time: '2026-04-15T03:48:00Z'
  required_duration_s: 100
  required_sensor_type: visible
  weight: 3.0
- task_id: task_0147
  name: background_0028
  latitude_deg: 57.165786
  longitude_deg: -122.57567
  altitude_m: 0.0
  release_time: '2026-04-14T19:26:00Z'
  due_time: '2026-04-14T19:47:30Z'
  required_duration_s: 70
  required_sensor_type: visible
  weight: 1.0
- task_id: task_0148
  name: Gorakhpur, IN
  latitude_deg: 26.76628
  longitude_deg: 83.36889
  altitude_m: 0.0
  release_time: '2026-04-14T22:05:30Z'
  due_time: '2026-04-14T22:27:00Z'
  required_duration_s: 70
  required_sensor_type: visible
  weight: 4.0
- task_id: task_0149
  name: Dammam, SA
  latitude_deg: 26.43442
  longitude_deg: 50.10326
  altitude_m: 0.0
  release_time: '2026-04-15T01:50:00Z'
  due_time: '2026-04-15T03:11:00Z'
  required_duration_s: 40
  required_sensor_type: visible
  weight: 3.0
- task_id: task_0150
  name: Montevideo, UY
  latitude_deg: -34.90328
  longitude_deg: -56.18816
  altitude_m: 0.0
  release_time: '2026-04-15T01:44:30Z'
  due_time: '2026-04-15T03:16:00Z'
  required_duration_s: 60
  required_sensor_type: visible
  weight: 5.0
- task_id: task_0151
  name: Almaty, KZ
  latitude_deg: 43.25249
  longitude_deg: 76.9115
  altitude_m: 0.0
  release_time: '2026-04-14T16:12:00Z'
  due_time: '2026-04-14T17:28:30Z'
  required_duration_s: 60
  required_sensor_type: visible
  weight: 3.0
- task_id: task_0152
  name: Voronezh, RU
  latitude_deg: 51.66833
  longitude_deg: 39.19204
  altitude_m: 0.0
  release_time: '2026-04-14T18:48:30Z'
  due_time: '2026-04-14T19:20:30Z'
  required_duration_s: 120
  required_sensor_type: visible
  weight: 4.0
- task_id: task_0153
  name: Lubbock, US
  latitude_deg: 33.57786
  longitude_deg: -101.85517
  altitude_m: 0.0
  release_time: '2026-04-15T02:14:30Z'
  due_time: '2026-04-15T02:41:30Z'
  required_duration_s: 50
  required_sensor_type: visible
  weight: 4.0
- task_id: task_0154
  name: Ar Raqqah, SY
  latitude_deg: 35.95283
  longitude_deg: 39.00788
  altitude_m: 0.0
  release_time: '2026-04-15T01:10:30Z'
  due_time: '2026-04-15T01:36:30Z'
  required_duration_s: 40
  required_sensor_type: visible
  weight: 5.0
- task_id: task_0155
  name: background_0751
  latitude_deg: -18.133023
  longitude_deg: -68.194016
  altitude_m: 0.0
  release_time: '2026-04-15T01:12:00Z'
  due_time: '2026-04-15T01:38:00Z'
  required_duration_s: 20
  required_sensor_type: visible
  weight: 1.5
- task_id: task_0156
  name: Warsaw, PL
  latitude_deg: 52.22977
  longitude_deg: 21.01178
  altitude_m: 0.0
  release_time: '2026-04-14T17:48:00Z'
  due_time: '2026-04-14T19:10:00Z'
  required_duration_s: 120
  required_sensor_type: visible
  weight: 3.0
- task_id: task_0157
  name: background_0666
  latitude_deg: 29.011355
  longitude_deg: 67.461751
  altitude_m: 0.0
  release_time: '2026-04-14T17:13:30Z'
  due_time: '2026-04-14T17:50:30Z'
  required_duration_s: 100
  required_sensor_type: visible
  weight: 2.0
- task_id: task_0158
  name: Sanmenxia, CN
  latitude_deg: 34.78081
  longitude_deg: 111.19287
  altitude_m: 0.0
  release_time: '2026-04-15T02:44:00Z'
  due_time: '2026-04-15T03:10:30Z'
  required_duration_s: 70
  required_sensor_type: visible
  weight: 4.0
- task_id: task_0159
  name: Wuhu, CN
  latitude_deg: 31.35259
  longitude_deg: 118.42947
  altitude_m: 0.0
  release_time: '2026-04-15T02:53:30Z'
  due_time: '2026-04-15T03:09:30Z'
  required_duration_s: 45
  required_sensor_type: infrared
  weight: 5.0
- task_id: task_0160
  name: Rancagua, CL
  latitude_deg: -34.1691
  longitude_deg: -70.74053
  altitude_m: 0.0
  release_time: '2026-04-15T03:19:00Z'
  due_time: '2026-04-15T03:30:30Z'
  required_duration_s: 45
  required_sensor_type: visible
  weight: 5.0
- task_id: task_0161
  name: Planaltina, BR
  latitude_deg: -15.61791
  longitude_deg: -47.64874
  altitude_m: 0.0
  release_time: '2026-04-15T01:32:30Z'
  due_time: '2026-04-15T02:49:30Z'
  required_duration_s: 75
  required_sensor_type: visible
  weight: 5.0
- task_id: task_0162
  name: "Bouak\xE9, CI"
  latitude_deg: 7.69385
  longitude_deg: -5.03031
  altitude_m: 0.0
  release_time: '2026-04-14T22:11:30Z'
  due_time: '2026-04-14T22:43:30Z'
  required_duration_s: 100
  required_sensor_type: visible
  weight: 5.0
- task_id: task_0163
  name: Kochi, IN
  latitude_deg: 9.93988
  longitude_deg: 76.26022
  altitude_m: 0.0
  release_time: '2026-04-14T17:11:00Z'
  due_time: '2026-04-14T17:38:00Z'
  required_duration_s: 120
  required_sensor_type: visible
  weight: 3.0
- task_id: task_0164
  name: background_0187
  latitude_deg: 43.385275
  longitude_deg: 131.672629
  altitude_m: 0.0
  release_time: '2026-04-15T02:10:30Z'
  due_time: '2026-04-15T03:11:30Z'
  required_duration_s: 30
  required_sensor_type: visible
  weight: 1.5
- task_id: task_0165
  name: background_0624
  latitude_deg: -10.625734
  longitude_deg: 18.594971
  altitude_m: 0.0
  release_time: '2026-04-14T20:53:30Z'
  due_time: '2026-04-14T21:20:00Z'
  required_duration_s: 90
  required_sensor_type: visible
  weight: 1.5
- task_id: task_0166
  name: background_0223
  latitude_deg: -69.38808
  longitude_deg: 49.120477
  altitude_m: 0.0
  release_time: '2026-04-14T19:48:00Z'
  due_time: '2026-04-14T20:50:00Z'
  required_duration_s: 75
  required_sensor_type: visible
  weight: 1.0
- task_id: task_0167
  name: Xuzhou, CN
  latitude_deg: 34.20442
  longitude_deg: 117.28386
  altitude_m: 0.0
  release_time: '2026-04-14T16:24:00Z'
  due_time: '2026-04-14T16:40:00Z'
  required_duration_s: 45
  required_sensor_type: visible
  weight: 5.0
- task_id: task_0168
  name: Ningbo, CN
  latitude_deg: 29.87819
  longitude_deg: 121.54945
  altitude_m: 0.0
  release_time: '2026-04-15T02:24:30Z'
  due_time: '2026-04-15T02:41:00Z'
  required_duration_s: 75
  required_sensor_type: visible
  weight: 3.0
- task_id: task_0169
  name: background_0776
  latitude_deg: -39.289316
  longitude_deg: 175.482586
  altitude_m: 0.0
  release_time: '2026-04-14T21:51:30Z'
  due_time: '2026-04-14T22:33:00Z'
  required_duration_s: 45
  required_sensor_type: visible
  weight: 2.0
- task_id: task_0170
  name: background_0391
  latitude_deg: -78.264937
  longitude_deg: 145.851322
  altitude_m: 0.0
  release_time: '2026-04-14T22:13:00Z'
  due_time: '2026-04-14T22:39:30Z'
  required_duration_s: 40
  required_sensor_type: visible
  weight: 1.5
- task_id: task_0171
  name: background_0378
  latitude_deg: -1.530066
  longitude_deg: 23.12984
  altitude_m: 0.0
  release_time: '2026-04-14T20:37:30Z'
  due_time: '2026-04-14T20:54:30Z'
  required_duration_s: 120
  required_sensor_type: visible
  weight: 2.0
- task_id: task_0172
  name: Qingyuan, CN
  latitude_deg: 23.7
  longitude_deg: 113.03333
  altitude_m: 0.0
  release_time: '2026-04-15T02:36:00Z'
  due_time: '2026-04-15T03:22:30Z'
  required_duration_s: 20
  required_sensor_type: visible
  weight: 5.0
- task_id: task_0173
  name: background_0657
  latitude_deg: 20.825888
  longitude_deg: 19.465306
  altitude_m: 0.0
  release_time: '2026-04-14T18:53:00Z'
  due_time: '2026-04-14T19:54:00Z'
  required_duration_s: 20
  required_sensor_type: visible
  weight: 2.0
- task_id: task_0174
  name: "Jos\xE9 C. Paz, AR"
  latitude_deg: -34.51541
  longitude_deg: -58.76813
  altitude_m: 0.0
  release_time: '2026-04-15T00:20:00Z'
  due_time: '2026-04-15T00:41:30Z'
  required_duration_s: 70
  required_sensor_type: visible
  weight: 3.0
- task_id: task_0175
  name: Cixi, CN
  latitude_deg: 30.1764
  longitude_deg: 121.2457
  altitude_m: 0.0
  release_time: '2026-04-15T02:14:00Z'
  due_time: '2026-04-15T03:36:00Z'
  required_duration_s: 40
  required_sensor_type: visible
  weight: 4.0
- task_id: task_0176
  name: background_0085
  latitude_deg: 66.581849
  longitude_deg: 89.331015
  altitude_m: 0.0
  release_time: '2026-04-15T03:40:00Z'
  due_time: '2026-04-15T04:00:00Z'
  required_duration_s: 50
  required_sensor_type: visible
  weight: 2.0
- task_id: task_0177
  name: background_0033
  latitude_deg: -82.244668
  longitude_deg: 41.6474
  altitude_m: 0.0
  release_time: '2026-04-14T19:07:30Z'
  due_time: '2026-04-14T19:28:30Z'
  required_duration_s: 30
  required_sensor_type: infrared
  weight: 1.0
- task_id: task_0178
  name: Havana, CU
  latitude_deg: 23.13302
  longitude_deg: -82.38304
  altitude_m: 0.0
  release_time: '2026-04-14T16:00:00Z'
  due_time: '2026-04-14T16:33:00Z'
  required_duration_s: 50
  required_sensor_type: visible
  weight: 5.0
- task_id: task_0179
  name: background_0066
  latitude_deg: 70.556443
  longitude_deg: 138.110383
  altitude_m: 0.0
  release_time: '2026-04-15T02:28:30Z'
  due_time: '2026-04-15T03:19:30Z'
  required_duration_s: 20
  required_sensor_type: visible
  weight: 1.0
- task_id: task_0180
  name: Isfahan, IR
  latitude_deg: 32.65246
  longitude_deg: 51.67462
  altitude_m: 0.0
  release_time: '2026-04-14T16:07:00Z'
  due_time: '2026-04-14T16:39:00Z'
  required_duration_s: 75
  required_sensor_type: visible
  weight: 3.0
- task_id: task_0181
  name: background_0177
  latitude_deg: 17.349096
  longitude_deg: 20.370577
  altitude_m: 0.0
  release_time: '2026-04-14T20:43:00Z'
  due_time: '2026-04-14T21:05:00Z'
  required_duration_s: 75
  required_sensor_type: visible
  weight: 1.0
- task_id: task_0182
  name: Houston, US
  latitude_deg: 29.76328
  longitude_deg: -95.36327
  altitude_m: 0.0
  release_time: '2026-04-14T21:37:00Z'
  due_time: '2026-04-14T21:53:00Z'
  required_duration_s: 50
  required_sensor_type: visible
  weight: 3.0
- task_id: task_0183
  name: background_0759
  latitude_deg: -73.01528
  longitude_deg: 132.311344
  altitude_m: 0.0
  release_time: '2026-04-14T22:11:30Z'
  due_time: '2026-04-14T22:57:30Z'
  required_duration_s: 50
  required_sensor_type: visible
  weight: 2.0
- task_id: task_0184
  name: background_0464
  latitude_deg: 62.922827
  longitude_deg: 105.028458
  altitude_m: 0.0
  release_time: '2026-04-14T17:48:30Z'
  due_time: '2026-04-14T18:19:30Z'
  required_duration_s: 60
  required_sensor_type: visible
  weight: 2.0
- task_id: task_0185
  name: Loni, IN
  latitude_deg: 28.75143
  longitude_deg: 77.29023
  altitude_m: 0.0
  release_time: '2026-04-14T16:47:30Z'
  due_time: '2026-04-14T17:18:30Z'
  required_duration_s: 45
  required_sensor_type: visible
  weight: 3.0
- task_id: task_0186
  name: background_0527
  latitude_deg: -78.225858
  longitude_deg: 159.28346
  altitude_m: 0.0
  release_time: '2026-04-14T19:47:30Z'
  due_time: '2026-04-14T20:39:30Z'
  required_duration_s: 120
  required_sensor_type: visible
  weight: 2.0
- task_id: task_0187
  name: Pereira, CO
  latitude_deg: 4.81428
  longitude_deg: -75.69488
  altitude_m: 0.0
  release_time: '2026-04-15T02:35:00Z'
  due_time: '2026-04-15T03:01:00Z'
  required_duration_s: 45
  required_sensor_type: visible
  weight: 5.0
- task_id: task_0188
  name: background_0550
  latitude_deg: 32.447912
  longitude_deg: -85.382
  altitude_m: 0.0
  release_time: '2026-04-14T16:10:30Z'
  due_time: '2026-04-14T16:42:30Z'
  required_duration_s: 90
  required_sensor_type: visible
  weight: 1.5
- task_id: task_0189
  name: background_0439
  latitude_deg: 44.754239
  longitude_deg: 60.886538
  altitude_m: 0.0
  release_time: '2026-04-14T23:29:30Z'
  due_time: '2026-04-15T00:11:00Z'
  required_duration_s: 60
  required_sensor_type: visible
  weight: 2.0
- task_id: task_0190
  name: background_0399
  latitude_deg: 24.623333
  longitude_deg: 99.626444
  altitude_m: 0.0
  release_time: '2026-04-14T23:10:30Z'
  due_time: '2026-04-15T00:31:30Z'
  required_duration_s: 40
  required_sensor_type: visible
  weight: 1.5
- task_id: task_0191
  name: background_0559
  latitude_deg: -20.407869
  longitude_deg: -60.844046
  altitude_m: 0.0
  release_time: '2026-04-15T00:24:00Z'
  due_time: '2026-04-15T00:35:30Z'
  required_duration_s: 20
  required_sensor_type: visible
  weight: 2.0
- task_id: task_0192
  name: "Macei\xF3, BR"
  latitude_deg: -9.66583
  longitude_deg: -35.73528
  altitude_m: 0.0
  release_time: '2026-04-15T00:04:00Z'
  due_time: '2026-04-15T00:55:30Z'
  required_duration_s: 75
  required_sensor_type: visible
  weight: 5.0
- task_id: task_0193
  name: Konya, TR
  latitude_deg: 37.87135
  longitude_deg: 32.48464
  altitude_m: 0.0
  release_time: '2026-04-15T01:00:30Z'
  due_time: '2026-04-15T02:01:00Z'
  required_duration_s: 20
  required_sensor_type: visible
  weight: 5.0
- task_id: task_0194
  name: background_0013
  latitude_deg: -76.547799
  longitude_deg: -111.064573
  altitude_m: 0.0
  release_time: '2026-04-14T20:56:30Z'
  due_time: '2026-04-14T21:22:00Z'
  required_duration_s: 30
  required_sensor_type: infrared
  weight: 1.5
- task_id: task_0195
  name: background_0509
  latitude_deg: 64.025974
  longitude_deg: -143.462691
  altitude_m: 0.0
  release_time: '2026-04-14T20:08:00Z'
  due_time: '2026-04-14T20:54:30Z'
  required_duration_s: 70
  required_sensor_type: visible
  weight: 2.0
- task_id: task_0196
  name: background_0362
  latitude_deg: 57.434317
  longitude_deg: 64.906879
  altitude_m: 0.0
  release_time: '2026-04-14T16:49:30Z'
  due_time: '2026-04-14T18:11:00Z'
  required_duration_s: 50
  required_sensor_type: visible
  weight: 1.5
- task_id: task_0197
  name: background_0150
  latitude_deg: 60.647216
  longitude_deg: 83.181766
  altitude_m: 0.0
  release_time: '2026-04-14T16:00:00Z'
  due_time: '2026-04-14T16:18:00Z'
  required_duration_s: 70
  required_sensor_type: visible
  weight: 1.5
- task_id: task_0198
  name: Brussels, BE
  latitude_deg: 50.85045
  longitude_deg: 4.34878
  altitude_m: 0.0
  release_time: '2026-04-14T20:29:30Z'
  due_time: '2026-04-14T22:30:30Z'
  required_duration_s: 20
  required_sensor_type: infrared
  weight: 3.0
- task_id: task_0199
  name: Hannover, DE
  latitude_deg: 52.37052
  longitude_deg: 9.73322
  altitude_m: 0.0
  release_time: '2026-04-14T20:43:00Z'
  due_time: '2026-04-14T21:25:00Z'
  required_duration_s: 70
  required_sensor_type: visible
  weight: 3.0
- task_id: task_0200
  name: "San Jos\xE9, CR"
  latitude_deg: 9.93388
  longitude_deg: -84.08489
  altitude_m: 0.0
  release_time: '2026-04-14T16:00:00Z'
  due_time: '2026-04-14T17:01:30Z'
  required_duration_s: 40
  required_sensor_type: visible
  weight: 4.0
- task_id: task_0201
  name: background_0064
  latitude_deg: 22.510839
  longitude_deg: 41.441696
  altitude_m: 0.0
  release_time: '2026-04-14T19:21:30Z'
  due_time: '2026-04-14T19:42:30Z'
  required_duration_s: 50
  required_sensor_type: infrared
  weight: 1.0
- task_id: task_0202
  name: "Jundia\xED, BR"
  latitude_deg: -23.18639
  longitude_deg: -46.88417
  altitude_m: 0.0
  release_time: '2026-04-15T01:25:30Z'
  due_time: '2026-04-15T01:57:30Z'
  required_duration_s: 75
  required_sensor_type: visible
  weight: 3.0
- task_id: task_0203
  name: background_0294
  latitude_deg: 54.03735
  longitude_deg: -121.909941
  altitude_m: 0.0
  release_time: '2026-04-14T19:32:00Z'
  due_time: '2026-04-14T19:48:00Z'
  required_duration_s: 60
  required_sensor_type: visible
  weight: 1.5
- task_id: task_0204
  name: Suzhou, CN
  latitude_deg: 31.30408
  longitude_deg: 120.59538
  altitude_m: 0.0
  release_time: '2026-04-15T02:33:30Z'
  due_time: '2026-04-15T02:59:30Z'
  required_duration_s: 40
  required_sensor_type: infrared
  weight: 5.0
- task_id: task_0205
  name: background_0846
  latitude_deg: 28.006213
  longitude_deg: 22.728971
  altitude_m: 0.0
  release_time: '2026-04-14T20:22:30Z'
  due_time: '2026-04-14T21:04:30Z'
  required_duration_s: 80
  required_sensor_type: visible
  weight: 1.0
- task_id: task_0206
  name: Jinjiang, CN
  latitude_deg: 24.81978
  longitude_deg: 118.57415
  altitude_m: 0.0
  release_time: '2026-04-15T02:16:00Z'
  due_time: '2026-04-15T02:57:30Z'
  required_duration_s: 50
  required_sensor_type: visible
  weight: 4.0
- task_id: task_0207
  name: Cebu City, PH
  latitude_deg: 10.31672
  longitude_deg: 123.89071
  altitude_m: 0.0
  release_time: '2026-04-15T00:30:00Z'
  due_time: '2026-04-15T00:51:30Z'
  required_duration_s: 45
  required_sensor_type: visible
  weight: 4.0
- task_id: task_0208
  name: background_0174
  latitude_deg: 65.522093
  longitude_deg: -14.719934
  altitude_m: 0.0
  release_time: '2026-04-14T21:06:00Z'
  due_time: '2026-04-14T21:37:00Z'
  required_duration_s: 45
  required_sensor_type: visible
  weight: 2.0
- task_id: task_0209
  name: background_0406
  latitude_deg: 46.543096
  longitude_deg: 142.10657
  altitude_m: 0.0
  release_time: '2026-04-15T00:59:00Z'
  due_time: '2026-04-15T01:20:30Z'
  required_duration_s: 80
  required_sensor_type: visible
  weight: 1.0
- task_id: task_0210
  name: background_0710
  latitude_deg: 58.233618
  longitude_deg: -97.68226
  altitude_m: 0.0
  release_time: '2026-04-15T02:50:00Z'
  due_time: '2026-04-15T04:00:00Z'
  required_duration_s: 120
  required_sensor_type: visible
  weight: 2.0
- task_id: task_0211
  name: "S\xE3o Jos\xE9 do Rio Preto, BR"
  latitude_deg: -20.81972
  longitude_deg: -49.37944
  altitude_m: 0.0
  release_time: '2026-04-15T01:42:00Z'
  due_time: '2026-04-15T02:12:30Z'
  required_duration_s: 30
  required_sensor_type: infrared
  weight: 3.0
- task_id: task_0212
  name: background_0561
  latitude_deg: 50.951133
  longitude_deg: -100.415128
  altitude_m: 0.0
  release_time: '2026-04-14T16:07:00Z'
  due_time: '2026-04-14T17:07:30Z'
  required_duration_s: 20
  required_sensor_type: visible
  weight: 1.0
- task_id: task_0213
  name: Tapachula, MX
  latitude_deg: 14.90541
  longitude_deg: -92.25891
  altitude_m: 0.0
  release_time: '2026-04-14T21:23:00Z'
  due_time: '2026-04-14T21:59:00Z'
  required_duration_s: 50
  required_sensor_type: visible
  weight: 3.0
- task_id: task_0214
  name: background_0026
  latitude_deg: 46.593667
  longitude_deg: -123.578814
  altitude_m: 0.0
  release_time: '2026-04-14T19:11:00Z'
  due_time: '2026-04-14T19:42:30Z'
  required_duration_s: 60
  required_sensor_type: visible
  weight: 1.0
- task_id: task_0215
  name: Yokohama, JP
  latitude_deg: 35.43333
  longitude_deg: 139.65
  altitude_m: 0.0
  release_time: '2026-04-15T00:24:30Z'
  due_time: '2026-04-15T01:00:30Z'
  required_duration_s: 30
  required_sensor_type: visible
  weight: 5.0
- task_id: task_0216
  name: Jining, CN
  latitude_deg: 35.405
  longitude_deg: 116.58139
  altitude_m: 0.0
  release_time: '2026-04-15T02:42:30Z'
  due_time: '2026-04-15T02:59:30Z'
  required_duration_s: 100
  required_sensor_type: visible
  weight: 4.0
- task_id: task_0217
  name: background_0004
  latitude_deg: -81.398356
  longitude_deg: -0.363426
  altitude_m: 0.0
  release_time: '2026-04-14T22:22:00Z'
  due_time: '2026-04-14T22:48:00Z'
  required_duration_s: 50
  required_sensor_type: infrared
  weight: 1.5
- task_id: task_0218
  name: Glasgow, GB
  latitude_deg: 55.86515
  longitude_deg: -4.25763
  altitude_m: 0.0
  release_time: '2026-04-15T01:54:30Z'
  due_time: '2026-04-15T02:20:00Z'
  required_duration_s: 30
  required_sensor_type: visible
  weight: 3.0
- task_id: task_0219
  name: "Sumar\xE9, BR"
  latitude_deg: -22.82194
  longitude_deg: -47.26694
  altitude_m: 0.0
  release_time: '2026-04-15T01:40:30Z'
  due_time: '2026-04-15T02:02:30Z'
  required_duration_s: 75
  required_sensor_type: visible
  weight: 4.0
- task_id: task_0220
  name: Meads, US
  latitude_deg: 38.41258
  longitude_deg: -82.70905
  altitude_m: 0.0
  release_time: '2026-04-14T22:38:30Z'
  due_time: '2026-04-14T23:04:30Z'
  required_duration_s: 30
  required_sensor_type: visible
  weight: 5.0
- task_id: task_0221
  name: Yantai, CN
  latitude_deg: 37.47649
  longitude_deg: 121.44081
  altitude_m: 0.0
  release_time: '2026-04-15T01:32:30Z'
  due_time: '2026-04-15T03:04:00Z'
  required_duration_s: 70
  required_sensor_type: visible
  weight: 5.0
- task_id: task_0222
  name: background_0224
  latitude_deg: 62.936948
  longitude_deg: 90.959465
  altitude_m: 0.0
  release_time: '2026-04-15T00:39:30Z'
  due_time: '2026-04-15T01:16:00Z'
  required_duration_s: 20
  required_sensor_type: visible
  weight: 1.0
- task_id: task_0223
  name: "Ciudad Benito Ju\xE1rez, MX"
  latitude_deg: 25.64724
  longitude_deg: -100.09582
  altitude_m: 0.0
  release_time: '2026-04-15T00:14:30Z'
  due_time: '2026-04-15T00:55:30Z'
  required_duration_s: 50
  required_sensor_type: visible
  weight: 5.0
- task_id: task_0224
  name: Vila Velha, BR
  latitude_deg: -20.32972
  longitude_deg: -40.2925
  altitude_m: 0.0
  release_time: '2026-04-15T01:11:00Z'
  due_time: '2026-04-15T01:47:30Z'
  required_duration_s: 60
  required_sensor_type: visible
  weight: 4.0
- task_id: task_0225
  name: Luohu District, CN
  latitude_deg: 22.54721
  longitude_deg: 114.13149
  altitude_m: 0.0
  release_time: '2026-04-15T02:11:30Z'
  due_time: '2026-04-15T03:53:00Z'
  required_duration_s: 30
  required_sensor_type: visible
  weight: 3.0
- task_id: task_0226
  name: background_0863
  latitude_deg: 41.486743
  longitude_deg: 32.482502
  altitude_m: 0.0
  release_time: '2026-04-14T19:24:00Z'
  due_time: '2026-04-14T20:15:30Z'
  required_duration_s: 75
  required_sensor_type: visible
  weight: 1.0
- task_id: task_0227
  name: Weifang, CN
  latitude_deg: 36.71
  longitude_deg: 119.10194
  altitude_m: 0.0
  release_time: '2026-04-15T02:47:00Z'
  due_time: '2026-04-15T03:18:00Z'
  required_duration_s: 20
  required_sensor_type: infrared
  weight: 5.0
- task_id: task_0228
  name: Callao, PE
  latitude_deg: -12.05162
  longitude_deg: -77.13452
  altitude_m: 0.0
  release_time: '2026-04-15T02:42:30Z'
  due_time: '2026-04-15T03:18:30Z'
  required_duration_s: 20
  required_sensor_type: visible
  weight: 3.0
- task_id: task_0229
  name: Amarillo, US
  latitude_deg: 35.222
  longitude_deg: -101.8313
  altitude_m: 0.0
  release_time: '2026-04-15T02:05:00Z'
  due_time: '2026-04-15T02:47:00Z'
  required_duration_s: 90
  required_sensor_type: visible
  weight: 4.0
- task_id: task_0230
  name: Basuo, CN
  latitude_deg: 19.10267
  longitude_deg: 108.66565
  altitude_m: 0.0
  release_time: '2026-04-15T02:53:30Z'
  due_time: '2026-04-15T03:09:30Z'
  required_duration_s: 45
  required_sensor_type: visible
  weight: 5.0
- task_id: task_0231
  name: Nassau, BS
  latitude_deg: 25.05823
  longitude_deg: -77.34306
  altitude_m: 0.0
  release_time: '2026-04-14T19:04:00Z'
  due_time: '2026-04-14T19:20:00Z'
  required_duration_s: 40
  required_sensor_type: visible
  weight: 5.0
- task_id: task_0232
  name: background_0364
  latitude_deg: 64.733387
  longitude_deg: 57.427844
  altitude_m: 0.0
  release_time: '2026-04-14T17:16:30Z'
  due_time: '2026-04-14T17:38:30Z'
  required_duration_s: 120
  required_sensor_type: visible
  weight: 1.5
- task_id: task_0233
  name: Riga, LV
  latitude_deg: 56.946
  longitude_deg: 24.10589
  altitude_m: 0.0
  release_time: '2026-04-14T19:40:30Z'
  due_time: '2026-04-14T20:01:30Z'
  required_duration_s: 30
  required_sensor_type: infrared
  weight: 5.0
- task_id: task_0234
  name: Abidjan, CI
  latitude_deg: 5.35444
  longitude_deg: -4.00167
  altitude_m: 0.0
  release_time: '2026-04-14T21:31:00Z'
  due_time: '2026-04-14T22:48:00Z'
  required_duration_s: 20
  required_sensor_type: visible
  weight: 3.0
- task_id: task_0235
  name: Anyang, CN
  latitude_deg: 36.096
  longitude_deg: 114.38278
  altitude_m: 0.0
  release_time: '2026-04-14T20:06:00Z'
  due_time: '2026-04-14T20:21:30Z'
  required_duration_s: 30
  required_sensor_type: infrared
  weight: 3.0
- task_id: task_0236
  name: Dalian, CN
  latitude_deg: 38.91222
  longitude_deg: 121.60222
  altitude_m: 0.0
  release_time: '2026-04-14T16:07:30Z'
  due_time: '2026-04-14T16:33:30Z'
  required_duration_s: 20
  required_sensor_type: visible
  weight: 3.0
- task_id: task_0237
  name: background_0084
  latitude_deg: 8.826888
  longitude_deg: 19.348975
  altitude_m: 0.0
  release_time: '2026-04-14T20:57:00Z'
  due_time: '2026-04-14T21:23:00Z'
  required_duration_s: 50
  required_sensor_type: infrared
  weight: 1.5
- task_id: task_0238
  name: Changzhi, CN
  latitude_deg: 35.20889
  longitude_deg: 111.73861
  altitude_m: 0.0
  release_time: '2026-04-15T02:54:30Z'
  due_time: '2026-04-15T03:16:00Z'
  required_duration_s: 80
  required_sensor_type: visible
  weight: 5.0
- task_id: task_0239
  name: Vilnius, LT
  latitude_deg: 54.68916
  longitude_deg: 25.2798
  altitude_m: 0.0
  release_time: '2026-04-14T19:32:30Z'
  due_time: '2026-04-14T20:09:30Z'
  required_duration_s: 70
  required_sensor_type: visible
  weight: 4.0
- task_id: task_0240
  name: background_0098
  latitude_deg: -8.670267
  longitude_deg: 36.256005
  altitude_m: 0.0
  release_time: '2026-04-14T19:21:30Z'
  due_time: '2026-04-14T20:22:30Z'
  required_duration_s: 45
  required_sensor_type: visible
  weight: 1.0
- task_id: task_0241
  name: background_0248
  latitude_deg: -15.060281
  longitude_deg: 126.65822
  altitude_m: 0.0
  release_time: '2026-04-15T01:22:00Z'
  due_time: '2026-04-15T01:53:00Z'
  required_duration_s: 50
  required_sensor_type: visible
  weight: 2.0
- task_id: task_0242
  name: London, CA
  latitude_deg: 42.98339
  longitude_deg: -81.23304
  altitude_m: 0.0
  release_time: '2026-04-15T03:19:30Z'
  due_time: '2026-04-15T03:36:30Z'
  required_duration_s: 100
  required_sensor_type: visible
  weight: 5.0
- task_id: task_0243
  name: background_0648
  latitude_deg: 2.677517
  longitude_deg: 33.936586
  altitude_m: 0.0
  release_time: '2026-04-14T16:54:00Z'
  due_time: '2026-04-14T18:36:00Z'
  required_duration_s: 100
  required_sensor_type: visible
  weight: 1.5
- task_id: task_0244
  name: Brisbane, AU
  latitude_deg: -27.46794
  longitude_deg: 153.02809
  altitude_m: 0.0
  release_time: '2026-04-14T23:42:30Z'
  due_time: '2026-04-15T00:09:00Z'
  required_duration_s: 90
  required_sensor_type: visible
  weight: 3.0
- task_id: task_0245
  name: Saskatoon, CA
  latitude_deg: 52.13238
  longitude_deg: -106.66892
  altitude_m: 0.0
  release_time: '2026-04-14T17:56:00Z'
  due_time: '2026-04-14T19:27:00Z'
  required_duration_s: 45
  required_sensor_type: infrared
  weight: 4.0
- task_id: task_0246
  name: background_0216
  latitude_deg: 52.652679
  longitude_deg: 156.369919
  altitude_m: 0.0
  release_time: '2026-04-15T00:36:30Z'
  due_time: '2026-04-15T01:03:00Z'
  required_duration_s: 70
  required_sensor_type: visible
  weight: 1.0
- task_id: task_0247
  name: background_0797
  latitude_deg: 47.278577
  longitude_deg: -106.092127
  altitude_m: 0.0
  release_time: '2026-04-14T20:52:30Z'
  due_time: '2026-04-14T21:13:00Z'
  required_duration_s: 20
  required_sensor_type: visible
  weight: 1.5
- task_id: task_0248
  name: Kazan, RU
  latitude_deg: 55.78874
  longitude_deg: 49.12214
  altitude_m: 0.0
  release_time: '2026-04-14T17:09:00Z'
  due_time: '2026-04-14T18:30:30Z'
  required_duration_s: 90
  required_sensor_type: visible
  weight: 5.0
- task_id: task_0249
  name: background_0764
  latitude_deg: -73.682763
  longitude_deg: -0.936256
  altitude_m: 0.0
  release_time: '2026-04-15T00:08:00Z'
  due_time: '2026-04-15T00:34:30Z'
  required_duration_s: 75
  required_sensor_type: visible
  weight: 1.5
- task_id: task_0250
  name: background_0041
  latitude_deg: 24.650325
  longitude_deg: -99.101815
  altitude_m: 0.0
  release_time: '2026-04-14T16:37:30Z'
  due_time: '2026-04-14T17:39:00Z'
  required_duration_s: 80
  required_sensor_type: visible
  weight: 2.0
- task_id: task_0251
  name: Pallabi, BD
  latitude_deg: 23.825
  longitude_deg: 90.37
  altitude_m: 0.0
  release_time: '2026-04-14T16:04:30Z'
  due_time: '2026-04-14T16:30:30Z'
  required_duration_s: 40
  required_sensor_type: infrared
  weight: 3.0
- task_id: task_0252
  name: background_0540
  latitude_deg: 1.675949
  longitude_deg: -75.106747
  altitude_m: 0.0
  release_time: '2026-04-15T02:29:30Z'
  due_time: '2026-04-15T03:10:00Z'
  required_duration_s: 20
  required_sensor_type: visible
  weight: 1.5
- task_id: task_0253
  name: background_0201
  latitude_deg: -75.320484
  longitude_deg: 160.86125
  altitude_m: 0.0
  release_time: '2026-04-14T17:09:00Z'
  due_time: '2026-04-14T17:30:30Z'
  required_duration_s: 90
  required_sensor_type: visible
  weight: 1.0
- task_id: task_0254
  name: background_0619
  latitude_deg: -75.2403
  longitude_deg: -80.342609
  altitude_m: 0.0
  release_time: '2026-04-14T22:31:00Z'
  due_time: '2026-04-14T23:08:00Z'
  required_duration_s: 70
  required_sensor_type: visible
  weight: 1.5
- task_id: task_0255
  name: Suining, CN
  latitude_deg: 30.50802
  longitude_deg: 105.57332
  altitude_m: 0.0
  release_time: '2026-04-14T20:31:30Z'
  due_time: '2026-04-14T20:52:30Z'
  required_duration_s: 60
  required_sensor_type: visible
  weight: 3.0
- task_id: task_0256
  name: background_0013
  latitude_deg: 59.534655
  longitude_deg: -138.430598
  altitude_m: 0.0
  release_time: '2026-04-14T23:14:30Z'
  due_time: '2026-04-14T23:35:30Z'
  required_duration_s: 40
  required_sensor_type: visible
  weight: 2.0
- task_id: task_0257
  name: background_0865
  latitude_deg: 32.385722
  longitude_deg: 12.461673
  altitude_m: 0.0
  release_time: '2026-04-14T20:52:30Z'
  due_time: '2026-04-14T21:09:00Z'
  required_duration_s: 60
  required_sensor_type: visible
  weight: 1.5
- task_id: task_0258
  name: Huntsville, US
  latitude_deg: 34.7304
  longitude_deg: -86.58594
  altitude_m: 0.0
  release_time: '2026-04-15T03:28:30Z'
  due_time: '2026-04-15T04:00:00Z'
  required_duration_s: 80
  required_sensor_type: visible
  weight: 4.0
- task_id: task_0259
  name: Coro, VE
  latitude_deg: 11.40769
  longitude_deg: -69.67822
  altitude_m: 0.0
  release_time: '2026-04-14T19:43:30Z'
  due_time: '2026-04-14T20:05:00Z'
  required_duration_s: 45
  required_sensor_type: visible
  weight: 5.0
- task_id: task_0260
  name: background_0082
  latitude_deg: -4.265145
  longitude_deg: 28.325089
  altitude_m: 0.0
  release_time: '2026-04-14T18:46:00Z'
  due_time: '2026-04-14T19:12:00Z'
  required_duration_s: 50
  required_sensor_type: visible
  weight: 2.0
- task_id: task_0261
  name: Liaoyang, CN
  latitude_deg: 41.27194
  longitude_deg: 123.17306
  altitude_m: 0.0
  release_time: '2026-04-15T01:29:00Z'
  due_time: '2026-04-15T01:54:30Z'
  required_duration_s: 20
  required_sensor_type: visible
  weight: 5.0
- task_id: task_0262
  name: Palermo, IT
  latitude_deg: 38.1166
  longitude_deg: 13.3636
  altitude_m: 0.0
  release_time: '2026-04-14T20:20:00Z'
  due_time: '2026-04-14T21:41:00Z'
  required_duration_s: 50
  required_sensor_type: infrared
  weight: 4.0
- task_id: task_0263
  name: Warangal, IN
  latitude_deg: 18.0
  longitude_deg: 79.58333
  altitude_m: 0.0
  release_time: '2026-04-15T02:20:30Z'
  due_time: '2026-04-15T02:46:00Z'
  required_duration_s: 20
  required_sensor_type: infrared
  weight: 3.0
- task_id: task_0264
  name: Latakia, SY
  latitude_deg: 35.53125
  longitude_deg: 35.79088
  altitude_m: 0.0
  release_time: '2026-04-15T01:15:30Z'
  due_time: '2026-04-15T01:47:00Z'
  required_duration_s: 70
  required_sensor_type: visible
  weight: 5.0
- task_id: task_0265
  name: Puyang, CN
  latitude_deg: 35.75641
  longitude_deg: 115.04363
  altitude_m: 0.0
  release_time: '2026-04-15T01:57:00Z'
  due_time: '2026-04-15T02:38:00Z'
  required_duration_s: 45
  required_sensor_type: visible
  weight: 5.0
- task_id: task_0266
  name: background_0107
  latitude_deg: 36.022284
  longitude_deg: -98.690555
  altitude_m: 0.0
  release_time: '2026-04-15T02:05:00Z'
  due_time: '2026-04-15T02:37:00Z'
  required_duration_s: 100
  required_sensor_type: visible
  weight: 1.0
- task_id: task_0267
  name: "Hu\xE1nuco, PE"
  latitude_deg: -9.92882
  longitude_deg: -76.23989
  altitude_m: 0.0
  release_time: '2026-04-15T03:15:30Z'
  due_time: '2026-04-15T03:47:30Z'
  required_duration_s: 50
  required_sensor_type: visible
  weight: 3.0
- task_id: task_0268
  name: Portoviejo, EC
  latitude_deg: -1.05764
  longitude_deg: -80.45145
  altitude_m: 0.0
  release_time: '2026-04-15T03:37:30Z'
  due_time: '2026-04-15T04:00:00Z'
  required_duration_s: 20
  required_sensor_type: infrared
  weight: 3.0
- task_id: task_0269
  name: background_0163
  latitude_deg: -25.333591
  longitude_deg: 18.009108
  altitude_m: 0.0
  release_time: '2026-04-14T21:02:00Z'
  due_time: '2026-04-14T21:23:30Z'
  required_duration_s: 40
  required_sensor_type: visible
  weight: 1.0
- task_id: task_0270
  name: background_0418
  latitude_deg: -83.065889
  longitude_deg: 131.221536
  altitude_m: 0.0
  release_time: '2026-04-14T21:48:00Z'
  due_time: '2026-04-14T22:14:30Z'
  required_duration_s: 90
  required_sensor_type: visible
  weight: 1.0
- task_id: task_0271
  name: Kota, IN
  latitude_deg: 25.18254
  longitude_deg: 75.83907
  altitude_m: 0.0
  release_time: '2026-04-15T03:51:00Z'
  due_time: '2026-04-15T04:00:00Z'
  required_duration_s: 80
  required_sensor_type: visible
  weight: 4.0
- task_id: task_0272
  name: background_0286
  latitude_deg: 57.341581
  longitude_deg: -157.588274
  altitude_m: 0.0
  release_time: '2026-04-14T21:03:00Z'
  due_time: '2026-04-14T21:34:00Z'
  required_duration_s: 50
  required_sensor_type: visible
  weight: 1.0
- task_id: task_0273
  name: background_0211
  latitude_deg: -8.02277
  longitude_deg: 32.940759
  altitude_m: 0.0
  release_time: '2026-04-14T17:36:00Z'
  due_time: '2026-04-14T18:13:00Z'
  required_duration_s: 120
  required_sensor_type: visible
  weight: 1.5
- task_id: task_0274
  name: Harbin, CN
  latitude_deg: 45.75
  longitude_deg: 126.65
  altitude_m: 0.0
  release_time: '2026-04-15T01:37:30Z'
  due_time: '2026-04-15T02:03:30Z'
  required_duration_s: 50
  required_sensor_type: visible
  weight: 5.0
- task_id: task_0275
  name: Vaughan, CA
  latitude_deg: 43.8361
  longitude_deg: -79.49827
  altitude_m: 0.0
  release_time: '2026-04-15T00:27:00Z'
  due_time: '2026-04-15T00:54:00Z'
  required_duration_s: 60
  required_sensor_type: visible
  weight: 5.0
- task_id: task_0276
  name: background_0338
  latitude_deg: 57.048331
  longitude_deg: -70.514842
  altitude_m: 0.0
  release_time: '2026-04-14T16:00:00Z'
  due_time: '2026-04-14T16:23:30Z'
  required_duration_s: 120
  required_sensor_type: visible
  weight: 1.0
- task_id: task_0277
  name: Dodoma, TZ
  latitude_deg: -6.17221
  longitude_deg: 35.73947
  altitude_m: 0.0
  release_time: '2026-04-14T21:27:00Z'
  due_time: '2026-04-14T21:53:00Z'
  required_duration_s: 30
  required_sensor_type: visible
  weight: 4.0
- task_id: task_0278
  name: background_0060
  latitude_deg: 36.499212
  longitude_deg: 117.576518
  altitude_m: 0.0
  release_time: '2026-04-15T01:43:30Z'
  due_time: '2026-04-15T02:24:30Z'
  required_duration_s: 20
  required_sensor_type: visible
  weight: 1.5
- task_id: task_0279
  name: background_0620
  latitude_deg: 63.567758
  longitude_deg: -100.495809
  altitude_m: 0.0
  release_time: '2026-04-14T17:48:00Z'
  due_time: '2026-04-14T18:04:30Z'
  required_duration_s: 70
  required_sensor_type: visible
  weight: 2.0
- task_id: task_0280
  name: "Guang\u2019an, CN"
  latitude_deg: 30.47413
  longitude_deg: 106.63696
  altitude_m: 0.0
  release_time: '2026-04-15T00:56:30Z'
  due_time: '2026-04-15T01:38:00Z'
  required_duration_s: 75
  required_sensor_type: visible
  weight: 5.0
- task_id: task_0281
  name: background_0325
  latitude_deg: 47.375685
  longitude_deg: 27.703724
  altitude_m: 0.0
  release_time: '2026-04-14T19:25:30Z'
  due_time: '2026-04-14T20:02:00Z'
  required_duration_s: 50
  required_sensor_type: visible
  weight: 1.5
- task_id: task_0282
  name: Kyiv, UA
  latitude_deg: 50.45466
  longitude_deg: 30.5238
  altitude_m: 0.0
  release_time: '2026-04-14T19:11:30Z'
  due_time: '2026-04-14T19:38:00Z'
  required_duration_s: 50
  required_sensor_type: visible
  weight: 4.0
- task_id: task_0283
  name: Austin, US
  latitude_deg: 30.26715
  longitude_deg: -97.74306
  altitude_m: 0.0
  release_time: '2026-04-14T16:36:00Z'
  due_time: '2026-04-14T17:57:30Z'
  required_duration_s: 20
  required_sensor_type: visible
  weight: 3.0
- task_id: task_0284
  name: Suginami, JP
  latitude_deg: 36.2013
  longitude_deg: 140.28406
  altitude_m: 0.0
  release_time: '2026-04-15T00:58:30Z'
  due_time: '2026-04-15T01:15:00Z'
  required_duration_s: 70
  required_sensor_type: visible
  weight: 3.0
- task_id: task_0285
  name: Cangzhou, CN
  latitude_deg: 38.31124
  longitude_deg: 116.85334
  altitude_m: 0.0
  release_time: '2026-04-15T02:27:00Z'
  due_time: '2026-04-15T02:53:30Z'
  required_duration_s: 75
  required_sensor_type: visible
  weight: 3.0
- task_id: task_0286
  name: background_0468
  latitude_deg: -12.667989
  longitude_deg: -65.885518
  altitude_m: 0.0
  release_time: '2026-04-15T00:01:00Z'
  due_time: '2026-04-15T01:13:00Z'
  required_duration_s: 70
  required_sensor_type: visible
  weight: 1.5
- task_id: task_0287
  name: Ganzhou, CN
  latitude_deg: 25.84664
  longitude_deg: 114.9326
  altitude_m: 0.0
  release_time: '2026-04-15T01:59:30Z'
  due_time: '2026-04-15T02:25:30Z'
  required_duration_s: 60
  required_sensor_type: visible
  weight: 3.0
- task_id: task_0288
  name: Fuyang, CN
  latitude_deg: 32.9
  longitude_deg: 115.81667
  altitude_m: 0.0
  release_time: '2026-04-15T02:28:30Z'
  due_time: '2026-04-15T03:14:00Z'
  required_duration_s: 20
  required_sensor_type: infrared
  weight: 4.0
- task_id: task_0289
  name: background_0879
  latitude_deg: 31.894003
  longitude_deg: 103.86908
  altitude_m: 0.0
  release_time: '2026-04-15T00:36:30Z'
  due_time: '2026-04-15T01:47:30Z'
  required_duration_s: 45
  required_sensor_type: visible
  weight: 1.5
- task_id: task_0290
  name: Dakar, SN
  latitude_deg: 14.6937
  longitude_deg: -17.44406
  altitude_m: 0.0
  release_time: '2026-04-14T20:58:30Z'
  due_time: '2026-04-14T21:39:30Z'
  required_duration_s: 60
  required_sensor_type: visible
  weight: 3.0
- task_id: task_0291
  name: Talatona, AO
  latitude_deg: -8.91783
  longitude_deg: 13.18562
  altitude_m: 0.0
  release_time: '2026-04-14T22:55:00Z'
  due_time: '2026-04-14T23:41:00Z'
  required_duration_s: 45
  required_sensor_type: visible
  weight: 3.0
- task_id: task_0292
  name: Kemerovo, RU
  latitude_deg: 55.35417
  longitude_deg: 86.10435
  altitude_m: 0.0
  release_time: '2026-04-14T16:00:00Z'
  due_time: '2026-04-14T16:41:30Z'
  required_duration_s: 50
  required_sensor_type: visible
  weight: 3.0
- task_id: task_0293
  name: Ujjain, IN
  latitude_deg: 23.18239
  longitude_deg: 75.77643
  altitude_m: 0.0
  release_time: '2026-04-14T17:00:00Z'
  due_time: '2026-04-14T17:31:30Z'
  required_duration_s: 40
  required_sensor_type: visible
  weight: 4.0
- task_id: task_0294
  name: background_0734
  latitude_deg: 21.35085
  longitude_deg: 48.982126
  altitude_m: 0.0
  release_time: '2026-04-14T18:40:00Z'
  due_time: '2026-04-14T19:12:00Z'
  required_duration_s: 50
  required_sensor_type: visible
  weight: 1.0
- task_id: task_0295
  name: background_0007
  latitude_deg: 35.072194
  longitude_deg: -97.521743
  altitude_m: 0.0
  release_time: '2026-04-15T01:47:30Z'
  due_time: '2026-04-15T02:08:00Z'
  required_duration_s: 20
  required_sensor_type: infrared
  weight: 1.0
- task_id: task_0296
  name: background_0867
  latitude_deg: 42.305789
  longitude_deg: 77.976674
  altitude_m: 0.0
  release_time: '2026-04-14T16:06:30Z'
  due_time: '2026-04-14T16:33:00Z'
  required_duration_s: 75
  required_sensor_type: visible
  weight: 1.0
- task_id: task_0297
  name: background_0155
  latitude_deg: 64.204334
  longitude_deg: 77.258221
  altitude_m: 0.0
  release_time: '2026-04-14T21:16:30Z'
  due_time: '2026-04-14T22:17:30Z'
  required_duration_s: 40
  required_sensor_type: infrared
  weight: 1.5
- task_id: task_0298
  name: background_0123
  latitude_deg: -5.518061
  longitude_deg: 27.966365
  altitude_m: 0.0
  release_time: '2026-04-14T20:26:30Z'
  due_time: '2026-04-14T21:08:00Z'
  required_duration_s: 90
  required_sensor_type: visible
  weight: 1.5
- task_id: task_0299
  name: Faridabad, IN
  latitude_deg: 28.41124
  longitude_deg: 77.31316
  altitude_m: 0.0
  release_time: '2026-04-14T21:05:30Z'
  due_time: '2026-04-14T21:31:30Z'
  required_duration_s: 50
  required_sensor_type: visible
  weight: 3.0
- task_id: task_0300
  name: background_0411
  latitude_deg: 24.093362
  longitude_deg: 48.221287
  altitude_m: 0.0
  release_time: '2026-04-14T18:41:00Z'
  due_time: '2026-04-14T19:22:30Z'
  required_duration_s: 60
  required_sensor_type: visible
  weight: 2.0
- task_id: task_0301
  name: background_0048
  latitude_deg: -83.074025
  longitude_deg: 151.54991
  altitude_m: 0.0
  release_time: '2026-04-14T20:12:00Z'
  due_time: '2026-04-14T20:33:30Z'
  required_duration_s: 80
  required_sensor_type: visible
  weight: 1.5
- task_id: task_0302
  name: background_0747
  latitude_deg: 44.178258
  longitude_deg: 143.089011
  altitude_m: 0.0
  release_time: '2026-04-15T01:05:00Z'
  due_time: '2026-04-15T01:31:00Z'
  required_duration_s: 20
  required_sensor_type: visible
  weight: 2.0
- task_id: task_0303
  name: Caruaru, BR
  latitude_deg: -8.28333
  longitude_deg: -35.97611
  altitude_m: 0.0
  release_time: '2026-04-15T00:29:30Z'
  due_time: '2026-04-15T00:45:30Z'
  required_duration_s: 40
  required_sensor_type: visible
  weight: 3.0
- task_id: task_0304
  name: background_0727
  latitude_deg: 39.58879
  longitude_deg: 101.811834
  altitude_m: 0.0
  release_time: '2026-04-15T03:17:00Z'
  due_time: '2026-04-15T04:00:00Z'
  required_duration_s: 80
  required_sensor_type: visible
  weight: 1.0
- task_id: task_0305
  name: Serra, BR
  latitude_deg: -20.12861
  longitude_deg: -40.30778
  altitude_m: 0.0
  release_time: '2026-04-15T01:16:00Z'
  due_time: '2026-04-15T01:43:00Z'
  required_duration_s: 120
  required_sensor_type: visible
  weight: 3.0
- task_id: task_0306
  name: Lisbon, PT
  latitude_deg: 38.72509
  longitude_deg: -9.1498
  altitude_m: 0.0
  release_time: '2026-04-14T20:50:00Z'
  due_time: '2026-04-14T21:11:30Z'
  required_duration_s: 90
  required_sensor_type: visible
  weight: 3.0
- task_id: task_0307
  name: Lusaka, ZM
  latitude_deg: -15.40669
  longitude_deg: 28.28713
  altitude_m: 0.0
  release_time: '2026-04-14T20:38:30Z'
  due_time: '2026-04-14T20:50:30Z'
  required_duration_s: 70
  required_sensor_type: visible
  weight: 3.0
- task_id: task_0308
  name: Benghazi, LY
  latitude_deg: 32.11486
  longitude_deg: 20.06859
  altitude_m: 0.0
  release_time: '2026-04-14T20:34:00Z'
  due_time: '2026-04-14T20:50:30Z'
  required_duration_s: 80
  required_sensor_type: visible
  weight: 4.0
- task_id: task_0309
  name: Delmas, HT
  latitude_deg: 18.54478
  longitude_deg: -72.30036
  altitude_m: 0.0
  release_time: '2026-04-15T00:20:00Z'
  due_time: '2026-04-15T01:02:00Z'
  required_duration_s: 120
  required_sensor_type: visible
  weight: 5.0
- task_id: task_0310
  name: Jodhpur, IN
  latitude_deg: 26.26841
  longitude_deg: 73.00594
  altitude_m: 0.0
  release_time: '2026-04-14T17:05:30Z'
  due_time: '2026-04-14T17:42:30Z'
  required_duration_s: 45
  required_sensor_type: visible
  weight: 4.0
- task_id: task_0311
  name: background_0320
  latitude_deg: 36.221192
  longitude_deg: 45.203663
  altitude_m: 0.0
  release_time: '2026-04-14T17:31:00Z'
  due_time: '2026-04-14T18:52:30Z'
  required_duration_s: 90
  required_sensor_type: visible
  weight: 1.0
- task_id: task_0312
  name: Kerman, IR
  latitude_deg: 30.28321
  longitude_deg: 57.07879
  altitude_m: 0.0
  release_time: '2026-04-14T23:23:30Z'
  due_time: '2026-04-15T00:10:00Z'
  required_duration_s: 75
  required_sensor_type: visible
  weight: 4.0
- task_id: task_0313
  name: background_0161
  latitude_deg: -79.560243
  longitude_deg: 58.630899
  altitude_m: 0.0
  release_time: '2026-04-14T21:29:00Z'
  due_time: '2026-04-14T23:10:30Z'
  required_duration_s: 75
  required_sensor_type: visible
  weight: 1.0
- task_id: task_0314
  name: background_0215
  latitude_deg: -18.590053
  longitude_deg: -55.401194
  altitude_m: 0.0
  release_time: '2026-04-15T01:58:00Z'
  due_time: '2026-04-15T02:24:30Z'
  required_duration_s: 90
  required_sensor_type: visible
  weight: 1.5
- task_id: task_0315
  name: Chetumal, MX
  latitude_deg: 18.51957
  longitude_deg: -88.30397
  altitude_m: 0.0
  release_time: '2026-04-14T22:21:00Z'
  due_time: '2026-04-14T23:31:30Z'
  required_duration_s: 30
  required_sensor_type: infrared
  weight: 4.0
- task_id: task_0316
  name: Baton Rouge, US
  latitude_deg: 30.44332
  longitude_deg: -91.18747
  altitude_m: 0.0
  release_time: '2026-04-14T16:49:30Z'
  due_time: '2026-04-14T17:00:30Z'
  required_duration_s: 50
  required_sensor_type: infrared
  weight: 3.0
- task_id: task_0317
  name: background_0585
  latitude_deg: 28.849009
  longitude_deg: 68.93869
  altitude_m: 0.0
  release_time: '2026-04-14T17:18:30Z'
  due_time: '2026-04-14T17:50:30Z'
  required_duration_s: 100
  required_sensor_type: visible
  weight: 2.0
- task_id: task_0318
  name: background_0015
  latitude_deg: -67.366751
  longitude_deg: 135.803851
  altitude_m: 0.0
  release_time: '2026-04-14T23:29:30Z'
  due_time: '2026-04-14T23:51:30Z'
  required_duration_s: 80
  required_sensor_type: visible
  weight: 1.0
- task_id: task_0319
  name: background_0862
  latitude_deg: 6.418112
  longitude_deg: 34.513637
  altitude_m: 0.0
  release_time: '2026-04-14T17:35:30Z'
  due_time: '2026-04-14T18:01:30Z'
  required_duration_s: 20
  required_sensor_type: visible
  weight: 1.5
- task_id: task_0320
  name: background_0454
  latitude_deg: -76.468835
  longitude_deg: -112.16503
  altitude_m: 0.0
  release_time: '2026-04-15T03:05:30Z'
  due_time: '2026-04-15T03:41:30Z'
  required_duration_s: 45
  required_sensor_type: visible
  weight: 2.0
- task_id: task_0321
  name: background_0141
  latitude_deg: 59.647041
  longitude_deg: 152.935833
  altitude_m: 0.0
  release_time: '2026-04-15T00:55:00Z'
  due_time: '2026-04-15T01:26:00Z'
  required_duration_s: 40
  required_sensor_type: infrared
  weight: 1.0
- task_id: task_0322
  name: Xinzhou, CN
  latitude_deg: 38.40917
  longitude_deg: 112.73333
  altitude_m: 0.0
  release_time: '2026-04-15T02:49:00Z'
  due_time: '2026-04-15T03:35:00Z'
  required_duration_s: 50
  required_sensor_type: visible
  weight: 5.0
- task_id: task_0323
  name: background_0053
  latitude_deg: 15.064356
  longitude_deg: -87.298891
  altitude_m: 0.0
  release_time: '2026-04-15T03:04:30Z'
  due_time: '2026-04-15T03:30:30Z'
  required_duration_s: 45
  required_sensor_type: visible
  weight: 1.0
- task_id: task_0324
  name: Santiago, CL
  latitude_deg: -33.45694
  longitude_deg: -70.64827
  altitude_m: 0.0
  release_time: '2026-04-15T03:09:00Z'
  due_time: '2026-04-15T03:56:00Z'
  required_duration_s: 80
  required_sensor_type: visible
  weight: 5.0
- task_id: task_0325
  name: Kirkuk, IQ
  latitude_deg: 35.46806
  longitude_deg: 44.39222
  altitude_m: 0.0
  release_time: '2026-04-14T17:28:30Z'
  due_time: '2026-04-14T18:49:00Z'
  required_duration_s: 20
  required_sensor_type: visible
  weight: 4.0
- task_id: task_0326
  name: background_0086
  latitude_deg: 29.069856
  longitude_deg: 46.167711
  altitude_m: 0.0
  release_time: '2026-04-14T18:47:30Z'
  due_time: '2026-04-14T20:04:00Z'
  required_duration_s: 40
  required_sensor_type: visible
  weight: 2.0
- task_id: task_0327
  name: Malang, ID
  latitude_deg: -7.9797
  longitude_deg: 112.6304
  altitude_m: 0.0
  release_time: '2026-04-15T02:30:00Z'
  due_time: '2026-04-15T03:02:00Z'
  required_duration_s: 60
  required_sensor_type: visible
  weight: 3.0
- task_id: task_0328
  name: background_0423
  latitude_deg: 60.329901
  longitude_deg: 90.088187
  altitude_m: 0.0
  release_time: '2026-04-15T00:40:30Z'
  due_time: '2026-04-15T01:06:30Z'
  required_duration_s: 60
  required_sensor_type: visible
  weight: 1.5
- task_id: task_0329
  name: background_0864
  latitude_deg: 55.745022
  longitude_deg: 39.156229
  altitude_m: 0.0
  release_time: '2026-04-15T01:05:00Z'
  due_time: '2026-04-15T01:46:30Z'
  required_duration_s: 70
  required_sensor_type: visible
  weight: 2.0
- task_id: task_0330
  name: Shangqiu, CN
  latitude_deg: 34.45
  longitude_deg: 115.65
  altitude_m: 0.0
  release_time: '2026-04-15T02:12:00Z'
  due_time: '2026-04-15T02:38:00Z'
  required_duration_s: 50
  required_sensor_type: visible
  weight: 3.0
- task_id: task_0331
  name: Mersin, TR
  latitude_deg: 36.81196
  longitude_deg: 34.63886
  altitude_m: 0.0
  release_time: '2026-04-14T19:33:00Z'
  due_time: '2026-04-14T20:04:00Z'
  required_duration_s: 45
  required_sensor_type: visible
  weight: 4.0
- task_id: task_0332
  name: Pristina, XK
  latitude_deg: 42.67272
  longitude_deg: 21.16688
  altitude_m: 0.0
  release_time: '2026-04-14T17:50:30Z'
  due_time: '2026-04-14T18:27:30Z'
  required_duration_s: 120
  required_sensor_type: visible
  weight: 5.0
- task_id: task_0333
  name: Quetzaltenango, GT
  latitude_deg: 14.84462
  longitude_deg: -91.52316
  altitude_m: 0.0
  release_time: '2026-04-14T16:00:30Z'
  due_time: '2026-04-14T17:12:30Z'
  required_duration_s: 40
  required_sensor_type: visible
  weight: 5.0
- task_id: task_0334
  name: Yuncheng, CN
  latitude_deg: 35.02306
  longitude_deg: 110.99278
  altitude_m: 0.0
  release_time: '2026-04-14T20:19:30Z'
  due_time: '2026-04-14T20:41:00Z'
  required_duration_s: 30
  required_sensor_type: visible
  weight: 5.0
- task_id: task_0335
  name: background_0642
  latitude_deg: 12.236307
  longitude_deg: -2.447939
  altitude_m: 0.0
  release_time: '2026-04-14T22:28:00Z'
  due_time: '2026-04-14T22:44:30Z'
  required_duration_s: 45
  required_sensor_type: visible
  weight: 1.5
- task_id: task_0336
  name: background_0744
  latitude_deg: -12.148522
  longitude_deg: -56.113586
  altitude_m: 0.0
  release_time: '2026-04-15T01:14:30Z'
  due_time: '2026-04-15T02:05:30Z'
  required_duration_s: 60
  required_sensor_type: visible
  weight: 1.5
- task_id: task_0337
  name: Al Fayyum, EG
  latitude_deg: 29.30995
  longitude_deg: 30.8418
  altitude_m: 0.0
  release_time: '2026-04-14T19:04:00Z'
  due_time: '2026-04-14T19:25:00Z'
  required_duration_s: 50
  required_sensor_type: visible
  weight: 5.0
- task_id: task_0338
  name: background_0185
  latitude_deg: -1.587312
  longitude_deg: 10.15542
  altitude_m: 0.0
  release_time: '2026-04-14T21:31:30Z'
  due_time: '2026-04-14T21:57:00Z'
  required_duration_s: 30
  required_sensor_type: visible
  weight: 1.0
- task_id: task_0339
  name: "Ciudad L\xF3pez Mateos, MX"
  latitude_deg: 19.55793
  longitude_deg: -99.25675
  altitude_m: 0.0
  release_time: '2026-04-15T00:18:00Z'
  due_time: '2026-04-15T00:39:00Z'
  required_duration_s: 40
  required_sensor_type: visible
  weight: 3.0
- task_id: task_0340
  name: Chuzhou, CN
  latitude_deg: 32.32194
  longitude_deg: 118.29778
  altitude_m: 0.0
  release_time: '2026-04-15T02:33:30Z'
  due_time: '2026-04-15T02:55:00Z'
  required_duration_s: 70
  required_sensor_type: visible
  weight: 3.0
- task_id: task_0341
  name: background_0023
  latitude_deg: 36.918208
  longitude_deg: -93.199427
  altitude_m: 0.0
  release_time: '2026-04-14T22:51:00Z'
  due_time: '2026-04-14T23:16:30Z'
  required_duration_s: 30
  required_sensor_type: infrared
  weight: 1.5
- task_id: task_0342
  name: background_0147
  latitude_deg: 58.895259
  longitude_deg: -69.008533
  altitude_m: 0.0
  release_time: '2026-04-15T01:24:00Z'
  due_time: '2026-04-15T02:39:30Z'
  required_duration_s: 20
  required_sensor_type: infrared
  weight: 1.0
- task_id: task_0343
  name: Sargodha, PK
  latitude_deg: 32.08586
  longitude_deg: 72.67418
  altitude_m: 0.0
  release_time: '2026-04-14T17:02:30Z'
  due_time: '2026-04-14T17:39:00Z'
  required_duration_s: 90
  required_sensor_type: visible
  weight: 3.0
- task_id: task_0344
  name: background_0109
  latitude_deg: 21.211008
  longitude_deg: 34.834519
  altitude_m: 0.0
  release_time: '2026-04-15T01:14:30Z'
  due_time: '2026-04-15T01:40:30Z'
  required_duration_s: 30
  required_sensor_type: visible
  weight: 2.0
- task_id: task_0345
  name: "Ciudad L\xE1zaro C\xE1rdenas, MX"
  latitude_deg: 17.96256
  longitude_deg: -102.19887
  altitude_m: 0.0
  release_time: '2026-04-14T16:50:30Z'
  due_time: '2026-04-14T17:17:00Z'
  required_duration_s: 90
  required_sensor_type: visible
  weight: 3.0
- task_id: task_0346
  name: background_0769
  latitude_deg: 56.389381
  longitude_deg: 93.140795
  altitude_m: 0.0
  release_time: '2026-04-15T02:02:00Z'
  due_time: '2026-04-15T03:42:30Z'
  required_duration_s: 30
  required_sensor_type: visible
  weight: 2.0
- task_id: task_0347
  name: background_0791
  latitude_deg: 7.488095
  longitude_deg: 0.76439
  altitude_m: 0.0
  release_time: '2026-04-14T22:07:30Z'
  due_time: '2026-04-14T22:29:30Z'
  required_duration_s: 75
  required_sensor_type: visible
  weight: 1.5
- task_id: task_0348
  name: background_0607
  latitude_deg: -72.265402
  longitude_deg: 123.330166
  altitude_m: 0.0
  release_time: '2026-04-14T22:14:00Z'
  due_time: '2026-04-14T22:50:00Z'
  required_duration_s: 30
  required_sensor_type: visible
  weight: 1.0
- task_id: task_0349
  name: background_0297
  latitude_deg: 73.076678
  longitude_deg: -123.9356
  altitude_m: 0.0
  release_time: '2026-04-14T18:07:30Z'
  due_time: '2026-04-14T18:34:30Z'
  required_duration_s: 45
  required_sensor_type: visible
  weight: 1.5
- task_id: task_0350
  name: background_0695
  latitude_deg: -75.692472
  longitude_deg: -19.397766
  altitude_m: 0.0
  release_time: '2026-04-14T18:53:30Z'
  due_time: '2026-04-14T20:15:00Z'
  required_duration_s: 75
  required_sensor_type: visible
  weight: 2.0
- task_id: task_0351
  name: background_0291
  latitude_deg: 59.607456
  longitude_deg: 50.295939
  altitude_m: 0.0
  release_time: '2026-04-14T17:33:00Z'
  due_time: '2026-04-14T17:49:30Z'
  required_duration_s: 90
  required_sensor_type: visible
  weight: 2.0
- task_id: task_0352
  name: Piracicaba, BR
  latitude_deg: -22.72528
  longitude_deg: -47.64917
  altitude_m: 0.0
  release_time: '2026-04-15T01:35:30Z'
  due_time: '2026-04-15T02:02:30Z'
  required_duration_s: 70
  required_sensor_type: visible
  weight: 5.0
- task_id: task_0353
  name: Bogor, ID
  latitude_deg: -6.59444
  longitude_deg: 106.78917
  altitude_m: 0.0
  release_time: '2026-04-15T02:49:30Z'
  due_time: '2026-04-15T03:21:00Z'
  required_duration_s: 70
  required_sensor_type: visible
  weight: 4.0
- task_id: task_0354
  name: Blumenau, BR
  latitude_deg: -26.91944
  longitude_deg: -49.06611
  altitude_m: 0.0
  release_time: '2026-04-15T01:30:00Z'
  due_time: '2026-04-15T02:06:30Z'
  required_duration_s: 60
  required_sensor_type: visible
  weight: 5.0
- task_id: task_0355
  name: "Jaragu\xE1 do Sul, BR"
  latitude_deg: -26.48611
  longitude_deg: -49.06667
  altitude_m: 0.0
  release_time: '2026-04-15T01:14:00Z'
  due_time: '2026-04-15T01:29:30Z'
  required_duration_s: 20
  required_sensor_type: visible
  weight: 3.0
- task_id: task_0356
  name: El Paso, US
  latitude_deg: 31.75872
  longitude_deg: -106.48693
  altitude_m: 0.0
  release_time: '2026-04-15T00:21:30Z'
  due_time: '2026-04-15T00:52:30Z'
  required_duration_s: 45
  required_sensor_type: visible
  weight: 3.0
- task_id: task_0357
  name: background_0697
  latitude_deg: 27.522721
  longitude_deg: -101.301164
  altitude_m: 0.0
  release_time: '2026-04-15T02:13:00Z'
  due_time: '2026-04-15T02:39:30Z'
  required_duration_s: 75
  required_sensor_type: visible
  weight: 2.0
- task_id: task_0358
  name: background_0469
  latitude_deg: 11.688227
  longitude_deg: 107.872672
  altitude_m: 0.0
  release_time: '2026-04-15T02:45:30Z'
  due_time: '2026-04-15T03:11:30Z'
  required_duration_s: 50
  required_sensor_type: visible
  weight: 1.0
- task_id: task_0359
  name: background_0122
  latitude_deg: 26.633981
  longitude_deg: 39.306239
  altitude_m: 0.0
  release_time: '2026-04-14T18:54:30Z'
  due_time: '2026-04-14T19:36:00Z'
  required_duration_s: 60
  required_sensor_type: visible
  weight: 2.0
- task_id: task_0360
  name: Yichang, CN
  latitude_deg: 30.71444
  longitude_deg: 111.28472
  altitude_m: 0.0
  release_time: '2026-04-15T02:30:00Z'
  due_time: '2026-04-15T03:31:30Z'
  required_duration_s: 90
  required_sensor_type: visible
  weight: 3.0
- task_id: task_0361
  name: background_0127
  latitude_deg: -7.929194
  longitude_deg: 33.101911
  altitude_m: 0.0
  release_time: '2026-04-14T17:41:00Z'
  due_time: '2026-04-14T18:13:00Z'
  required_duration_s: 120
  required_sensor_type: visible
  weight: 1.5
- task_id: task_0362
  name: Port Harcourt, NG
  latitude_deg: 4.77742
  longitude_deg: 7.0134
  altitude_m: 0.0
  release_time: '2026-04-14T20:47:30Z'
  due_time: '2026-04-14T22:18:30Z'
  required_duration_s: 45
  required_sensor_type: visible
  weight: 5.0
- task_id: task_0363
  name: background_0674
  latitude_deg: 75.339387
  longitude_deg: -88.507979
  altitude_m: 0.0
  release_time: '2026-04-15T01:53:30Z'
  due_time: '2026-04-15T02:15:30Z'
  required_duration_s: 100
  required_sensor_type: visible
  weight: 1.0
- task_id: task_0364
  name: Tunis, TN
  latitude_deg: 36.81897
  longitude_deg: 10.16579
  altitude_m: 0.0
  release_time: '2026-04-14T20:39:00Z'
  due_time: '2026-04-14T21:05:30Z'
  required_duration_s: 45
  required_sensor_type: visible
  weight: 4.0
- task_id: task_0365
  name: Santo Domingo de los Colorados, EC
  latitude_deg: -0.25368
  longitude_deg: -79.17628
  altitude_m: 0.0
  release_time: '2026-04-15T02:45:30Z'
  due_time: '2026-04-15T03:11:30Z'
  required_duration_s: 40
  required_sensor_type: visible
  weight: 4.0
- task_id: task_0366
  name: Quilmes, AR
  latitude_deg: -34.72065
  longitude_deg: -58.25454
  altitude_m: 0.0
  release_time: '2026-04-15T00:14:30Z'
  due_time: '2026-04-15T00:41:30Z'
  required_duration_s: 120
  required_sensor_type: visible
  weight: 3.0
- task_id: task_0367
  name: background_0548
  latitude_deg: -69.420163
  longitude_deg: 96.906608
  altitude_m: 0.0
  release_time: '2026-04-15T00:44:30Z'
  due_time: '2026-04-15T02:05:00Z'
  required_duration_s: 20
  required_sensor_type: visible
  weight: 2.0
- task_id: task_0368
  name: background_0096
  latitude_deg: -48.399704
  longitude_deg: -67.822871
  altitude_m: 0.0
  release_time: '2026-04-15T02:44:00Z'
  due_time: '2026-04-15T04:00:00Z'
  required_duration_s: 20
  required_sensor_type: infrared
  weight: 2.0
- task_id: task_0369
  name: Barrancabermeja, CO
  latitude_deg: 7.06528
  longitude_deg: -73.85472
  altitude_m: 0.0
  release_time: '2026-04-15T02:59:30Z'
  due_time: '2026-04-15T03:31:30Z'
  required_duration_s: 70
  required_sensor_type: visible
  weight: 3.0
- task_id: task_0370
  name: Tripoli, LY
  latitude_deg: 32.88743
  longitude_deg: 13.18733
  altitude_m: 0.0
  release_time: '2026-04-14T20:07:30Z'
  due_time: '2026-04-14T20:33:30Z'
  required_duration_s: 45
  required_sensor_type: visible
  weight: 5.0
- task_id: task_0371
  name: background_0094
  latitude_deg: -81.329457
  longitude_deg: 117.302281
  altitude_m: 0.0
  release_time: '2026-04-15T01:07:30Z'
  due_time: '2026-04-15T02:23:30Z'
  required_duration_s: 60
  required_sensor_type: infrared
  weight: 1.5
- task_id: task_0372
  name: Dazhou, CN
  latitude_deg: 31.2106
  longitude_deg: 107.46308
  altitude_m: 0.0
  release_time: '2026-04-15T00:56:00Z'
  due_time: '2026-04-15T01:38:00Z'
  required_duration_s: 90
  required_sensor_type: visible
  weight: 4.0
- task_id: task_0373
  name: background_0145
  latitude_deg: 68.318294
  longitude_deg: -106.941725
  altitude_m: 0.0
  release_time: '2026-04-14T22:29:00Z'
  due_time: '2026-04-14T23:09:30Z'
  required_duration_s: 20
  required_sensor_type: visible
  weight: 2.0
- task_id: task_0374
  name: background_0017
  latitude_deg: -2.791882
  longitude_deg: -78.672252
  altitude_m: 0.0
  release_time: '2026-04-15T02:46:00Z'
  due_time: '2026-04-15T04:00:00Z'
  required_duration_s: 20
  required_sensor_type: infrared
  weight: 2.0
- task_id: task_0375
  name: background_0296
  latitude_deg: 9.558245
  longitude_deg: 46.061452
  altitude_m: 0.0
  release_time: '2026-04-14T18:09:30Z'
  due_time: '2026-04-14T19:51:30Z'
  required_duration_s: 70
  required_sensor_type: visible
  weight: 1.0
- task_id: task_0376
  name: Battagram, PK
  latitude_deg: 34.67719
  longitude_deg: 73.02329
  altitude_m: 0.0
  release_time: '2026-04-14T17:03:00Z'
  due_time: '2026-04-14T17:29:30Z'
  required_duration_s: 50
  required_sensor_type: visible
  weight: 4.0
- task_id: task_0377
  name: Henderson, US
  latitude_deg: 36.0397
  longitude_deg: -114.98194
  altitude_m: 0.0
  release_time: '2026-04-15T00:23:00Z'
  due_time: '2026-04-15T00:48:30Z'
  required_duration_s: 20
  required_sensor_type: infrared
  weight: 3.0
- task_id: task_0378
  name: Taizhou, CN
  latitude_deg: 32.49069
  longitude_deg: 119.90812
  altitude_m: 0.0
  release_time: '2026-04-15T02:24:00Z'
  due_time: '2026-04-15T02:40:30Z'
  required_duration_s: 75
  required_sensor_type: visible
  weight: 3.0
- task_id: task_0379
  name: Abeokuta, NG
  latitude_deg: 7.15571
  longitude_deg: 3.34509
  altitude_m: 0.0
  release_time: '2026-04-14T22:07:30Z'
  due_time: '2026-04-14T22:34:00Z'
  required_duration_s: 60
  required_sensor_type: visible
  weight: 5.0
- task_id: task_0380
  name: Coatzacoalcos, MX
  latitude_deg: 18.14905
  longitude_deg: -94.4447
  altitude_m: 0.0
  release_time: '2026-04-15T02:15:00Z'
  due_time: '2026-04-15T02:27:00Z'
  required_duration_s: 80
  required_sensor_type: visible
  weight: 5.0
- task_id: task_0381
  name: Reno, US
  latitude_deg: 39.52963
  longitude_deg: -119.8138
  altitude_m: 0.0
  release_time: '2026-04-14T18:32:30Z'
  due_time: '2026-04-14T18:48:30Z'
  required_duration_s: 45
  required_sensor_type: visible
  weight: 4.0
- task_id: task_0382
  name: "Bah\xEDa Blanca, AR"
  latitude_deg: -38.7176
  longitude_deg: -62.26545
  altitude_m: 0.0
  release_time: '2026-04-14T22:31:30Z'
  due_time: '2026-04-14T22:53:00Z'
  required_duration_s: 40
  required_sensor_type: visible
  weight: 5.0
- task_id: task_0383
  name: Depok, ID
  latitude_deg: -6.4
  longitude_deg: 106.81861
  altitude_m: 0.0
  release_time: '2026-04-14T21:54:00Z'
  due_time: '2026-04-14T22:24:30Z'
  required_duration_s: 20
  required_sensor_type: infrared
  weight: 4.0
- task_id: task_0384
  name: background_0663
  latitude_deg: -22.692573
  longitude_deg: 124.22018
  altitude_m: 0.0
  release_time: '2026-04-15T01:14:00Z'
  due_time: '2026-04-15T01:40:00Z'
  required_duration_s: 50
  required_sensor_type: visible
  weight: 1.0
- task_id: task_0385
  name: background_0542
