- id: city_qincheng_cn
  name: Qincheng
  country: China
  latitude_deg: 34.5815
  longitude_deg: 105.7248
  altitude_m: 0.0
  population: 2984659.0
- id: city_cinere_id
  name: Cinere
  country: Indonesia
  latitude_deg: -6.3333
  longitude_deg: 106.7833
  altitude_m: 0.0
  population: 101600.0
- id: city_multai_in
  name: Multai
  country: India
  latitude_deg: 21.77
  longitude_deg: 78.25
  altitude_m: 0.0
  population: 161819.0
- id: city_cerquilho_velho_br
  name: Cerquilho Velho
  country: Brazil
  latitude_deg: -23.165
  longitude_deg: -47.7436
  altitude_m: 0.0
  population: 49802.0
- id: city_manhattan_us_1
  name: Manhattan
  country: United States
  latitude_deg: 39.1886
  longitude_deg: -96.6048
  altitude_m: 0.0
  population: 53951.0
- id: city_grand_lahou_ci
  name: Grand-Lahou
  country: "C\xF4te d\u2019Ivoire"
  latitude_deg: 5.1333
  longitude_deg: -5.0167
  altitude_m: 0.0
  population: 28470.0
- id: city_mariupol_ua
  name: Mariupol
  country: Ukraine
  latitude_deg: 47.0958
  longitude_deg: 37.5494
  altitude_m: 0.0
  population: 120000.0
- id: city_kilosa_tz
  name: Kilosa
  country: Tanzania
  latitude_deg: -6.83
  longitude_deg: 36.9875
  altitude_m: 0.0
  population: 43418.0
- id: city_salaberry_de_valleyfield_ca
  name: Salaberry-de-Valleyfield
  country: Canada
  latitude_deg: 45.25
  longitude_deg: -74.13
  altitude_m: 0.0
  population: 42787.0
- id: city_darhan_mn
  name: Darhan
  country: Mongolia
  latitude_deg: 49.4867
  longitude_deg: 105.9228
  altitude_m: 0.0
  population: 74738.0
- id: city_edmonton_ca
  name: Edmonton
  country: Canada
  latitude_deg: 53.5344
  longitude_deg: -113.4903
  altitude_m: 0.0
  population: 1151635.0
- id: city_ushuaia_ar
  name: Ushuaia
  country: Argentina
  latitude_deg: -54.8019
  longitude_deg: -68.3031
  altitude_m: 0.0
  population: 82615.0
- id: city_apia_ws
  name: Apia
  country: Samoa
  latitude_deg: -13.8333
  longitude_deg: -171.75
  altitude_m: 0.0
  population: 35974.0
- id: city_dunedin_nz
  name: Dunedin
  country: New Zealand
  latitude_deg: -45.8742
  longitude_deg: 170.5036
  altitude_m: 0.0
  population: 36070.0
- id: city_sumilao_ph
  name: Sumilao
  country: Philippines
  latitude_deg: 8.3281
  longitude_deg: 124.9783
  altitude_m: 0.0
  population: 29531.0
